gisco_id,longitude,latitude,country,nuts_2,nuts_3,lau_id,lau_name,population,area_km2,year,fid,concordance,pop_weighted
BG_BGS01,27.254635862357226,42.70468574180571,BG,BG34,BG341,BGS01,Айтос,27849,402.80887105,2020,BG_BGS01,official,TRUE
BG_BGS04,27.44331625888605,42.518093805189466,BG,BG34,BG341,BGS04,Бургас,208915,560.02368208,2020,BG_BGS04,official,TRUE
BG_BGS06,27.182845173185438,42.34609836810898,BG,BG34,BG341,BGS06,Средец,14495,1150.14167464,2020,BG_BGS06,official,TRUE
BG_BGS08,27.271285656991218,42.55115208416572,BG,BG34,BG341,BGS08,Камено,9864,354.87663482,2020,BG_BGS08,official,TRUE
BG_BGS09,26.98259163537653,42.646628523609245,BG,BG34,BG341,BGS09,Карнобат,23380,834.34766541,2020,BG_BGS09,official,TRUE
BG_BGS12,27.524226198833606,41.994563106756395,BG,BG34,BG341,BGS12,Малко Търново,3208,783.36672076,2020,BG_BGS12,official,TRUE
BG_BGS13,27.853686434217405,42.16071466155779,BG,BG34,BG341,BGS13,Царево,9014,513.60879549,2020,BG_BGS13,official,TRUE
BG_BGS15,27.717338896958857,42.69573008991541,BG,BG34,BG341,BGS15,Несебър,27879,421.64241484,2020,BG_BGS15,official,TRUE
BG_BGS17,27.595364036677267,42.60862684455507,BG,BG34,BG341,BGS17,Поморие,27233,414.02332859,2020,BG_BGS17,official,TRUE
BG_BGS18,27.275296450315828,42.84037913853441,BG,BG34,BG341,BGS18,Руен,27846,689.7888801,2020,BG_BGS18,official,TRUE
BG_BGS21,27.586380863573623,42.3869217548142,BG,BG34,BG341,BGS21,Созопол,13005,480.29234976,2020,BG_BGS21,official,TRUE
BG_BGS23,26.804022024892763,42.78546262802828,BG,BG34,BG341,BGS23,Сунгурларе,11519,795.40739905,2020,BG_BGS23,official,TRUE
BG_BGS27,27.697923710419346,42.26998309832725,BG,BG34,BG341,BGS27,Приморско,6124,350.50171856,2020,BG_BGS27,official,TRUE
BG_BLG01,23.497246820911496,41.830575973854145,BG,BG41,BG413,BLG01,Банско,12827,475.93962703,2020,BG_BLG01,official,TRUE
BG_BLG02,23.588316467684045,41.931852270730666,BG,BG41,BG413,BLG02,Белица,9316,293.41042538,2020,BG_BLG02,official,TRUE
BG_BLG03,23.095876092235418,42.01312787927348,BG,BG41,BG413,BLG03,Благоевград,75329,620.07037096,2020,BG_BLG03,official,TRUE
BG_BLG11,23.723401232194018,41.58182997916843,BG,BG41,BG413,BLG11,Гоце Делчев,29859,330.93056649,2020,BG_BLG11,official,TRUE
BG_BLG13,23.8029859772355,41.6364883608277,BG,BG41,BG413,BLG13,Гърмен,14793,388.47089515,2020,BG_BLG13,official,TRUE
BG_BLG28,23.164560777102324,41.719889750419846,BG,BG41,BG413,BLG28,Кресна,5143,344.59098027,2020,BG_BLG28,official,TRUE
BG_BLG33,23.203007865675012,41.4016996354005,BG,BG41,BG413,BLG33,Петрич,49530,650.50115536,2020,BG_BLG33,official,TRUE
BG_BLG37,23.47007938180329,41.889382040886055,BG,BG41,BG413,BLG37,Разлог,19294,440.18538751,2020,BG_BLG37,official,TRUE
BG_BLG40,23.278778314755076,41.55950671946426,BG,BG41,BG413,BLG40,Сандански,37400,996.18080345,2020,BG_BLG40,official,TRUE
BG_BLG42,24.00502873185679,41.56147939296477,BG,BG41,BG413,BLG42,Сатовча,14263,332.32504158,2020,BG_BLG42,official,TRUE
BG_BLG44,23.12333668276106,41.884296363939136,BG,BG41,BG413,BLG44,Симитли,13249,552.97929437,2020,BG_BLG44,official,TRUE
BG_BLG49,23.193500131373042,41.62782906261151,BG,BG41,BG413,BLG49,Струмяни,5053,357.94233801,2020,BG_BLG49,official,TRUE
BG_BLG52,23.884454290387676,41.52152465332091,BG,BG41,BG413,BLG52,Хаджидимово,9178,327.68672602,2020,BG_BLG52,official,TRUE
BG_BLG53,23.671096533166573,42.01553366013234,BG,BG41,BG413,BLG53,Якоруда,9889,339.31485624,2020,BG_BLG53,official,TRUE
BG_DOB03,28.144931097037436,43.417801950677514,BG,BG33,BG332,DOB03,Балчик,19331,524.6038724,2020,BG_DOB03,official,TRUE
BG_DOB12,28.044790841856802,43.702534347389246,BG,BG33,BG332,DOB12,Генерал Тошево,13063,981.79521468,2020,BG_DOB12,official,TRUE
BG_DOB15,27.737562114230812,43.60469891675546,BG,BG33,BG332,DOB15,Добрич-селска,20345,1294.91682043,2020,BG_DOB15,official,TRUE
BG_DOB17,28.339776451577013,43.432995006623905,BG,BG33,BG332,DOB17,Каварна,14020,481.73214916,2020,BG_DOB17,official,TRUE
BG_DOB20,27.738638267180136,43.82174745297477,BG,BG33,BG332,DOB20,Крушари,3893,417.4750377,2020,BG_DOB20,official,TRUE
BG_DOB27,27.40202380330183,43.737056215510975,BG,BG33,BG332,DOB27,Тервел,15228,579.80243283,2020,BG_DOB27,official,TRUE
BG_DOB28,27.830374275449312,43.57153704090411,BG,BG33,BG332,DOB28,Добрич,83584,109.02202876,2020,BG_DOB28,official,TRUE
BG_DOB29,28.534008223743758,43.54229598176506,BG,BG33,BG332,DOB29,Шабла,4367,330.56068035,2020,BG_DOB29,official,TRUE
BG_GAB05,25.31808310532601,42.87621580216733,BG,BG32,BG322,GAB05,Габрово,57625,555.34464786,2020,BG_GAB05,official,TRUE
BG_GAB12,25.474081659811798,42.97648669560604,BG,BG32,BG322,GAB12,Дряново,8529,248.45020492,2020,BG_GAB12,official,TRUE
BG_GAB29,25.1012043424507,43.025028430533624,BG,BG32,BG322,GAB29,Севлиево,32155,964.10686295,2020,BG_GAB29,official,TRUE
BG_GAB35,25.493705678443057,42.86809360532832,BG,BG32,BG322,GAB35,Трявна,10095,254.84536867,2020,BG_GAB35,official,TRUE
BG_HKV09,25.583685081858256,42.05914262298371,BG,BG42,BG422,HKV09,Димитровград,47287,567.52738975,2020,BG_HKV09,official,TRUE
BG_HKV11,26.113033293762257,41.522397195330875,BG,BG42,BG422,HKV11,Ивайловград,5692,813.74718277,2020,BG_HKV11,official,TRUE
BG_HKV17,26.08067648477362,41.842524111696484,BG,BG42,BG422,HKV17,Любимец,9217,344.15303015,2020,BG_HKV17,official,TRUE
BG_HKV18,25.83613015710031,41.661148294781,BG,BG42,BG422,HKV18,Маджарово,2025,247.19014846,2020,BG_HKV18,official,TRUE
BG_HKV19,25.326668180337556,41.86856967900174,BG,BG42,BG422,HKV19,Минерални бани,6092,214.64768445,2020,BG_HKV19,official,TRUE
BG_HKV28,26.199726849425915,41.769651267712334,BG,BG42,BG422,HKV28,Свиленград,21613,700.32442912,2020,BG_HKV28,official,TRUE
BG_HKV29,25.837345084181333,42.03185466821416,BG,BG42,BG422,HKV29,Симеоновград,8795,223.06741578,2020,BG_HKV29,official,TRUE
BG_HKV30,25.67190927482367,41.760090408374616,BG,BG42,BG422,HKV30,Стамболово,5755,276.69861502,2020,BG_HKV30,official,TRUE
BG_HKV32,26.34169235025377,42.08126529166704,BG,BG42,BG422,HKV32,Тополовград,9801,710.68389999,2020,BG_HKV32,official,TRUE
BG_HKV33,25.904821278747747,41.92544817501694,BG,BG42,BG422,HKV33,Харманли,25253,694.64008502,2020,BG_HKV33,official,TRUE
BG_HKV34,25.554522382241103,41.93339685646165,BG,BG42,BG422,HKV34,Хасково,86611,739.67448605,2020,BG_HKV34,official,TRUE
BG_JAM03,26.820533047294386,42.153010110421896,BG,BG34,BG343,JAM03,Болярово,3562,667.94740822000006,2020,BG_JAM03,official,TRUE
BG_JAM07,26.570799683103314,42.17313215681242,BG,BG34,BG343,JAM07,Елхово,14234,702.17272538,2020,BG_JAM07,official,TRUE
BG_JAM22,26.68643918833153,42.59274301536544,BG,BG34,BG343,JAM22,Стралджа,11592,676.27963016,2020,BG_JAM22,official,TRUE
BG_JAM25,26.444486878318695,42.43354948210013,BG,BG34,BG343,JAM25,Тунджа,21435,1218.9003093,2020,BG_JAM25,official,TRUE
BG_JAM26,26.510062167380298,42.48340729265779,BG,BG34,BG343,JAM26,Ямбол,68074,90.67466015,2020,BG_JAM26,official,TRUE
BG_KNL04,23.00260619575864,42.363107310684384,BG,BG41,BG415,KNL04,Бобов дол,7498,206.31528273,2020,BG_KNL04,official,TRUE
BG_KNL05,23.02328734412085,42.165187010052975,BG,BG41,BG415,KNL05,Бобошево,2597,135.22435753,2020,BG_KNL05,official,TRUE
BG_KNL27,23.064335626305116,42.08443374655716,BG,BG41,BG415,KNL27,Кочериново,4365,182.06726948,2020,BG_KNL27,official,TRUE
BG_KNL29,22.69346735324533,42.283973164262015,BG,BG41,BG415,KNL29,Кюстендил,53273,960.18571979,2020,BG_KNL29,official,TRUE
BG_KNL31,22.84837207324039,42.23368276096239,BG,BG41,BG415,KNL31,Невестино,2018,439.56866844,2020,BG_KNL31,official,TRUE
BG_KNL38,23.131563571495793,42.12582746728886,BG,BG41,BG415,KNL38,Рила,2458,362.26450763,2020,BG_KNL38,official,TRUE
BG_KNL41,23.256719327641697,42.28772324473527,BG,BG41,BG415,KNL41,Сапарева баня,6660,180.70521436,2020,BG_KNL41,official,TRUE
BG_KNL48,23.1195392276829,42.26198381245433,BG,BG41,BG415,KNL48,Дупница,39414,329.11365128,2020,BG_KNL48,official,TRUE
BG_KNL50,22.590501790181126,42.545661186475,BG,BG41,BG415,KNL50,Трекляно,758,257.78730848,2020,BG_KNL50,official,TRUE
BG_KRZ02,25.130264450158727,41.58206953806912,BG,BG42,BG425,KRZ02,Ардино,12792,339.67373627,2020,BG_KRZ02,official,TRUE
BG_KRZ08,25.294285010595633,41.493857127711436,BG,BG42,BG425,KRZ08,Джебел,8441,229.64240808,2020,BG_KRZ08,official,TRUE
BG_KRZ14,25.321523869476742,41.3527593799574,BG,BG42,BG425,KRZ14,Кирково,21254,537.20066554,2020,BG_KRZ14,official,TRUE
BG_KRZ15,25.65652028296702,41.46801503173483,BG,BG42,BG425,KRZ15,Крумовград,17081,843.01815745,2020,BG_KRZ15,official,TRUE
BG_KRZ16,25.36882059665874,41.639506607199706,BG,BG42,BG425,KRZ16,Кърджали,68727,574.58773466,2020,BG_KRZ16,official,TRUE
BG_KRZ21,25.414628539015176,41.525809509004525,BG,BG42,BG425,KRZ21,Момчилград,15787,360.21749337,2020,BG_KRZ21,official,TRUE
BG_KRZ35,25.303578804575352,41.77422579809424,BG,BG42,BG425,KRZ35,Черноочене,8791,327.21653188,2020,BG_KRZ35,official,TRUE
BG_LOV02,24.91816588598083,42.83653172260849,BG,BG31,BG315,LOV02,Априлци,2773,238.08646993,2020,BG_LOV02,official,TRUE
BG_LOV17,25.0570593723306,43.300767640663004,BG,BG31,BG315,LOV17,Летница,3380,177.74497389,2020,BG_LOV17,official,TRUE
BG_LOV18,24.710313250094345,43.1397716569626,BG,BG31,BG315,LOV18,Ловеч,43242,946.32139315,2020,BG_LOV18,official,TRUE
BG_LOV19,24.182397872159047,43.19649796514934,BG,BG31,BG315,LOV19,Луковит,16364,453.00098805,2020,BG_LOV19,official,TRUE
BG_LOV33,24.263684369223864,42.940977159035526,BG,BG31,BG315,LOV33,Тетевен,19113,697.13706838,2020,BG_LOV33,official,TRUE
BG_LOV34,24.709082143371884,42.88501461419194,BG,BG31,BG315,LOV34,Троян,28743,893.96287515,2020,BG_LOV34,official,TRUE
BG_LOV36,24.410398630034003,43.07323402026378,BG,BG31,BG315,LOV36,Угърчин,5531,523.07070584,2020,BG_LOV36,official,TRUE
BG_LOV38,24.116287167712112,43.04394873125876,BG,BG31,BG315,LOV38,Ябланица,5727,204.10345713,2020,BG_LOV38,official,TRUE
BG_MON02,23.13073923864928,43.23515405828916,BG,BG31,BG312,MON02,Берковица,16343,463.36371502,2020,BG_MON02,official,TRUE
BG_MON04,23.42182584339218,43.518811188947936,BG,BG31,BG312,MON04,Бойчиновци,8124,307.26489143,2020,BG_MON04,official,TRUE
BG_MON07,23.09177888826791,43.69099207087356,BG,BG31,BG312,MON07,Брусарци,4311,194.63321909,2020,BG_MON07,official,TRUE
BG_MON11,23.470771638093954,43.72280225937507,BG,BG31,BG312,MON11,Вълчедръм,8493,425.85574834,2020,BG_MON11,official,TRUE
BG_MON12,23.285572572108105,43.1952245993847,BG,BG31,BG312,MON12,Вършец,7035,240.3207899,2020,BG_MON12,official,TRUE
BG_MON14,22.985876495994024,43.354004393996675,BG,BG31,BG312,MON14,Георги Дамяново,2174,297.3196477,2020,BG_MON14,official,TRUE
BG_MON24,23.237167025025585,43.81325043738512,BG,BG31,BG312,MON24,Лом,24543,327.60621869,2020,BG_MON24,official,TRUE
BG_MON26,23.189897896542178,43.6523934159561,BG,BG31,BG312,MON26,Медковец,3500,191.10520061,2020,BG_MON26,official,TRUE
BG_MON29,23.223400229945433,43.41010300454256,BG,BG31,BG312,MON29,Монтана,48134,675.89215296,2020,BG_MON29,official,TRUE
BG_MON36,22.8816273988589,43.39159086225735,BG,BG31,BG312,MON36,Чипровци,3139,284.83226259,2020,BG_MON36,official,TRUE
BG_MON38,23.315892629000487,43.64743878423735,BG,BG31,BG312,MON38,Якимово,3841,220.88723524,2020,BG_MON38,official,TRUE
BG_PAZ03,24.24564122459908,41.93752964141163,BG,BG42,BG423,PAZ03,Батак,5368,677.67616009,2020,BG_PAZ03,official,TRUE
BG_PAZ04,24.00800988978212,42.22109645035939,BG,BG42,BG423,PAZ04,Белово,7623,346.36884279,2020,BG_PAZ04,official,TRUE
BG_PAZ06,24.392214202442755,42.0502892916343,BG,BG42,BG423,PAZ06,Брацигово,8530,229.44544783,2020,BG_PAZ06,official,TRUE
BG_PAZ08,23.9822529143106,42.03118267232775,BG,BG42,BG423,PAZ08,Велинград,33787,604.58582637,2020,BG_PAZ08,official,TRUE
BG_PAZ14,24.172910388927853,42.32042416109386,BG,BG42,BG423,PAZ14,Лесичово,5119,209.35442752,2020,BG_PAZ14,official,TRUE
BG_PAZ19,24.335585929208246,42.192952118473166,BG,BG42,BG423,PAZ19,Пазарджик,107505,636.83912059,2020,BG_PAZ19,official,TRUE
BG_PAZ20,24.18512844513789,42.50271504173645,BG,BG42,BG423,PAZ20,Панагюрище,22547,598.90674332,2020,BG_PAZ20,official,TRUE
BG_PAZ21,24.30268788747832,42.03275663296945,BG,BG42,BG423,PAZ21,Пещера,17716,135.3241981,2020,BG_PAZ21,official,TRUE
BG_PAZ24,24.09619846182579,42.0035468880074,BG,BG42,BG423,PAZ24,Ракитово,14479,245.75579935,2020,BG_PAZ24,official,TRUE
BG_PAZ29,24.12443721761569,42.22001554178752,BG,BG42,BG423,PAZ29,Септември,23620,349.40389795,2020,BG_PAZ29,official,TRUE
BG_PAZ32,24.321401081868927,42.503477350601536,BG,BG42,BG423,PAZ32,Стрелча,4473,224.29465636,2020,BG_PAZ32,official,TRUE
BG_PAZ39,23.999491667561728,41.7544913318752,BG,BG42,BG423,PAZ39,Сърница,4712,197.88754694,2020,BG_PAZ39,official,TRUE
BG_PDV01,24.874292431780564,42.012516747836294,BG,BG42,BG421,PDV01,Асеновград,60769,653.22060966,2020,BG_PDV01,official,TRUE
BG_PDV07,25.027282335521367,42.349244144171195,BG,BG42,BG421,PDV07,Брезово,6240,465.32482806,2020,BG_PDV07,official,TRUE
BG_PDV12,24.750367222477966,42.36049423613323,BG,BG42,BG421,PDV12,Калояново,10659,347.58735192,2020,BG_PDV12,official,TRUE
BG_PDV13,24.791110730193772,42.63907096844952,BG,BG42,BG421,PDV13,Карлово,48277,1039.4121475,2020,BG_PDV13,official,TRUE
BG_PDV15,24.830633306597612,41.8342668776937,BG,BG42,BG421,PDV15,Лъки,2531,280.81637951,2020,BG_PDV15,official,TRUE
BG_PDV17,24.786236171085886,42.21141175620934,BG,BG42,BG421,PDV17,Марица,30981,342.60739375000003,2020,BG_PDV17,official,TRUE
BG_PDV22,24.750015974715964,42.142226207736805,BG,BG42,BG421,PDV22,Пловдив,346893,101.88867409,2020,BG_PDV22,official,TRUE
BG_PDV23,25.218317754968403,42.09080450136834,BG,BG42,BG421,PDV23,Първомай,23416,533.8810899,2020,BG_PDV23,official,TRUE
BG_PDV25,24.958212740403074,42.26341900220416,BG,BG42,BG421,PDV25,Раковски,25373,264.1636714,2020,BG_PDV25,official,TRUE
BG_PDV26,24.686003721385884,42.090101053483714,BG,BG42,BG421,PDV26,Родопи,30329,524.78390563,2020,BG_PDV26,official,TRUE
BG_PDV28,24.94366817749291,42.10538363407778,BG,BG42,BG421,PDV28,Садово,14504,192.83157925,2020,BG_PDV28,official,TRUE
BG_PDV33,24.55449739727595,42.28304438242631,BG,BG42,BG421,PDV33,Съединение,9507,298.01105841,2020,BG_PDV33,official,TRUE
BG_PDV37,24.68514929752932,42.50115633943646,BG,BG42,BG421,PDV37,Хисаря,10815,548.58483112,2020,BG_PDV37,official,TRUE
BG_PDV39,24.469654274811344,42.04388260637521,BG,BG42,BG421,PDV39,Кричим,7906,54.29383885,2020,BG_PDV39,official,TRUE
BG_PDV40,24.54438054439703,42.057116836352755,BG,BG42,BG421,PDV40,Перущица,4766,48.72329607,2020,BG_PDV40,official,TRUE
BG_PDV41,24.530598427071656,42.12852629991889,BG,BG42,BG421,PDV41,Стамболийски,19739,61.25194009,2020,BG_PDV41,official,TRUE
BG_PDV42,24.78612473179033,42.0342783376915,BG,BG42,BG421,PDV42,Куклен,6428,147.67930156,2020,BG_PDV42,official,TRUE
BG_PDV43,24.758976200084412,42.65206556742187,BG,BG42,BG421,PDV43,Сопот,9201,56.335242,2020,BG_PDV43,official,TRUE
BG_PER08,22.90507076958143,42.740266860284414,BG,BG41,BG414,PER08,Брезник,6160,402.68472076,2020,BG_PER08,official,TRUE
BG_PER19,22.74872439560951,42.48137168314189,BG,BG41,BG414,PER19,Земен,2372,247.03406087,2020,BG_PER19,official,TRUE
BG_PER22,22.827019608191268,42.5296187621448,BG,BG41,BG414,PER22,Ковачевци,1576,143.55813532,2020,BG_PER22,official,TRUE
BG_PER32,23.05245765282014,42.60396566960082,BG,BG41,BG414,PER32,Перник,88604,484.12702182,2020,BG_PER32,official,TRUE
BG_PER36,22.96555811510753,42.541640055153294,BG,BG41,BG414,PER36,Радомир,18253,540.52594389,2020,BG_PER36,official,TRUE
BG_PER51,22.6464078582353,42.832346404555004,BG,BG41,BG414,PER51,Трън,3915,573.92772821,2020,BG_PER51,official,TRUE
BG_PVN03,25.12253919789219,43.64297637547594,BG,BG31,BG314,PVN03,Белене,8454,281.71789271,2020,BG_PVN03,official,TRUE
BG_PVN08,24.653112918717884,43.64958947550248,BG,BG31,BG314,PVN08,Гулянци,10358,459.56448982,2020,BG_PVN08,official,TRUE
BG_PVN10,24.47624863808961,43.515398274527655,BG,BG31,BG314,PVN10,Долна Митрополия,17694,668.24034007,2020,BG_PVN10,official,TRUE
BG_PVN11,24.422413858907884,43.36733045090203,BG,BG31,BG314,PVN11,Долни Дъбник,10702,307.31708617,2020,BG_PVN11,official,TRUE
BG_PVN16,25.136965473121734,43.36485563119597,BG,BG31,BG314,PVN16,Левски,17455,414.71923671,2020,BG_PVN16,official,TRUE
BG_PVN21,24.899218938888133,43.67870100810205,BG,BG31,BG314,PVN21,Никопол,7925,414.90235632,2020,BG_PVN21,official,TRUE
BG_PVN23,24.252768866190493,43.47281985540126,BG,BG31,BG314,PVN23,Искър,6020,244.25610484,2020,BG_PVN23,official,TRUE
BG_PVN24,24.620770668777375,43.41026671973096,BG,BG31,BG314,PVN24,Плевен,119649,809.76101303,2020,BG_PVN24,official,TRUE
BG_PVN27,24.87933394637264,43.366083472665615,BG,BG31,BG314,PVN27,Пордим,5460,238.15215722,2020,BG_PVN27,official,TRUE
BG_PVN37,24.094956955654904,43.28595766305278,BG,BG31,BG314,PVN37,Червен бряг,24492,485.85973292,2020,BG_PVN37,official,TRUE
BG_PVN39,24.083165341607533,43.49238376444055,BG,BG31,BG314,PVN39,Кнежа,12171,317.74214167,2020,BG_PVN39,official,TRUE
BG_RAZ11,26.638115509717498,43.75279394684658,BG,BG32,BG324,RAZ11,Завет,9327,273.89582704,2020,BG_RAZ11,official,TRUE
BG_RAZ14,26.840092032740962,43.71015197915844,BG,BG32,BG324,RAZ14,Исперих,20428,402.11917462,2020,BG_RAZ14,official,TRUE
BG_RAZ16,26.493478443902298,43.807313964976515,BG,BG32,BG324,RAZ16,Кубрат,15956,433.01745856,2020,BG_RAZ16,official,TRUE
BG_RAZ17,26.609338044749016,43.395386558160645,BG,BG32,BG324,RAZ17,Лозница,8375,240.60002045,2020,BG_RAZ17,official,TRUE
BG_RAZ26,26.52456531204573,43.53043611617211,BG,BG32,BG324,RAZ26,Разград,46495,652.69332843,2020,BG_RAZ26,official,TRUE
BG_RAZ29,26.789482050930147,43.56437907336262,BG,BG32,BG324,RAZ29,Самуил,6384,250.32266336,2020,BG_RAZ29,official,TRUE
BG_RAZ36,26.264463019226422,43.59040949250187,BG,BG32,BG324,RAZ36,Цар Калоян,5264,161.31167334,2020,BG_RAZ36,official,TRUE
BG_RSE03,25.78846135251005,43.551389839110776,BG,BG32,BG323,RSE03,Борово,5160,249.72205529,2020,BG_RSE03,official,TRUE
BG_RSE04,25.73465885574754,43.455449140773204,BG,BG32,BG323,RSE04,Бяла,11958,340.33715517,2020,BG_RSE04,official,TRUE
BG_RSE05,26.314993282609855,43.72232428388473,BG,BG32,BG323,RSE05,Ветово,11261,327.83523867,2020,BG_RSE05,official,TRUE
BG_RSE08,25.882793237935893,43.57698415812171,BG,BG32,BG323,RSE08,Две могили,8001,342.23901701,2020,BG_RSE08,official,TRUE
BG_RSE13,25.978238532341454,43.70077255055911,BG,BG32,BG323,RSE13,Иваново,8127,498.81760698,2020,BG_RSE13,official,TRUE
BG_RSE27,25.961469400911373,43.839416363275184,BG,BG32,BG323,RSE27,Русе,159410,568.92614837,2020,BG_RSE27,official,TRUE
BG_RSE33,26.26048996228825,43.941990749569065,BG,BG32,BG323,RSE33,Сливо поле,9749,277.16304055,2020,BG_RSE33,official,TRUE
BG_RSE37,25.634662428888362,43.552195921797214,BG,BG32,BG323,RSE37,Ценово,4890,259.71282775,2020,BG_RSE37,official,TRUE
BG_SFO06,23.193248868686666,42.76480996647026,BG,BG41,BG412,SFO06,Божурище,8379,142.82881741,2020,BG_SFO06,official,TRUE
BG_SFO07,23.792464708557834,42.908849396430675,BG,BG41,BG412,SFO07,Ботевград,31033,518.8763315,2020,BG_SFO07,official,TRUE
BG_SFO09,23.045711828491026,43.01465467472398,BG,BG41,BG412,SFO09,Годеч,4722,374.26432093,2020,BG_SFO09,official,TRUE
BG_SFO10,23.731419656489116,42.68920569198072,BG,BG41,BG412,SFO10,Горна Малина,6403,295.2552958,2020,BG_SFO10,official,TRUE
BG_SFO16,22.92754919736703,42.92131736940046,BG,BG41,BG412,SFO16,Драгоман,4740,323.69804834,2020,BG_SFO16,official,TRUE
BG_SFO17,23.600229243745712,42.66124246239205,BG,BG41,BG412,SFO17,Елин Пелин,21956,432.94041705,2020,BG_SFO17,official,TRUE
BG_SFO18,23.99789201294514,42.83324357739268,BG,BG41,BG412,SFO18,Етрополе,11153,371.60214215,2020,BG_SFO18,official,TRUE
BG_SFO20,23.815305314138808,42.438909857016135,BG,BG41,BG412,SFO20,Ихтиман,16869,541.88067481,2020,BG_SFO20,official,TRUE
BG_SFO24,24.361045884562486,42.636330811947914,BG,BG41,BG412,SFO24,Копривщица,2046,138.90198283,2020,BG_SFO24,official,TRUE
BG_SFO25,23.84573708548486,42.290786690561625,BG,BG41,BG412,SFO25,Костенец,11218,302.21553142,2020,BG_SFO25,official,TRUE
BG_SFO26,23.203322960167945,42.819830014839866,BG,BG41,BG412,SFO26,Костинброд,16752,254.43232403,2020,BG_SFO26,official,TRUE
BG_SFO34,23.934745784528342,42.90638760323552,BG,BG41,BG412,SFO34,Правец,7145,316.73194646,2020,BG_SFO34,official,TRUE
BG_SFO39,23.558981414460057,42.33738924408272,BG,BG41,BG412,SFO39,Самоков,35063,1209.91920799,2020,BG_SFO39,official,TRUE
BG_SFO43,23.345049900157274,42.96749851369568,BG,BG41,BG412,SFO43,Своге,19370,869.09635598,2020,BG_SFO43,official,TRUE
BG_SFO45,23.035982805401765,42.8518841767202,BG,BG41,BG412,SFO45,Сливница,8801,187.3922237,2020,BG_SFO45,official,TRUE
BG_SFO47,24.137620689257073,42.71438587024988,BG,BG41,BG412,SFO47,Златица,5188,163.32269365,2020,BG_SFO47,official,TRUE
BG_SFO54,24.260426838170535,42.732970767513144,BG,BG41,BG412,SFO54,Антон,1443,76.09649412,2020,BG_SFO54,official,TRUE
BG_SFO55,24.17886242607086,42.70147068284408,BG,BG41,BG412,SFO55,Пирдоп,7388,152.45519212,2020,BG_SFO55,official,TRUE
BG_SFO56,23.98249049934261,42.69395489311552,BG,BG41,BG412,SFO56,Мирково,2254,207.91443759,2020,BG_SFO56,official,TRUE
BG_SFO57,24.056424501039764,42.66111844149843,BG,BG41,BG412,SFO57,Чавдар,1151,70.80347041,2020,BG_SFO57,official,TRUE
BG_SFO58,24.084088056006927,42.7023101182915,BG,BG41,BG412,SFO58,Челопеч,1526,44.40482296,2020,BG_SFO58,official,TRUE
BG_SFO59,23.76351734255551,42.3090118141553,BG,BG41,BG412,SFO59,Долна баня,4441,68.00813204,2020,BG_SFO59,official,TRUE
BG_SHU07,26.876113665176973,43.54343790959947,BG,BG33,BG333,SHU07,Венец,7254,210.11679429,2020,BG_SHU07,official,TRUE
BG_SHU10,26.692626130349748,43.004136850631006,BG,BG33,BG333,SHU10,Върбица,10378,457.58635569,2020,BG_SHU10,official,TRUE
BG_SHU11,26.894417658594246,43.42266396052657,BG,BG33,BG333,SHU11,Хитрино,6764,288.88749084,2020,BG_SHU11,official,TRUE
BG_SHU18,27.101358217329878,43.63909835621285,BG,BG33,BG333,SHU18,Каолиново,12771,293.63632816,2020,BG_SHU18,official,TRUE
BG_SHU19,27.1586382047574,43.308585978769806,BG,BG33,BG333,SHU19,Каспичан,7283,275.0666215,2020,BG_SHU19,official,TRUE
BG_SHU21,27.23938187428211,43.5698450004942,BG,BG33,BG333,SHU21,Никола Козлево,6236,264.91425364,2020,BG_SHU21,official,TRUE
BG_SHU22,27.194835686339495,43.3469137946765,BG,BG33,BG333,SHU22,Нови пазар,16125,317.63254511,2020,BG_SHU22,official,TRUE
BG_SHU23,26.822339846279426,43.16450206949131,BG,BG33,BG333,SHU23,Велики Преслав,12230,277.5563064,2020,BG_SHU23,official,TRUE
BG_SHU25,27.02256453419838,43.06014370986914,BG,BG33,BG333,SHU25,Смядово,6062,353.73854784,2020,BG_SHU25,official,TRUE
BG_SHU30,26.926964266233007,43.26691764548186,BG,BG33,BG333,SHU30,Шумен,87252,656.26725819,2020,BG_SHU30,official,TRUE
BG_SLS01,27.3115724951226,43.898965041397986,BG,BG32,BG325,SLS01,Алфатар,2655,248.535755,2020,BG_SLS01,official,TRUE
BG_SLS07,26.84751724086618,43.91724735970509,BG,BG32,BG325,SLS07,Главиница,9897,481.40066054,2020,BG_SLS07,official,TRUE
BG_SLS10,27.11060199072297,43.82009591661796,BG,BG32,BG325,SLS10,Дулово,27403,565.545374,2020,BG_SLS10,official,TRUE
BG_SLS15,27.541612189587116,43.93129255679996,BG,BG32,BG325,SLS15,Кайнарджа,5076,315.12160613,2020,BG_SLS15,official,TRUE
BG_SLS31,27.258798723868292,44.11191110321719,BG,BG32,BG325,SLS31,Силистра,45711,516.40587261,2020,BG_SLS31,official,TRUE
BG_SLS32,26.981270220480138,43.994679473798115,BG,BG32,BG325,SLS32,Ситово,4991,271.87454627,2020,BG_SLS32,official,TRUE
BG_SLS34,26.597811462150265,44.034312618274356,BG,BG32,BG325,SLS34,Тутракан,13538,452.13145265000003,2020,BG_SLS34,official,TRUE
BG_SLV11,26.50569301647228,42.86953112683769,BG,BG34,BG342,SLV11,Котел,18161,858.00684923,2020,BG_SLV11,official,TRUE
BG_SLV16,26.0075227305414,42.49164982852423,BG,BG34,BG342,SLV16,Нова Загора,35949,876.87098158,2020,BG_SLV16,official,TRUE
BG_SLV20,26.324306135445322,42.674024140207116,BG,BG34,BG342,SLV20,Сливен,118972,1366.63684187,2020,BG_SLV20,official,TRUE
BG_SLV24,25.959523691944543,42.693722205510795,BG,BG34,BG342,SLV24,Твърдица,13413,442.56896308,2020,BG_SLV24,official,TRUE
BG_SML02,24.998864599825072,41.634884299649165,BG,BG42,BG424,SML02,Баните,3890,301.17919149,2020,BG_SML02,official,TRUE
BG_SML05,24.294668952165445,41.68121892203749,BG,BG42,BG424,SML05,Борино,3087,172.8925552,2020,BG_SML05,official,TRUE
BG_SML09,24.39764111435825,41.73749076585307,BG,BG42,BG424,SML09,Девин,10931,573.8200539,2020,BG_SML09,official,TRUE
BG_SML10,24.1621850288511,41.61844343975622,BG,BG42,BG424,SML10,Доспат,7932,282.50201532,2020,BG_SML10,official,TRUE
BG_SML11,25.088847898771814,41.38931100670651,BG,BG42,BG424,SML11,Златоград,10759,173.56809255,2020,BG_SML11,official,TRUE
BG_SML16,24.942299588648112,41.5034071279099,BG,BG42,BG424,SML16,Мадан,10886,174.86558228,2020,BG_SML16,official,TRUE
BG_SML18,25.08210290709284,41.457295625800725,BG,BG42,BG424,SML18,Неделино,5780,102.2478777,2020,BG_SML18,official,TRUE
BG_SML27,24.84790807714831,41.47243993021202,BG,BG42,BG424,SML27,Рудозем,9045,186.1064851,2020,BG_SML27,official,TRUE
BG_SML31,24.714995553329945,41.5770218644211,BG,BG42,BG424,SML31,Смолян,36475,849.87300672,2020,BG_SML31,official,TRUE
BG_SML38,24.681939770226123,41.73204094749314,BG,BG42,BG424,SML38,Чепеларе,6636,387.92546788,2020,BG_SML38,official,TRUE
BG_SOF46,23.318182450789543,42.68821162404183,BG,BG41,BG411,SOF46,Столична,1328120,1341.7637737,2020,BG_SOF46,official,TRUE
BG_SZR04,25.196201436871338,42.22066270097484,BG,BG34,BG344,SZR04,Братя Даскалови,7852,482.26593646,2020,BG_SZR04,official,TRUE
BG_SZR07,25.887713539897256,42.14034767700726,BG,BG34,BG344,SZR07,Гълъбово,11640,347.9274121,2020,BG_SZR07,official,TRUE
BG_SZR12,25.39357807010137,42.62045447311073,BG,BG34,BG344,SZR12,Казанлък,68206,634.37446662,2020,BG_SZR12,official,TRUE
BG_SZR22,25.5734109814896,42.59535817799562,BG,BG34,BG344,SZR22,Мъглиж,9615,388.84114106,2020,BG_SZR22,official,TRUE
BG_SZR23,25.685138481590702,42.22330929312733,BG,BG34,BG344,SZR23,Опан,2469,257.51600742,2020,BG_SZR23,official,TRUE
BG_SZR24,25.15366567264019,42.61363904085648,BG,BG34,BG344,SZR24,Павел баня,13171,520.33922642,2020,BG_SZR24,official,TRUE
BG_SZR27,25.928779125411435,42.28794615186285,BG,BG34,BG344,SZR27,Раднево,17877,545.04855112,2020,BG_SZR27,official,TRUE
BG_SZR31,25.6252387889644,42.424341041757124,BG,BG34,BG344,SZR31,Стара Загора,156568,1093.72205123,2020,BG_SZR31,official,TRUE
BG_SZR36,25.328276867482824,42.19892769127057,BG,BG34,BG344,SZR36,Чирпан,19500,491.39546446,2020,BG_SZR36,official,TRUE
BG_SZR37,25.813164330315075,42.64159121052073,BG,BG34,BG344,SZR37,Гурково,4987,292.17808222,2020,BG_SZR37,official,TRUE
BG_SZR38,25.79251891334199,42.62371003152222,BG,BG34,BG344,SZR38,Николаево,4471,96.58605572,2020,BG_SZR38,official,TRUE
BG_TGV02,26.199146409270863,43.136737767959985,BG,BG33,BG334,TGV02,Антоново,5598,479.19462788,2020,BG_TGV02,official,TRUE
BG_TGV22,26.42902803553564,43.10295064312621,BG,BG33,BG334,TGV22,Омуртаг,20818,400.78084947,2020,BG_TGV22,official,TRUE
BG_TGV23,26.145994189993658,43.45738059820094,BG,BG33,BG334,TGV23,Опака,5944,157.35428425,2020,BG_TGV23,official,TRUE
BG_TGV24,26.228625029144066,43.35041760851362,BG,BG33,BG334,TGV24,Попово,25229,832.87870303,2020,BG_TGV24,official,TRUE
BG_TGV35,26.564050599557753,43.24763522316905,BG,BG33,BG334,TGV35,Търговище,54008,840.31445333,2020,BG_TGV35,official,TRUE
BG_VAR01,27.709466211525324,43.09799981370752,BG,BG33,BG331,VAR01,Аврен,9152,354.29321288,2020,BG_VAR01,official,TRUE
BG_VAR02,27.8092707480959,43.26089718106332,BG,BG33,BG331,VAR02,Аксаково,20557,460.55031873,2020,BG_VAR02,official,TRUE
BG_VAR04,27.714721949257644,43.18987036392323,BG,BG33,BG331,VAR04,Белослав,10368,59.99034236,2020,BG_VAR04,official,TRUE
BG_VAR05,27.8700294174368,42.870983795378564,BG,BG33,BG331,VAR05,Бяла,3287,162.30369763,2020,BG_VAR05,official,TRUE
BG_VAR06,27.918865167394795,43.218384509324345,BG,BG33,BG331,VAR06,Варна,345369,238.22256563,2020,BG_VAR06,official,TRUE
BG_VAR08,27.378384014208446,43.3376869915405,BG,BG33,BG331,VAR08,Ветрино,4773,292.90119024,2020,BG_VAR08,official,TRUE
BG_VAR09,27.525720772399623,43.42380988720927,BG,BG33,BG331,VAR09,Вълчи дол,9199,471.76482767,2020,BG_VAR09,official,TRUE
BG_VAR13,27.70013094889294,42.99752031286492,BG,BG33,BG331,VAR13,Долни чифлик,18492,485.4739867,2020,BG_VAR13,official,TRUE
BG_VAR14,27.576265570631037,43.21987311541015,BG,BG33,BG331,VAR14,Девня,8522,121.58442455,2020,BG_VAR14,official,TRUE
BG_VAR16,27.317245894274294,43.032765590684086,BG,BG33,BG331,VAR16,Дългопол,13286,440.86294108,2020,BG_VAR16,official,TRUE
BG_VAR24,27.437989543246772,43.17472730488603,BG,BG33,BG331,VAR24,Провадия,20976,517.82061853,2020,BG_VAR24,official,TRUE
BG_VAR26,27.596607565533233,43.32507899539946,BG,BG33,BG331,VAR26,Суворово,7271,215.80999118,2020,BG_VAR26,official,TRUE
BG_VID01,22.680859844988515,43.628508829193855,BG,BG31,BG311,VID01,Белоградчик,5575,410.44315379,2020,BG_VID01,official,TRUE
BG_VID03,22.544412262248592,43.99353653913333,BG,BG31,BG311,VID03,Бойница,936,165.89624032,2020,BG_VID03,official,TRUE
BG_VID06,22.65586832053632,44.14572499284046,BG,BG31,BG311,VID06,Брегово,4498,178.13476637,2020,BG_VID06,official,TRUE
BG_VID09,22.869123051074826,43.99138937349757,BG,BG31,BG311,VID09,Видин,53764,515.58192339,2020,BG_VID09,official,TRUE
BG_VID15,22.657230703640625,43.83163525366145,BG,BG31,BG311,VID15,Грамада,1742,184.35771043,2020,BG_VID15,official,TRUE
BG_VID16,22.864127781457935,43.77871902681531,BG,BG31,BG311,VID16,Димово,5596,404.48606838,2020,BG_VID16,official,TRUE
BG_VID22,22.52299213809962,43.89018147180213,BG,BG31,BG311,VID22,Кула,3654,280.17831369,2020,BG_VID22,official,TRUE
BG_VID25,22.54134450460406,43.76625910456778,BG,BG31,BG311,VID25,Макреш,1277,228.71310424,2020,BG_VID25,official,TRUE
BG_VID30,22.820840871529704,44.121800759716685,BG,BG31,BG311,VID30,Ново село,2500,107.25279477,2020,BG_VID30,official,TRUE
BG_VID33,22.921414972168133,43.66046104851402,BG,BG31,BG311,VID33,Ружинци,3608,232.4488898,2020,BG_VID33,official,TRUE
BG_VID37,22.719136784409322,43.501722767070795,BG,BG31,BG311,VID37,Чупрене,1715,327.26381244,2020,BG_VID37,official,TRUE
BG_VRC05,23.735479215333807,43.45545093761427,BG,BG31,BG313,VRC05,Борован,5209,210.68935368,2020,BG_VRC05,official,TRUE
BG_VRC08,23.931697998765674,43.46840032180597,BG,BG31,BG313,VRC08,Бяла Слатина,21481,545.77865418,2020,BG_VRC08,official,TRUE
BG_VRC10,23.551788075634338,43.20985333647201,BG,BG31,BG313,VRC10,Враца,64447,706.07481886,2020,BG_VRC10,official,TRUE
BG_VRC20,23.73407334639393,43.76164212058574,BG,BG31,BG313,VRC20,Козлодуй,19066,284.59137587,2020,BG_VRC20,official,TRUE
BG_VRC21,23.469042432498586,43.377417443148644,BG,BG31,BG313,VRC21,Криводол,8466,326.88433297,2020,BG_VRC21,official,TRUE
BG_VRC27,23.708357362280175,43.1452722607881,BG,BG31,BG313,VRC27,Мездра,18452,518.8751392,2020,BG_VRC27,official,TRUE
BG_VRC28,23.8391201598404,43.663167008205406,BG,BG31,BG313,VRC28,Мизия,6134,209.12907435,2020,BG_VRC28,official,TRUE
BG_VRC31,23.98177163980393,43.71383454336475,BG,BG31,BG313,VRC31,Оряхово,9598,329.92791803,2020,BG_VRC31,official,TRUE
BG_VRC32,23.922449768820172,43.15200985781517,BG,BG31,BG313,VRC32,Роман,5462,301.56979045,2020,BG_VRC32,official,TRUE
BG_VRC35,23.652108168181403,43.57431977042329,BG,BG31,BG313,VRC35,Хайредин,4234,188.98666923,2020,BG_VRC35,official,TRUE
BG_VTR04,25.622352939829234,43.078641995459606,BG,BG32,BG321,VTR04,Велико Търново,86833,885.09660191,2020,BG_VTR04,official,TRUE
BG_VTR06,25.687819779689647,43.12827125734484,BG,BG32,BG321,VTR06,Горна Оряховица,41966,317.58208148,2020,BG_VTR06,official,TRUE
BG_VTR13,25.908907936215257,42.93069549738917,BG,BG32,BG321,VTR13,Елена,8503,671.26076708,2020,BG_VTR13,official,TRUE
BG_VTR14,25.894536537483223,43.05007061719469,BG,BG32,BG321,VTR14,Златарица,3683,232.74891409,2020,BG_VTR14,official,TRUE
BG_VTR20,25.733531148475386,43.106170930460124,BG,BG32,BG321,VTR20,Лясковец,11975,177.27518617,2020,BG_VTR20,official,TRUE
BG_VTR22,25.3034492985701,43.24113237370185,BG,BG32,BG321,VTR22,Павликени,20926,622.01025781,2020,BG_VTR22,official,TRUE
BG_VTR26,25.631645707241216,43.358975225671216,BG,BG32,BG321,VTR26,Полски Тръмбеш,12481,463.52966847,2020,BG_VTR26,official,TRUE
BG_VTR28,25.345255760244317,43.61597767249373,BG,BG32,BG321,VTR28,Свищов,35369,629.00878467,2020,BG_VTR28,official,TRUE
BG_VTR31,25.953319594510738,43.23517746621044,BG,BG32,BG321,VTR31,Стражица,11717,508.90360467,2020,BG_VTR31,official,TRUE
BG_VTR32,25.168994097408994,43.18236180526366,BG,BG32,BG321,VTR32,Сухиндол,2255,157.52366452,2020,BG_VTR32,official,TRUE
