gisco_id,longitude,latitude,country,nuts_2,nuts_3,lau_id,lau_name,population,area_km2,year,fid,concordance,pop_weighted
PL_1001121200101,20.42658689643335,49.96871809525757,PL,PL21,PL214,1001121200101,Bochnia,29718,29.88896232,2020,PL_1001121200101,official,TRUE
PL_1001121200102,20.390087191808732,49.985915643262906,PL,PL21,PL214,1001121200102,Bochnia,20024,130.82923482,2020,PL_1001121200102,official,TRUE
PL_1001121200103,20.449067893812636,50.08444943286128,PL,PL21,PL214,1001121200103,Drwinia,6534,108.53563242,2020,PL_1001121200103,official,TRUE
PL_1001121200104,20.51175872514654,49.841174605965186,PL,PL21,PL214,1001121200104,Lipnica Murowana,5659,60.32733709,2020,PL_1001121200104,official,TRUE
PL_1001121200105,20.29433988120945,49.8638820837045,PL,PL21,PL214,1001121200105,Łapanów,8197,71.70621,2020,PL_1001121200105,official,TRUE
PL_1001121200106,20.464382063510275,49.90948011840639,PL,PL21,PL214,1001121200106,Nowy Wiśnicz,14177,82.1619643,2020,PL_1001121200106,official,TRUE
PL_1001121200107,20.518472539954757,49.998500729655994,PL,PL21,PL214,1001121200107,Rzezawa,11348,86.36414207,2020,PL_1001121200107,official,TRUE
PL_1001121200108,20.376957513997613,49.841123728033594,PL,PL21,PL214,1001121200108,Trzciana,5641,44.09496974,2020,PL_1001121200108,official,TRUE
PL_1001121200109,20.429148925379323,49.814001812579754,PL,PL21,PL214,1001121200109,Żegocina,5560,34.88186801,2020,PL_1001121200109,official,TRUE
PL_1001121200601,19.654561707719445,50.01733771698047,PL,PL21,PL214,1001121200601,Czernichów,14712,84.21582128,2020,PL_1001121200601,official,TRUE
PL_1001121200602,20.25227914501989,50.10012284422427,PL,PL21,PL214,1001121200602,Igołomia-Wawrzeńczyce,7698,62.7885184,2020,PL_1001121200602,official,TRUE
PL_1001121200603,19.968275875921137,50.21978440928697,PL,PL21,PL214,1001121200603,Iwanowice,9164,71.09474382,2020,PL_1001121200603,official,TRUE
PL_1001121200604,19.711110609083445,50.21775647459117,PL,PL21,PL214,1001121200604,Jerzmanowice-Przeginia,10964,68.14572233,2020,PL_1001121200604,official,TRUE
PL_1001121200605,20.106554136476273,50.145060613614056,PL,PL21,PL214,1001121200605,Kocmyrzów-Luborzyca,15776,82.92742927,2020,PL_1001121200605,official,TRUE
PL_1001121200606,19.62522871806644,50.13467024719696,PL,PL21,PL214,1001121200606,Krzeszowice,32129,139.02488079,2020,PL_1001121200606,official,TRUE
PL_1001121200607,19.763363628559024,50.03822645641153,PL,PL21,PL214,1001121200607,Liszki,17447,72.0583576,2020,PL_1001121200607,official,TRUE
PL_1001121200608,19.985346553704876,50.15351996435468,PL,PL21,PL214,1001121200608,Michałowice,10762,51.11903528,2020,PL_1001121200608,official,TRUE
PL_1001121200609,19.89291940152435,49.951997133111206,PL,PL21,PL214,1001121200609,Mogilany,14233,43.71397124,2020,PL_1001121200609,official,TRUE
PL_1001121200610,19.854550746464287,50.22916653125337,PL,PL21,PL214,1001121200610,Skała,10579,74.82748158,2020,PL_1001121200610,official,TRUE
PL_1001121200611,19.80203463324311,49.97359981395956,PL,PL21,PL214,1001121200611,Skawina,43586,99.81143484,2020,PL_1001121200611,official,TRUE
PL_1001121200612,20.082190032363858,50.24190139852512,PL,PL21,PL214,1001121200612,Słomniki,13638,110.82279439,2020,PL_1001121200612,official,TRUE
PL_1001121200613,19.75213435346319,50.25904817954423,PL,PL21,PL214,1001121200613,Sułoszowa,5835,53.3731753,2020,PL_1001121200613,official,TRUE
PL_1001121200614,19.963495288627318,49.94319773967161,PL,PL21,PL214,1001121200614,Świątniki Górne,10195,20.34732304,2020,PL_1001121200614,official,TRUE
PL_1001121200615,19.845562028317918,50.144050732118224,PL,PL21,PL214,1001121200615,Wielka Wieś,12721,48.26949123,2020,PL_1001121200615,official,TRUE
PL_1001121200616,19.787865383239353,50.116136055209736,PL,PL21,PL214,1001121200616,Zabierzów,26708,99.42172257,2020,PL_1001121200616,official,TRUE
PL_1001121200617,19.94935851595565,50.12651708908372,PL,PL21,PL214,1001121200617,Zielonki,23092,48.5845155,2020,PL_1001121200617,official,TRUE
PL_1001121200801,19.93854246925283,50.40096385264863,PL,PL21,PL214,1001121200801,Charsznica,7441,78.472329,2020,PL_1001121200801,official,TRUE
PL_1001121200802,19.912719086218118,50.33232577634444,PL,PL21,PL214,1001121200802,Gołcza,6047,90.01919048,2020,PL_1001121200802,official,TRUE
PL_1001121200803,20.011463693628123,50.47273003884012,PL,PL21,PL214,1001121200803,Kozłów,4582,85.76094629,2020,PL_1001121200803,official,TRUE
PL_1001121200804,20.145647372458047,50.438181864289156,PL,PL21,PL214,1001121200804,Książ Wielki,5073,137.83341688,2020,PL_1001121200804,official,TRUE
PL_1001121200805,20.030749445981375,50.35562640724282,PL,PL21,PL214,1001121200805,Miechów,19645,148.34462384,2020,PL_1001121200805,official,TRUE
PL_1001121200806,20.23352772022275,50.32681403875715,PL,PL21,PL214,1001121200806,Racławice,2508,59.09963013,2020,PL_1001121200806,official,TRUE
PL_1001121200807,20.236847042332236,50.38282388053709,PL,PL21,PL214,1001121200807,Słaboszów,3522,76.78229551,2020,PL_1001121200807,official,TRUE
PL_1001121200901,20.093472047551277,49.882263625177025,PL,PL21,PL214,1001121200901,Dobczyce,15321,66.38820018,2020,PL_1001121200901,official,TRUE
PL_1001121200902,19.950449030741062,49.6810615426428,PL,PL21,PL214,1001121200902,Lubień,10076,75.09009068,2020,PL_1001121200902,official,TRUE
PL_1001121200903,19.937979832898414,49.83649646901933,PL,PL21,PL214,1001121200903,Myślenice,44444,153.4223061,2020,PL_1001121200903,official,TRUE
PL_1001121200904,19.94153268566394,49.768321879245605,PL,PL21,PL214,1001121200904,Pcim,11131,88.96403935,2020,PL_1001121200904,official,TRUE
PL_1001121200905,20.15461899566815,49.841206611388174,PL,PL21,PL214,1001121200905,Raciechowice,6413,61.14877667,2020,PL_1001121200905,official,TRUE
PL_1001121200906,19.983386340285907,49.90025837309234,PL,PL21,PL214,1001121200906,Siepraw,9001,31.8425719,2020,PL_1001121200906,official,TRUE
PL_1001121200907,19.805225365122826,49.84340791016855,PL,PL21,PL214,1001121200907,Sułkowice,14982,60.37725838,2020,PL_1001121200907,official,TRUE
PL_1001121200908,19.873821437017256,49.733194260885696,PL,PL21,PL214,1001121200908,Tokarnia,8820,68.62002167,2020,PL_1001121200908,official,TRUE
PL_1001121200909,20.107366260102317,49.78356270660408,PL,PL21,PL214,1001121200909,Wiśniowa,7412,67.09518748,2020,PL_1001121200909,official,TRUE
PL_1001121201401,20.230118251817665,50.1569218256852,PL,PL21,PL214,1001121201401,Koniusza,9007,88.51505869,2020,PL_1001121201401,official,TRUE
PL_1001121201402,20.57107242040804,50.16891833300123,PL,PL21,PL214,1001121201402,Koszyce,5454,66.05532652,2020,PL_1001121201402,official,TRUE
PL_1001121201403,20.39089895203666,50.13736656729847,PL,PL21,PL214,1001121201403,Nowe Brzesko,5712,54.4120806,2020,PL_1001121201403,official,TRUE
PL_1001121201404,20.30800585730329,50.27720045054496,PL,PL21,PL214,1001121201404,Pałecznica,3568,47.86568915,2020,PL_1001121201404,official,TRUE
PL_1001121201405,20.298197994215595,50.19412564633834,PL,PL21,PL214,1001121201405,Proszowice,16139,100.03494658,2020,PL_1001121201405,official,TRUE
PL_1001121201406,20.217931718735112,50.25500630342536,PL,PL21,PL214,1001121201406,Radziemice,3342,57.98466647,2020,PL_1001121201406,official,TRUE
PL_1001121201901,20.139023701113928,49.966897786258336,PL,PL21,PL214,1001121201901,Biskupice,10450,41.13340235,2020,PL_1001121201901,official,TRUE
PL_1001121201902,20.214250539085494,49.91760831233422,PL,PL21,PL214,1001121201902,Gdów,18296,108.71809127,2020,PL_1001121201902,official,TRUE
PL_1001121201903,20.283400165173255,49.98972079846127,PL,PL21,PL214,1001121201903,Kłaj,10768,64.78284527,2020,PL_1001121201903,official,TRUE
PL_1001121201904,20.209077718911374,50.02735760724669,PL,PL21,PL214,1001121201904,Niepołomice,29141,96.29326735,2020,PL_1001121201904,official,TRUE
PL_1001121201905,20.06164926546416,49.986577995171224,PL,PL21,PL214,1001121201905,Wieliczka,60481,99.6740557,2020,PL_1001121201905,official,TRUE
PL_1001121216101,19.974161112317606,50.06549416013363,PL,PL21,PL213,1001121216101,Kraków,779115,326.84517251,2020,PL_1001121216101,official,TRUE
PL_1001121220501,21.15911742553079,49.65949812884097,PL,PL21,PL218,1001121220501,Gorlice,27357,23.53815872,2020,PL_1001121220501,official,TRUE
PL_1001121220502,21.2415749121961,49.72836415317793,PL,PL21,PL218,1001121220502,Biecz,16808,98.22937316,2020,PL_1001121220502,official,TRUE
PL_1001121220503,20.94836788668473,49.70811566205643,PL,PL21,PL218,1001121220503,Bobowa,9798,49.79849858,2020,PL_1001121220503,official,TRUE
PL_1001121220504,21.142383046639353,49.64742347065946,PL,PL21,PL218,1001121220504,Gorlice,17278,102.86706004,2020,PL_1001121220504,official,TRUE
PL_1001121220505,21.290901596084087,49.674110969518836,PL,PL21,PL218,1001121220505,Lipinki,6792,66.4655259,2020,PL_1001121220505,official,TRUE
PL_1001121220506,21.0447178969726,49.69889430265737,PL,PL21,PL218,1001121220506,Łużna,8535,56.29856326,2020,PL_1001121220506,official,TRUE
PL_1001121220507,21.085764520020728,49.73241544306156,PL,PL21,PL218,1001121220507,Moszczenica,4983,37.61700636,2020,PL_1001121220507,official,TRUE
PL_1001121220508,21.04578113892243,49.59074440021837,PL,PL21,PL218,1001121220508,Ropa,5507,49.09860981,2020,PL_1001121220508,official,TRUE
PL_1001121220509,21.207346596708927,49.61686977068145,PL,PL21,PL218,1001121220509,Sękowa,4980,194.82945585,2020,PL_1001121220509,official,TRUE
PL_1001121220510,21.127919458106444,49.49397992723705,PL,PL21,PL218,1001121220510,Uście Gorlickie,6848,287.58406301,2020,PL_1001121220510,official,TRUE
PL_1001121220701,20.417913083442013,49.70839828897075,PL,PL21,PL218,1001121220701,Limanowa,15162,18.69967823,2020,PL_1001121220701,official,TRUE
PL_1001121220702,20.07104075106111,49.67851371503374,PL,PL21,PL218,1001121220702,Mszana Dolna,7889,27.0992339,2020,PL_1001121220702,official,TRUE
PL_1001121220703,20.23005404071261,49.709865892779156,PL,PL21,PL218,1001121220703,Dobra,9983,109.79913797,2020,PL_1001121220703,official,TRUE
PL_1001121220704,20.232822113743477,49.78349444783792,PL,PL21,PL218,1001121220704,Jodłownik,8690,72.19300796,2020,PL_1001121220704,official,TRUE
PL_1001121220705,20.33489084584635,49.585311718327645,PL,PL21,PL218,1001121220705,Kamienica,7850,95.24140479,2020,PL_1001121220705,official,TRUE
PL_1001121220706,20.491300625971665,49.76085556411545,PL,PL21,PL218,1001121220706,Laskowa,8206,72.48691982,2020,PL_1001121220706,official,TRUE
PL_1001121220707,20.450013672079162,49.70658612869058,PL,PL21,PL218,1001121220707,Limanowa,25607,152.23894812,2020,PL_1001121220707,official,TRUE
PL_1001121220708,20.49463244542877,49.61104510934096,PL,PL21,PL218,1001121220708,Łukowica,10062,69.63590284,2020,PL_1001121220708,official,TRUE
PL_1001121220709,20.099983234352308,49.66669273737474,PL,PL21,PL218,1001121220709,Mszana Dolna,17623,170.06448413,2020,PL_1001121220709,official,TRUE
PL_1001121220710,20.09232617332436,49.61625204372043,PL,PL21,PL218,1001121220710,Niedźwiedź,7337,74.2373589,2020,PL_1001121220710,official,TRUE
PL_1001121220711,20.347899270732608,49.68935847026337,PL,PL21,PL218,1001121220711,Słopnice,6764,56.82823158,2020,PL_1001121220711,official,TRUE
PL_1001121220712,20.31837930582953,49.73143233913054,PL,PL21,PL218,1001121220712,Tymbark,6591,32.70528369,2020,PL_1001121220712,official,TRUE
PL_1001121221001,20.950784134827593,49.622192090942015,PL,PL21,PL218,1001121221001,Grybów,6026,16.96351879,2020,PL_1001121221001,official,TRUE
PL_1001121221002,20.66390150393324,49.64186802576683,PL,PL21,PL218,1001121221002,Chełmiec,28834,111.9276948,2020,PL_1001121221002,official,TRUE
PL_1001121221003,20.730742747525483,49.75035579521883,PL,PL21,PL218,1001121221003,Gródek nad Dunajcem,9252,88.18658017,2020,PL_1001121221003,official,TRUE
PL_1001121221004,20.940273324187512,49.62809175250386,PL,PL21,PL218,1001121221004,Grybów,25579,153.15802566,2020,PL_1001121221004,official,TRUE
PL_1001121221005,20.80370070360096,49.5842508895533,PL,PL21,PL218,1001121221005,Kamionka Wielka,10432,65.01459701,2020,PL_1001121221005,official,TRUE
PL_1001121221006,20.82680967550549,49.679945656559106,PL,PL21,PL218,1001121221006,Korzenna,14497,106.92476394,2020,PL_1001121221006,official,TRUE
PL_1001121221007,20.960421204177653,49.41200107446606,PL,PL21,PL218,1001121221007,Krynica-Zdrój,16680,145.30495679,2020,PL_1001121221007,official,TRUE
PL_1001121221008,20.864146665040582,49.51374543395034,PL,PL21,PL218,1001121221008,Łabowa,6089,119.13209417,2020,PL_1001121221008,official,TRUE
PL_1001121221009,20.45614711184664,49.55220414681397,PL,PL21,PL218,1001121221009,Łącko,16522,132.96500621,2020,PL_1001121221009,official,TRUE
PL_1001121221010,20.632470589143676,49.72735172443285,PL,PL21,PL218,1001121221010,Łososina Dolna,11144,84.74987558,2020,PL_1001121221010,official,TRUE
PL_1001121221011,20.898420890161955,49.357672429091146,PL,PL21,PL218,1001121221011,Muszyna,11566,141.46698638,2020,PL_1001121221011,official,TRUE
PL_1001121221012,20.741998185778467,49.55293513940826,PL,PL21,PL218,1001121221012,Nawojowa,8730,50.20270461,2020,PL_1001121221012,official,TRUE
PL_1001121221013,20.71542532705512,49.44322424782734,PL,PL21,PL218,1001121221013,Piwniczna-Zdrój,10588,126.46900576,2020,PL_1001121221013,official,TRUE
PL_1001121221014,20.58681612988836,49.58845283345609,PL,PL21,PL218,1001121221014,Podegrodzie,13279,64.73713827,2020,PL_1001121221014,official,TRUE
PL_1001121221015,20.672667267096152,49.48705960329558,PL,PL21,PL218,1001121221015,Rytro,3777,41.92297922,2020,PL_1001121221015,official,TRUE
PL_1001121221016,20.625101719549033,49.55184457260769,PL,PL21,PL218,1001121221016,Stary Sącz,23801,100.88623107,2020,PL_1001121221016,official,TRUE
PL_1001121226201,20.70676549475683,49.61831029663309,PL,PL21,PL218,1001121226201,Nowy Sącz,83794,57.57023938,2020,PL_1001121226201,official,TRUE
PL_1001121230301,19.53966713235432,50.063792249380256,PL,PL21,PL21A,1001121230301,Alwernia,12529,73.83754842,2020,PL_1001121230301,official,TRUE
PL_1001121230302,19.426853483361498,50.070111417687684,PL,PL21,PL21A,1001121230302,Babice,9097,54.24938758,2020,PL_1001121230302,official,TRUE
PL_1001121230303,19.408717473702897,50.139245373181176,PL,PL21,PL21A,1001121230303,Chrzanów,46787,79.44595556,2020,PL_1001121230303,official,TRUE
PL_1001121230304,19.325542614516475,50.10151082539327,PL,PL21,PL21A,1001121230304,Libiąż,22342,56.91797754,2020,PL_1001121230304,official,TRUE
PL_1001121230305,19.46820047775576,50.170962546614014,PL,PL21,PL21A,1001121230305,Trzebinia,33781,105.33073339,2020,PL_1001121230305,official,TRUE
PL_1001121231201,19.459685109993643,50.265984929635835,PL,PL21,PL21A,1001121231201,Bukowno,10106,64.50807672,2020,PL_1001121231201,official,TRUE
PL_1001121231203,19.463602821408283,50.30253710995759,PL,PL21,PL21A,1001121231203,Bolesław,7745,40.76241423,2020,PL_1001121231203,official,TRUE
PL_1001121231204,19.566119548174946,50.345481254359456,PL,PL21,PL21A,1001121231204,Klucze,14973,119.48634246,2020,PL_1001121231204,official,TRUE
PL_1001121231205,19.57130261687941,50.269201070538124,PL,PL21,PL21A,1001121231205,Olkusz,48601,150.89383068,2020,PL_1001121231205,official,TRUE
PL_1001121231206,19.774278801230622,50.30601426200019,PL,PL21,PL21A,1001121231206,Trzyciąż,7039,95.74183532,2020,PL_1001121231206,official,TRUE
PL_1001121231207,19.76335420507265,50.382026444897484,PL,PL21,PL21A,1001121231207,Wolbrom,22753,146.77478032,2020,PL_1001121231207,official,TRUE
PL_1001121231301,19.22760811998281,50.035207945595964,PL,PL21,PL21A,1001121231301,Oświęcim,38005,30.13695257,2020,PL_1001121231301,official,TRUE
PL_1001121231302,19.13854184769084,49.970303330100826,PL,PL21,PL21A,1001121231302,Brzeszcze,21214,45.6463353,2020,PL_1001121231302,official,TRUE
PL_1001121231303,19.258896822804978,50.09748564400189,PL,PL21,PL21A,1001121231303,Chełmek,12990,27.2956535,2020,PL_1001121231303,official,TRUE
PL_1001121231304,19.218385588923134,49.88139520891681,PL,PL21,PL21A,1001121231304,Kęty,34157,76.441677,2020,PL_1001121231304,official,TRUE
PL_1001121231305,19.27602578818917,49.94746535743525,PL,PL21,PL21A,1001121231305,Osiek,8224,40.92417775,2020,PL_1001121231305,official,TRUE
PL_1001121231306,19.235174912174493,50.01799772416976,PL,PL21,PL21A,1001121231306,Oświęcim,18505,74.81650341,2020,PL_1001121231306,official,TRUE
PL_1001121231307,19.311717877028155,49.982800093084066,PL,PL21,PL21A,1001121231307,Polanka Wielka,4313,23.88804514,2020,PL_1001121231307,official,TRUE
PL_1001121231308,19.367272992167333,50.000122187223276,PL,PL21,PL21A,1001121231308,Przeciszów,6761,35.43970241,2020,PL_1001121231308,official,TRUE
PL_1001121231309,19.43439767242968,49.99521676343277,PL,PL21,PL21A,1001121231309,Zator,9317,51.64756828,2020,PL_1001121231309,official,TRUE
PL_1001121231801,19.34982675360607,49.854620907505975,PL,PL21,PL21A,1001121231801,Andrychów,43477,100.3571056,2020,PL_1001121231801,official,TRUE
PL_1001121231802,19.62003060007701,49.96276659967133,PL,PL21,PL21A,1001121231802,Brzeźnica,10426,66.45190333,2020,PL_1001121231802,official,TRUE
PL_1001121231803,19.679078350549034,49.877693049216475,PL,PL21,PL21A,1001121231803,Kalwaria Zebrzydowska,20012,75.28315284,2020,PL_1001121231803,official,TRUE
PL_1001121231804,19.736150243923028,49.849776162474846,PL,PL21,PL21A,1001121231804,Lanckorona,6245,40.44100676,2020,PL_1001121231804,official,TRUE
PL_1001121231805,19.533482147459367,49.81783475507578,PL,PL21,PL21A,1001121231805,Mucharz,4122,37.28318985,2020,PL_1001121231805,official,TRUE
PL_1001121231806,19.521222834019042,49.98647724126428,PL,PL21,PL21A,1001121231806,Spytkowice,10365,51.42058529,2020,PL_1001121231806,official,TRUE
PL_1001121231807,19.61948242654488,49.81945190961128,PL,PL21,PL21A,1001121231807,Stryszów,6865,45.91223479,2020,PL_1001121231807,official,TRUE
PL_1001121231808,19.48326240213264,49.91671499786356,PL,PL21,PL21A,1001121231808,Tomice,8174,41.54459524,2020,PL_1001121231808,official,TRUE
PL_1001121231809,19.49521563207947,49.878973006408756,PL,PL21,PL21A,1001121231809,Wadowice,37888,112.8237116,2020,PL_1001121231809,official,TRUE
PL_1001121231810,19.36165872975096,49.88213520107147,PL,PL21,PL21A,1001121231810,Wieprz,12432,74.44066039,2020,PL_1001121231810,official,TRUE
PL_1001121240201,20.704817032731228,50.04869902184219,PL,PL21,PL217,1001121240201,Borzęcin,8337,102.78170248,2020,PL_1001121240201,official,TRUE
PL_1001121240202,20.60670527351941,49.973927129201364,PL,PL21,PL217,1001121240202,Brzesko,36291,102.65401171,2020,PL_1001121240202,official,TRUE
PL_1001121240203,20.675719113543774,49.84901451884142,PL,PL21,PL217,1001121240203,Czchów,9828,66.42587793,2020,PL_1001121240203,official,TRUE
PL_1001121240204,20.71531930703874,49.95627031477605,PL,PL21,PL217,1001121240204,Dębno,14746,81.59588896,2020,PL_1001121240204,official,TRUE
PL_1001121240205,20.611128492415563,49.9010981774386,PL,PL21,PL217,1001121240205,Gnojnik,8029,55.00607844,2020,PL_1001121240205,official,TRUE
PL_1001121240206,20.582799055446845,49.80949417037452,PL,PL21,PL217,1001121240206,Iwkowa,6483,47.19845886,2020,PL_1001121240206,official,TRUE
PL_1001121240207,20.625273302637794,50.12063214420666,PL,PL21,PL217,1001121240207,Szczurowa,9487,134.92436867,2020,PL_1001121240207,official,TRUE
PL_1001121240401,20.88295811940598,50.270904924040394,PL,PL21,PL217,1001121240401,Bolesław,2607,35.69048691,2020,PL_1001121240401,official,TRUE
PL_1001121240402,20.989081807213136,50.173732319482504,PL,PL21,PL217,1001121240402,Dąbrowa Tarnowska,21256,116.43495046,2020,PL_1001121240402,official,TRUE
PL_1001121240403,20.79248486388662,50.24747843028261,PL,PL21,PL217,1001121240403,Gręboszów,3333,48.51035319,2020,PL_1001121240403,official,TRUE
PL_1001121240404,20.96215837302226,50.278326179320345,PL,PL21,PL217,1001121240404,Mędrzechów,3433,44.39725112,2020,PL_1001121240404,official,TRUE
PL_1001121240405,20.92426172664026,50.20800950120903,PL,PL21,PL217,1001121240405,Olesno,7966,77.61411244,2020,PL_1001121240405,official,TRUE
PL_1001121240406,21.10762844363559,50.19281039030679,PL,PL21,PL217,1001121240406,Radgoszcz,7424,88.13700118,2020,PL_1001121240406,official,TRUE
PL_1001121240407,21.082880567923976,50.30706066056901,PL,PL21,PL217,1001121240407,Szczucin,13155,119.47417515,2020,PL_1001121240407,official,TRUE
PL_1001121241601,20.953851164750702,49.78093273941249,PL,PL21,PL217,1001121241601,Ciężkowice,11209,103.3841343,2020,PL_1001121241601,official,TRUE
PL_1001121241602,20.955448654049835,49.83952485642565,PL,PL21,PL217,1001121241602,Gromnik,8922,69.75685009,2020,PL_1001121241602,official,TRUE
PL_1001121241603,21.04037438037321,50.08158587235749,PL,PL21,PL217,1001121241603,Lisia Góra,15402,104.73744144,2020,PL_1001121241603,official,TRUE
PL_1001121241604,20.936134314221654,49.9311169931167,PL,PL21,PL217,1001121241604,Pleśna,11944,83.06807649,2020,PL_1001121241604,official,TRUE
PL_1001121241605,20.842301107978596,50.10080167083896,PL,PL21,PL217,1001121241605,Radłów,9666,86.17775586,2020,PL_1001121241605,official,TRUE
PL_1001121241606,21.1550875867387,49.90290611882911,PL,PL21,PL217,1001121241606,Ryglice,11652,117.09409319,2020,PL_1001121241606,official,TRUE
PL_1001121241607,21.093761394434466,49.7935974649443,PL,PL21,PL217,1001121241607,Rzepiennik Strzyżewski,6738,70.6968621,2020,PL_1001121241607,official,TRUE
PL_1001121241608,21.088258988527315,49.98913199973982,PL,PL21,PL217,1001121241608,Skrzyszów,14303,86.02759001,2020,PL_1001121241608,official,TRUE
PL_1001121241609,20.943521648915222,49.979506667673434,PL,PL21,PL217,1001121241609,Tarnów,26202,82.70936593,2020,PL_1001121241609,official,TRUE
PL_1001121241610,21.05104521951872,49.89262004274563,PL,PL21,PL217,1001121241610,Tuchów,17916,99.85429096,2020,PL_1001121241610,official,TRUE
PL_1001121241611,20.866301867401567,50.017215648603305,PL,PL21,PL217,1001121241611,Wierzchosławice,10857,75.05413742,2020,PL_1001121241611,official,TRUE
PL_1001121241612,20.75296062119279,50.18092520239791,PL,PL21,PL217,1001121241612,Wietrzychowice,3938,48.41433965,2020,PL_1001121241612,official,TRUE
PL_1001121241613,20.82616524579344,49.95515455995922,PL,PL21,PL217,1001121241613,Wojnicz,13443,79.29271121,2020,PL_1001121241613,official,TRUE
PL_1001121241614,20.79851892375339,49.850306177681254,PL,PL21,PL217,1001121241614,Zakliczyn,12488,122.06179548,2020,PL_1001121241614,official,TRUE
PL_1001121241615,20.892641520520588,50.12287793119932,PL,PL21,PL217,1001121241615,Żabno,18874,101.56024823,2020,PL_1001121241615,official,TRUE
PL_1001121241616,21.22152610657277,49.811721829958095,PL,PL21,PL217,1001121241616,Szerzyny,7943,82.01392077,2020,PL_1001121241616,official,TRUE
PL_1001121246301,20.993140849977184,50.017254392183524,PL,PL21,PL217,1001121246301,Tarnów,108470,72.36925863,2020,PL_1001121246301,official,TRUE
PL_1001121691101,20.02998967110572,49.47453969971071,PL,PL21,PL219,1001121691101,Nowy Targ,33293,51.05880424,2020,PL_1001121691101,official,TRUE
PL_1001121691102,20.490520832348317,49.42223866495775,PL,PL21,PL219,1001121691102,Szczawnica,7204,87.90716555,2020,PL_1001121691102,official,TRUE
PL_1001121691103,19.851456780366046,49.432608423638406,PL,PL21,PL219,1001121691103,Czarny Dunajec,22626,217.35037222,2020,PL_1001121691103,official,TRUE
PL_1001121691104,20.294850799872847,49.45180119600862,PL,PL21,PL219,1001121691104,Czorsztyn,7663,62.07754345,2020,PL_1001121691104,official,TRUE
PL_1001121691105,19.67866138352166,49.513086207459885,PL,PL21,PL219,1001121691105,Jabłonka,18664,212.7074766,2020,PL_1001121691105,official,TRUE
PL_1001121691106,20.403107824436415,49.4430195620178,PL,PL21,PL219,1001121691106,Krościenko nad Dunajcem,6802,57.17003358,2020,PL_1001121691106,official,TRUE
PL_1001121691107,19.60444287722713,49.499072587310124,PL,PL21,PL219,1001121691107,Lipnica Wielka,6015,67.38550813,2020,PL_1001121691107,official,TRUE
PL_1001121691108,20.242898134198388,49.41414530723344,PL,PL21,PL219,1001121691108,Łapsze Niżne,9379,125.80782061,2020,PL_1001121691108,official,TRUE
PL_1001121691109,20.066264882644834,49.47339781585695,PL,PL21,PL219,1001121691109,Nowy Targ,24070,207.74774376,2020,PL_1001121691109,official,TRUE
PL_1001121691110,20.350679416175925,49.51165188830664,PL,PL21,PL219,1001121691110,Ochotnica Dolna,8513,141.17885312,2020,PL_1001121691110,official,TRUE
PL_1001121691111,19.89288786620927,49.574601555413324,PL,PL21,PL219,1001121691111,Raba Wyżna,14750,89.00683651,2020,PL_1001121691111,official,TRUE
PL_1001121691112,19.96240510303013,49.60564818107054,PL,PL21,PL219,1001121691112,Rabka-Zdrój,17091,69.16890935,2020,PL_1001121691112,official,TRUE
PL_1001121691113,19.822175324566413,49.577362425842374,PL,PL21,PL219,1001121691113,Spytkowice,4609,32.21106818,2020,PL_1001121691113,official,TRUE
PL_1001121691114,20.007082129817906,49.42231290515328,PL,PL21,PL219,1001121691114,Szaflary,11103,54.28969903,2020,PL_1001121691114,official,TRUE
PL_1001121691501,19.835670839331655,49.65149082170193,PL,PL21,PL219,1001121691501,Jordanów,5366,21.02980893,2020,PL_1001121691501,official,TRUE
PL_1001121691502,19.589465752636656,49.7384666298624,PL,PL21,PL219,1001121691502,Sucha Beskidzka,9088,27.65887236,2020,PL_1001121691502,official,TRUE
PL_1001121691503,19.707662818557974,49.77835345608616,PL,PL21,PL219,1001121691503,Budzów,8945,73.55890798,2020,PL_1001121691503,official,TRUE
PL_1001121691504,19.75382809195499,49.62754885759865,PL,PL21,PL219,1001121691504,Bystra-Sidzina,6920,80.51955846,2020,PL_1001121691504,official,TRUE
PL_1001121691505,19.829205145352542,49.67766190593686,PL,PL21,PL219,1001121691505,Jordanów,11180,92.47958092,2020,PL_1001121691505,official,TRUE
PL_1001121691506,19.678756510719698,49.7231580461891,PL,PL21,PL219,1001121691506,Maków Podhalański,16077,108.65764044,2020,PL_1001121691506,official,TRUE
PL_1001121691507,19.499590845002437,49.72799330066906,PL,PL21,PL219,1001121691507,Stryszawa,11940,113.78102099,2020,PL_1001121691507,official,TRUE
PL_1001121691508,19.581894771062114,49.66251699873136,PL,PL21,PL219,1001121691508,Zawoja,9086,128.74991749,2020,PL_1001121691508,official,TRUE
PL_1001121691509,19.591878980100514,49.77590113757917,PL,PL21,PL219,1001121691509,Zembrzyce,5630,39.18420966,2020,PL_1001121691509,official,TRUE
PL_1001121691701,19.95810745979671,49.29577784363203,PL,PL21,PL219,1001121691701,Zakopane,27010,84.2686222,2020,PL_1001121691701,official,TRUE
PL_1001121691702,20.00769015991791,49.36922162477589,PL,PL21,PL219,1001121691702,Biały Dunajec,7179,35.20727649,2020,PL_1001121691702,official,TRUE
PL_1001121691703,20.10735895552282,49.36697040502758,PL,PL21,PL219,1001121691703,Bukowina Tatrzańska,13387,131.90078703,2020,PL_1001121691703,official,TRUE
PL_1001121691704,19.876762767258928,49.30769577625366,PL,PL21,PL219,1001121691704,Kościelisko,8846,136.65808423,2020,PL_1001121691704,official,TRUE
PL_1001121691705,19.993375535375918,49.331597030076644,PL,PL21,PL219,1001121691705,Poronin,11650,83.60386313,2020,PL_1001121691705,official,TRUE
PL_1001241440201,19.01792770805532,49.71432893504602,PL,PL22,PL225,1001241440201,Szczyrk,5751,39.05825124,2020,PL_1001241440201,official,TRUE
PL_1001241440202,19.05735830970879,49.91214055094439,PL,PL22,PL225,1001241440202,Bestwina,11909,37.70678152,2020,PL_1001241440202,official,TRUE
PL_1001241440203,19.08151641085711,49.72671397116757,PL,PL22,PL225,1001241440203,Buczkowice,11227,19.41356984,2020,PL_1001241440203,official,TRUE
PL_1001241440204,19.00164552051779,49.915677647827344,PL,PL22,PL225,1001241440204,Czechowice-Dziedzice,45489,66.48294701,2020,PL_1001241440204,official,TRUE
PL_1001241440205,18.928012174037313,49.829487939680256,PL,PL22,PL225,1001241440205,Jasienica,24419,91.65825488,2020,PL_1001241440205,official,TRUE
PL_1001241440206,18.949437130992028,49.7939911324147,PL,PL22,PL225,1001241440206,Jaworze,7395,21.23381274,2020,PL_1001241440206,official,TRUE
PL_1001241440207,19.142970436653442,49.845717760857646,PL,PL22,PL225,1001241440207,Kozy,13024,26.67367007,2020,PL_1001241440207,official,TRUE
PL_1001241440208,19.228712823329104,49.84443995088226,PL,PL22,PL225,1001241440208,Porąbka,15630,64.52642037,2020,PL_1001241440208,official,TRUE
PL_1001241440209,19.143055811747136,49.90466079932355,PL,PL22,PL225,1001241440209,Wilamowice,17695,56.78439764,2020,PL_1001241440209,official,TRUE
PL_1001241440210,19.084541540617668,49.75912311334682,PL,PL22,PL225,1001241440210,Wilkowice,13421,34.48769922,2020,PL_1001241440210,official,TRUE
PL_1001241440301,18.637153311896125,49.75026491916375,PL,PL22,PL225,1001241440301,Cieszyn,34424,28.58372378,2020,PL_1001241440301,official,TRUE
PL_1001241440302,18.808040585267964,49.724729775109374,PL,PL22,PL225,1001241440302,Ustroń,16067,59.0278553,2020,PL_1001241440302,official,TRUE
PL_1001241440303,18.872460942219668,49.64406598503371,PL,PL22,PL225,1001241440303,Wisła,11096,110.15921478,2020,PL_1001241440303,official,TRUE
PL_1001241440304,18.882163255571154,49.75098961917118,PL,PL22,PL225,1001241440304,Brenna,11285,95.62745966,2020,PL_1001241440304,official,TRUE
PL_1001241440305,18.812919349050503,49.891770376854154,PL,PL22,PL225,1001241440305,Chybie,9825,31.74868515,2020,PL_1001241440305,official,TRUE
PL_1001241440306,18.727229849906763,49.79770284458467,PL,PL22,PL225,1001241440306,Dębowiec,5833,42.65812375,2020,PL_1001241440306,official,TRUE
PL_1001241440307,18.736508348343463,49.73322299026133,PL,PL22,PL225,1001241440307,Goleszów,13142,65.87927448,2020,PL_1001241440307,official,TRUE
PL_1001241440308,18.61205331969785,49.80779268524037,PL,PL22,PL225,1001241440308,Hażlach,10915,48.78060337,2020,PL_1001241440308,official,TRUE
PL_1001241440309,18.905763043705228,49.55350976944264,PL,PL22,PL225,1001241440309,Istebna,12159,84.33967812,2020,PL_1001241440309,official,TRUE
PL_1001241440310,18.78805082881127,49.79923172808793,PL,PL22,PL225,1001241440310,Skoczów,26910,63.5378582,2020,PL_1001241440310,official,TRUE
PL_1001241440311,18.74954566738716,49.905479737815064,PL,PL22,PL225,1001241440311,Strumień,13272,58.51681248,2020,PL_1001241440311,official,TRUE
PL_1001241440312,18.610066819839187,49.86342752864989,PL,PL22,PL225,1001241440312,Zebrzydowice,13263,41.41525433,2020,PL_1001241440312,official,TRUE
PL_1001241441701,19.206469245452336,49.684122909561985,PL,PL22,PL225,1001241441701,Żywiec,31091,50.48730063,2020,PL_1001241441701,official,TRUE
PL_1001241441702,19.198439682774207,49.77238144618412,PL,PL22,PL225,1001241441702,Czernichów,6740,56.28176689,2020,PL_1001241441702,official,TRUE
PL_1001241441703,19.303058504370615,49.70952409431135,PL,PL22,PL225,1001241441703,Gilowice,6251,28.09777572,2020,PL_1001241441703,official,TRUE
PL_1001241441704,19.329247845115717,49.62707290540138,PL,PL22,PL225,1001241441704,Jeleśnia,13275,170.89005337,2020,PL_1001241441704,official,TRUE
PL_1001241441705,19.408657438333947,49.65236971304103,PL,PL22,PL225,1001241441705,Koszarawa,2367,31.40835981,2020,PL_1001241441705,official,TRUE
PL_1001241441706,19.11701228145345,49.67709971029727,PL,PL22,PL225,1001241441706,Lipowa,10846,58.71788565,2020,PL_1001241441706,official,TRUE
PL_1001241441707,19.264934873659136,49.72824608015622,PL,PL22,PL225,1001241441707,Łękawica,4552,42.72544178,2020,PL_1001241441707,official,TRUE
PL_1001241441708,19.149708345642612,49.71888563382401,PL,PL22,PL225,1001241441708,Łodygowice,14567,35.89674019,2020,PL_1001241441708,official,TRUE
PL_1001241441709,19.076726095784206,49.55993672603108,PL,PL22,PL225,1001241441709,Milówka,10067,98.44988473,2020,PL_1001241441709,official,TRUE
PL_1001241441710,19.16122670822245,49.64143176089505,PL,PL22,PL225,1001241441710,Radziechowy-Wieprz,13079,64.88078102,2020,PL_1001241441710,official,TRUE
PL_1001241441711,19.080745689030813,49.49712113233228,PL,PL22,PL225,1001241441711,Rajcza,8810,131.72753731,2020,PL_1001241441711,official,TRUE
PL_1001241441712,19.374677747614452,49.72166063784349,PL,PL22,PL225,1001241441712,Ślemień,3531,44.95779202,2020,PL_1001241441712,official,TRUE
PL_1001241441713,19.26539944786441,49.664705282010324,PL,PL22,PL225,1001241441713,Świnna,8070,39.15638648,2020,PL_1001241441713,official,TRUE
PL_1001241441714,19.140817365358302,49.481271743350526,PL,PL22,PL225,1001241441714,Ujsoły,4430,109.90148998,2020,PL_1001241441714,official,TRUE
PL_1001241441715,19.124600883688984,49.60202020107379,PL,PL22,PL225,1001241441715,Węgierska Górka,15080,76.50209251,2020,PL_1001241441715,official,TRUE
PL_1001241446101,19.0383997221218,49.81324954319797,PL,PL22,PL225,1001241446101,Bielsko-Biała,170663,124.43127976,2020,PL_1001241446101,official,TRUE
PL_1001241450701,18.682988345593103,50.6693875042561,PL,PL22,PL228,1001241450701,Lubliniec,23757,89.35961951,2020,PL_1001241450701,official,TRUE
PL_1001241450702,18.907520179886,50.67273053213969,PL,PL22,PL228,1001241450702,Boronów,3436,57.46870944,2020,PL_1001241450702,official,TRUE
PL_1001241450703,18.614419904030676,50.76878157431998,PL,PL22,PL228,1001241450703,Ciasna,7454,134.01710423,2020,PL_1001241450703,official,TRUE
PL_1001241450704,18.845644237270708,50.73517158530639,PL,PL22,PL228,1001241450704,Herby,6797,85.88550315,2020,PL_1001241450704,official,TRUE
PL_1001241450705,18.71354046880781,50.70526263521507,PL,PL22,PL228,1001241450705,Kochanowice,6938,79.94385084,2020,PL_1001241450705,official,TRUE
PL_1001241450706,18.84255440500042,50.631386493069705,PL,PL22,PL228,1001241450706,Koszęcin,11815,128.87572265,2020,PL_1001241450706,official,TRUE
PL_1001241450707,18.568991212539988,50.692415214396746,PL,PL22,PL228,1001241450707,Pawonków,6635,119.03097713,2020,PL_1001241450707,official,TRUE
PL_1001241450708,19.031587645975815,50.598878470924944,PL,PL22,PL228,1001241450708,Woźniki,9619,127.57623296,2020,PL_1001241450708,official,TRUE
PL_1001241451301,18.887851936427058,50.56171019264393,PL,PL22,PL228,1001241451301,Kalety,8589,76.38350835,2020,PL_1001241451301,official,TRUE
PL_1001241451302,18.91605728961926,50.490281854039104,PL,PL22,PL228,1001241451302,Miasteczko Śląskie,7442,67.94025931,2020,PL_1001241451302,official,TRUE
PL_1001241451303,18.900499745215946,50.397339234987896,PL,PL22,PL228,1001241451303,Radzionków,16873,13.21871807,2020,PL_1001241451303,official,TRUE
PL_1001241451304,18.84403913273449,50.44558416849207,PL,PL22,PL228,1001241451304,Tarnowskie Góry,61686,83.79872643,2020,PL_1001241451304,official,TRUE
PL_1001241451305,18.639015590269516,50.571646017730956,PL,PL22,PL228,1001241451305,Krupski Młyn,3185,39.15140543,2020,PL_1001241451305,official,TRUE
PL_1001241451306,19.055033244385083,50.46748185715998,PL,PL22,PL228,1001241451306,Ożarowice,5795,45.56143729,2020,PL_1001241451306,official,TRUE
PL_1001241451307,18.91822059430909,50.43970944290155,PL,PL22,PL228,1001241451307,Świerklaniec,12401,44.69702663,2020,PL_1001241451307,official,TRUE
PL_1001241451308,18.729590536517286,50.52413128209488,PL,PL22,PL228,1001241451308,Tworóg,8287,125.26174988,2020,PL_1001241451308,official,TRUE
PL_1001241451309,18.760831758454465,50.390334990648356,PL,PL22,PL228,1001241451309,Zbrosławice,16261,148.22046371,2020,PL_1001241451309,official,TRUE
PL_1001241456201,18.89960193475573,50.35353423977194,PL,PL22,PL228,1001241456201,Bytom,165263,69.48205433,2020,PL_1001241456201,official,TRUE
PL_1001241457101,18.95758442371437,50.38299661943984,PL,PL22,PL228,1001241457101,Piekary Śląskie,55030,39.87499051,2020,PL_1001241457101,official,TRUE
PL_1001241460401,18.96892541165272,50.78220362356693,PL,PL22,PL224,1001241460401,Blachownia,12930,66.60528231,2020,PL_1001241460401,official,TRUE
PL_1001241460402,19.570672858111763,50.84940507240887,PL,PL22,PL224,1001241460402,Dąbrowa Zielona,3860,100.17839913,2020,PL_1001241460402,official,TRUE
PL_1001241460403,19.4388766200825,50.72119879602473,PL,PL22,PL224,1001241460403,Janów,5984,146.44642182,2020,PL_1001241460403,official,TRUE
PL_1001241460404,19.14319663798155,50.6819798636787,PL,PL22,PL224,1001241460404,Kamienica Polska,5567,46.45650979,2020,PL_1001241460404,official,TRUE
PL_1001241460405,19.357790757566256,50.9095406199027,PL,PL22,PL224,1001241460405,Kłomnice,13471,147.68186541,2020,PL_1001241460405,official,TRUE
PL_1001241460406,19.692407430249467,50.78080718907772,PL,PL22,PL224,1001241460406,Koniecpol,9408,146.62243805,2020,PL_1001241460406,official,TRUE
PL_1001241460407,19.006411976147668,50.72498397157641,PL,PL22,PL224,1001241460407,Konopiska,10736,78.59978889,2020,PL_1001241460407,official,TRUE
PL_1001241460408,19.31661141178579,50.9712222781989,PL,PL22,PL224,1001241460408,Kruszyna,4806,93.30168352,2020,PL_1001241460408,official,TRUE
PL_1001241460409,19.627281988555783,50.695579570313,PL,PL22,PL224,1001241460409,Lelów,4824,123.74050359,2020,PL_1001241460409,official,TRUE
PL_1001241460410,19.287421291769896,50.82697569825663,PL,PL22,PL224,1001241460410,Mstów,10834,119.52112202,2020,PL_1001241460410,official,TRUE
PL_1001241460411,19.153703390624372,50.91130545007351,PL,PL22,PL224,1001241460411,Mykanów,15104,141.54944222,2020,PL_1001241460411,official,TRUE
PL_1001241460412,19.27476818765244,50.74672863749356,PL,PL22,PL224,1001241460412,Olsztyn,7810,109.08952694,2020,PL_1001241460412,official,TRUE
PL_1001241460413,19.13985561503753,50.730855674134474,PL,PL22,PL224,1001241460413,Poczesna,12707,59.93640165,2020,PL_1001241460413,official,TRUE
PL_1001241460414,19.520334144530068,50.789745971459375,PL,PL22,PL224,1001241460414,Przyrów,3752,80.72808686,2020,PL_1001241460414,official,TRUE
PL_1001241460415,19.224930162611884,50.86855113075519,PL,PL22,PL224,1001241460415,Rędziny,9933,41.22946816,2020,PL_1001241460415,official,TRUE
PL_1001241460416,19.062581114841624,50.66918049625491,PL,PL22,PL224,1001241460416,Starcza,2829,20.11846802,2020,PL_1001241460416,official,TRUE
PL_1001241460601,18.944120106866492,50.90599163131202,PL,PL22,PL224,1001241460601,Kłobuck,20327,130.02535988,2020,PL_1001241460601,official,TRUE
PL_1001241460602,18.717390673551684,50.970761488076185,PL,PL22,PL224,1001241460602,Krzepice,9111,78.95701857,2020,PL_1001241460602,official,TRUE
PL_1001241460603,18.791109555536533,51.022593442552115,PL,PL22,PL224,1001241460603,Lipie,6224,99.04701549,2020,PL_1001241460603,official,TRUE
PL_1001241460604,19.01189576552063,50.97444289046599,PL,PL22,PL224,1001241460604,Miedźno,7548,112.7727117,2020,PL_1001241460604,official,TRUE
PL_1001241460605,18.833647378312026,50.94004942804149,PL,PL22,PL224,1001241460605,Opatów,6818,73.47262433,2020,PL_1001241460605,official,TRUE
PL_1001241460606,18.75176051352635,50.88610933561119,PL,PL22,PL224,1001241460606,Panki,5039,54.93753576,2020,PL_1001241460606,official,TRUE
PL_1001241460607,18.927342326098028,51.03335210365772,PL,PL22,PL224,1001241460607,Popów,5874,102.28248897,2020,PL_1001241460607,official,TRUE
PL_1001241460608,18.685874168880822,50.88169099822969,PL,PL22,PL224,1001241460608,Przystajń,5876,88.78732369,2020,PL_1001241460608,official,TRUE
PL_1001241460609,18.902327508709096,50.84236956655864,PL,PL22,PL224,1001241460609,Wręczyca Wielka,17774,148.29596814,2020,PL_1001241460609,official,TRUE
PL_1001241460901,19.33675981881031,50.57474614722613,PL,PL22,PL224,1001241460901,Myszków,31585,73.59100543,2020,PL_1001241460901,official,TRUE
PL_1001241460902,19.178353987893686,50.58788613115865,PL,PL22,PL224,1001241460902,Koziegłowy,14320,159.6318611,2020,PL_1001241460902,official,TRUE
PL_1001241460903,19.5072005325239,50.650003984669596,PL,PL22,PL224,1001241460903,Niegowa,5608,87.96880505,2020,PL_1001241460903,official,TRUE
PL_1001241460904,19.2274915823595,50.66684028026653,PL,PL22,PL224,1001241460904,Poraj,10914,57.06184264,2020,PL_1001241460904,official,TRUE
PL_1001241460905,19.36177458724768,50.62929018793652,PL,PL22,PL224,1001241460905,Żarki,8453,101.04384053,2020,PL_1001241460905,official,TRUE
PL_1001241466401,19.127202607051117,50.8083692563275,PL,PL22,PL224,1001241466401,Częstochowa,220433,159.73367819,2020,PL_1001241466401,official,TRUE
PL_1001241470501,18.65868722239193,50.22463204388735,PL,PL22,PL229,1001241470501,Knurów,38112,33.86362233,2020,PL_1001241470501,official,TRUE
PL_1001241470502,18.625714515185035,50.40251646926447,PL,PL22,PL229,1001241470502,Pyskowice,18429,31.21081186,2020,PL_1001241470502,official,TRUE
PL_1001241470503,18.744186756361774,50.23047199033042,PL,PL22,PL229,1001241470503,Gierałtowice,12183,38.29992958,2020,PL_1001241470503,official,TRUE
PL_1001241470504,18.582678919161268,50.220662332592106,PL,PL22,PL229,1001241470504,Pilchowice,12013,69.93988788,2020,PL_1001241470504,official,TRUE
PL_1001241470505,18.478936223444588,50.36843940721038,PL,PL22,PL229,1001241470505,Rudziniec,10643,158.82547384,2020,PL_1001241470505,official,TRUE
PL_1001241470506,18.52895536510465,50.27047122922347,PL,PL22,PL229,1001241470506,Sośnicowice,8909,116.57010136,2020,PL_1001241470506,official,TRUE
PL_1001241470507,18.5222854001052,50.452345266688845,PL,PL22,PL229,1001241470507,Toszek,9383,99.87779209,2020,PL_1001241470507,official,TRUE
PL_1001241470508,18.57550707631121,50.50763531158597,PL,PL22,PL229,1001241470508,Wielowieś,5856,116.13671369,2020,PL_1001241470508,official,TRUE
PL_1001241476601,18.673097663873246,50.29582255497083,PL,PL22,PL229,1001241476601,Gliwice,178603,133.86809848,2020,PL_1001241476601,official,TRUE
PL_1001241477801,18.785466240722734,50.31100008454862,PL,PL22,PL229,1001241477801,Zabrze,172360,80.4228132,2020,PL_1001241477801,official,TRUE
PL_1001241486301,18.94788114632091,50.2920258134259,PL,PL22,PL22A,1001241486301,Chorzów,107807,33.31160003,2020,PL_1001241486301,official,TRUE
PL_1001241486901,19.01253600429471,50.24990862643108,PL,PL22,PL22A,1001241486901,Katowice,292774,164.74048205,2020,PL_1001241486901,official,TRUE
PL_1001241487001,19.132769569750344,50.23436671409366,PL,PL22,PL22A,1001241487001,Mysłowice,74618,65.6621198,2020,PL_1001241487001,official,TRUE
PL_1001241487201,18.869865159313076,50.27784880267572,PL,PL22,PL22A,1001241487201,Ruda Śląska,137360,77.63570307,2020,PL_1001241487201,official,TRUE
PL_1001241487401,19.01294751570521,50.30674907191497,PL,PL22,PL22A,1001241487401,Siemianowice Śląskie,66841,25.50794336,2020,PL_1001241487401,official,TRUE
PL_1001241487601,18.91522287972181,50.298238693442954,PL,PL22,PL22A,1001241487601,Świętochłowice,49557,13.30786177,2020,PL_1001241487601,official,TRUE
PL_1001241491101,18.211954157232856,50.0880075239407,PL,PL22,PL227,1001241491101,Racibórz,54739,75.01074165,2020,PL_1001241491101,official,TRUE
PL_1001241491102,18.311714580629626,50.076787138561386,PL,PL22,PL227,1001241491102,Kornowac,5159,26.21683875,2020,PL_1001241491102,official,TRUE
PL_1001241491103,18.138326720465795,50.02258388582625,PL,PL22,PL227,1001241491103,Krzanowice,5742,47.17477428,2020,PL_1001241491103,official,TRUE
PL_1001241491104,18.263770960611247,49.979402880047715,PL,PL22,PL227,1001241491104,Krzyżanowice,11274,69.39387999,2020,PL_1001241491104,official,TRUE
PL_1001241491105,18.32609147210099,50.19959957817504,PL,PL22,PL227,1001241491105,Kuźnia Raciborska,11768,126.62478531,2020,PL_1001241491105,official,TRUE
PL_1001241491106,18.30584880624038,50.15555424502617,PL,PL22,PL227,1001241491106,Nędza,7453,57.18874485,2020,PL_1001241491106,official,TRUE
PL_1001241491107,18.09600781885572,50.0898040978571,PL,PL22,PL227,1001241491107,Pietrowice Wielkie,6883,67.89328558,2020,PL_1001241491107,official,TRUE
PL_1001241491108,18.190009277516957,50.15112003666482,PL,PL22,PL227,1001241491108,Rudnik,5193,73.91096609,2020,PL_1001241491108,official,TRUE
PL_1001241491201,18.652993099232713,50.144301648266556,PL,PL22,PL227,1001241491201,Czerwionka-Leszczyny,42121,114.61804217,2020,PL_1001241491201,official,TRUE
PL_1001241491202,18.428897736318397,50.09952125405715,PL,PL22,PL227,1001241491202,Gaszowice,9798,19.61992458,2020,PL_1001241491202,official,TRUE
PL_1001241491203,18.472782391318418,50.10752881530468,PL,PL22,PL227,1001241491203,Jejkowice,4154,7.63277023,2020,PL_1001241491203,official,TRUE
PL_1001241491204,18.380434760224443,50.123752758627326,PL,PL22,PL227,1001241491204,Lyski,9654,57.64324387,2020,PL_1001241491204,official,TRUE
PL_1001241491205,18.57982530358837,50.03013941972608,PL,PL22,PL227,1001241491205,Świerklany,12486,24.20700088,2020,PL_1001241491205,official,TRUE
PL_1001241491501,18.398668042060038,50.041587823889536,PL,PL22,PL227,1001241491501,Pszów,13844,20.44604785,2020,PL_1001241491501,official,TRUE
PL_1001241491502,18.476583529896175,50.04877211742098,PL,PL22,PL227,1001241491502,Radlin,17759,12.53852765,2020,PL_1001241491502,official,TRUE
PL_1001241491503,18.422629955784398,50.068991002939704,PL,PL22,PL227,1001241491503,Rydułtowy,21514,14.93608237,2020,PL_1001241491503,official,TRUE
PL_1001241491504,18.4622262133343,50.00871359090336,PL,PL22,PL227,1001241491504,Wodzisław Śląski,47813,49.43351654,2020,PL_1001241491504,official,TRUE
PL_1001241491505,18.490532032431098,49.93317763248518,PL,PL22,PL227,1001241491505,Godów,13813,38.03251442,2020,PL_1001241491505,official,TRUE
PL_1001241491506,18.39302277575837,49.97344377081433,PL,PL22,PL227,1001241491506,Gorzyce,21338,64.82709231,2020,PL_1001241491506,official,TRUE
PL_1001241491507,18.316310397454394,50.03012691595416,PL,PL22,PL227,1001241491507,Lubomia,7912,41.94727901,2020,PL_1001241491507,official,TRUE
PL_1001241491508,18.51578909888544,50.02103218408936,PL,PL22,PL227,1001241491508,Marklowice,5405,13.69350628,2020,PL_1001241491508,official,TRUE
PL_1001241491509,18.525386254366214,49.97905644565605,PL,PL22,PL227,1001241491509,Mszana,7690,31.19148528,2020,PL_1001241491509,official,TRUE
PL_1001241496701,18.60014698514761,49.95031285075346,PL,PL22,PL227,1001241496701,Jastrzębie-Zdrój,88743,85.33274805,2020,PL_1001241496701,official,TRUE
PL_1001241497301,18.547552288139308,50.084694775436226,PL,PL22,PL227,1001241497301,Rybnik,138098,148.25485246,2020,PL_1001241497301,official,TRUE
PL_1001241497901,18.687570743563462,50.03402358849928,PL,PL22,PL227,1001241497901,Żory,62472,64.64930386,2020,PL_1001241497901,official,TRUE
PL_1001241500101,19.124106474818333,50.32312279421688,PL,PL22,PL22B,1001241500101,Będzin,56354,37.39220711,2020,PL_1001241500101,official,TRUE
PL_1001241500102,19.081361945701833,50.313696404388445,PL,PL22,PL22B,1001241500102,Czeladź,31405,16.35361167,2020,PL_1001241500102,official,TRUE
PL_1001241500103,19.02512936902097,50.36435293296985,PL,PL22,PL22B,1001241500103,Wojkowice,8942,12.78677386,2020,PL_1001241500103,official,TRUE
PL_1001241500104,19.010890136945353,50.3862977362325,PL,PL22,PL22B,1001241500104,Bobrowniki,12132,51.53217356,2020,PL_1001241500104,official,TRUE
PL_1001241500105,19.138643222213354,50.44338841592854,PL,PL22,PL22B,1001241500105,Mierzęcice,7635,49.47884834,2020,PL_1001241500105,official,TRUE
PL_1001241500106,19.124915304767562,50.377727039148404,PL,PL22,PL22B,1001241500106,Psary,12221,46.13862989,2020,PL_1001241500106,official,TRUE
PL_1001241500107,19.229139866737643,50.47164056799412,PL,PL22,PL22B,1001241500107,Siewierz,12417,113.92974637,2020,PL_1001241500107,official,TRUE
PL_1001241500108,19.381353828306473,50.298560141615184,PL,PL22,PL22B,1001241500108,Sławków,6983,36.66939776,2020,PL_1001241500108,official,TRUE
PL_1001241501601,19.334549803623478,50.48525001038418,PL,PL22,PL22B,1001241501601,Poręba,8480,39.989892,2020,PL_1001241501601,official,TRUE
PL_1001241501602,19.434142547804104,50.490581346254345,PL,PL22,PL22B,1001241501602,Zawiercie,49204,85.27712039,2020,PL_1001241501602,official,TRUE
PL_1001241501603,19.679181085684718,50.63428853799836,PL,PL22,PL22B,1001241501603,Irządze,2601,71.0176454,2020,PL_1001241501603,official,TRUE
PL_1001241501604,19.58745621156868,50.5654304683198,PL,PL22,PL22B,1001241501604,Kroczyce,6306,110.02047771,2020,PL_1001241501604,official,TRUE
PL_1001241501605,19.38925843230282,50.42464241123511,PL,PL22,PL22B,1001241501605,Łazy,15893,132.94229816,2020,PL_1001241501605,official,TRUE
PL_1001241501606,19.525833698953182,50.4519344616454,PL,PL22,PL22B,1001241501606,Ogrodzieniec,9061,84.75007874,2020,PL_1001241501606,official,TRUE
PL_1001241501607,19.671929239036146,50.469667097983816,PL,PL22,PL22B,1001241501607,Pilica,8570,142.78061983,2020,PL_1001241501607,official,TRUE
PL_1001241501608,19.81911144267856,50.62600904102558,PL,PL22,PL22B,1001241501608,Szczekociny,7658,135.29328486,2020,PL_1001241501608,official,TRUE
PL_1001241501609,19.450917841334654,50.54729802811397,PL,PL22,PL22B,1001241501609,Włodowice,5254,76.78692366,2020,PL_1001241501609,official,TRUE
PL_1001241501610,19.844097929462063,50.48483326299531,PL,PL22,PL22B,1001241501610,Żarnowiec,4597,124.80617918,2020,PL_1001241501610,official,TRUE
PL_1001241506501,19.209492969443627,50.329269531963426,PL,PL22,PL22B,1001241506501,Dąbrowa Górnicza,119373,188.72219836,2020,PL_1001241506501,official,TRUE
PL_1001241506801,19.25551333836941,50.21364489576723,PL,PL22,PL22B,1001241506801,Jaworzno,91115,152.41164775,2020,PL_1001241506801,official,TRUE
PL_1001241507501,19.152081531059096,50.283255295166455,PL,PL22,PL22B,1001241507501,Sosnowiec,199974,91.18367618,2020,PL_1001241507501,official,TRUE
PL_1001241510801,18.85314289554939,50.14701804432831,PL,PL22,PL22C,1001241510801,Łaziska Górne,22202,20.10715632,2020,PL_1001241510801,official,TRUE
PL_1001241510802,18.898488275388186,50.17013973820859,PL,PL22,PL22C,1001241510802,Mikołów,41014,79.22843809,2020,PL_1001241510802,official,TRUE
PL_1001241510803,18.774605016713497,50.13622583073063,PL,PL22,PL22C,1001241510803,Orzesze,21189,83.69673894,2020,PL_1001241510803,official,TRUE
PL_1001241510804,18.766789554348133,50.177369615467704,PL,PL22,PL22C,1001241510804,Ornontowice,6176,15.19810038,2020,PL_1001241510804,official,TRUE
PL_1001241510805,18.888090620219597,50.120137463754304,PL,PL22,PL22C,1001241510805,Wyry,8409,34.62444744,2020,PL_1001241510805,official,TRUE
PL_1001241511001,18.96209930267492,49.944830159341095,PL,PL22,PL22C,1001241511001,Goczałkowice-Zdrój,6755,47.55950909,2020,PL_1001241511001,official,TRUE
PL_1001241511002,18.942289306726845,50.066624248960714,PL,PL22,PL22C,1001241511002,Kobiór,4905,48.16263891,2020,PL_1001241511002,official,TRUE
PL_1001241511003,19.10515311539676,50.01027059808435,PL,PL22,PL22C,1001241511003,Miedźna,16590,50.27610521,2020,PL_1001241511003,official,TRUE
PL_1001241511004,18.69885481783254,49.96212517179492,PL,PL22,PL22C,1001241511004,Pawłowice,18172,75.69465688,2020,PL_1001241511004,official,TRUE
PL_1001241511005,18.939593330786696,49.97761205226392,PL,PL22,PL22C,1001241511005,Pszczyna,52770,174.68465002,2020,PL_1001241511005,official,TRUE
PL_1001241511006,18.801752370094167,50.024632252702695,PL,PL22,PL22C,1001241511006,Suszec,12347,75.05038265,2020,PL_1001241511006,official,TRUE
PL_1001241511401,19.133772545961587,50.08498775245894,PL,PL22,PL22C,1001241511401,Bieruń,19507,40.54705558,2020,PL_1001241511401,official,TRUE
PL_1001241511402,19.184956662867446,50.14540118709576,PL,PL22,PL22C,1001241511402,Imielin,9189,28.0092739,2020,PL_1001241511402,official,TRUE
PL_1001241511403,19.12956010815541,50.13706875457111,PL,PL22,PL22C,1001241511403,Lędziny,16798,31.55933183,2020,PL_1001241511403,official,TRUE
PL_1001241511404,19.086806627752576,50.055580576289664,PL,PL22,PL22C,1001241511404,Bojszowy,7924,34.64945435,2020,PL_1001241511404,official,TRUE
PL_1001241511405,19.193317803709103,50.10990671916228,PL,PL22,PL22C,1001241511405,Chełm Śląski,6358,23.3656324,2020,PL_1001241511405,official,TRUE
PL_1001241517701,18.98400303664527,50.114276448432655,PL,PL22,PL22C,1001241517701,Tychy,127590,81.81580646,2020,PL_1001241517701,official,TRUE
PL_1002081130101,14.653236671959453,52.59037527408713,PL,PL43,PL431,1002081130101,Kostrzyn nad Odrą,17730,46.14513068,2020,PL_1002081130101,official,TRUE
PL_1002081130102,15.09028002609327,52.69488081458003,PL,PL43,PL431,1002081130102,Bogdaniec,7104,111.72286349,2020,PL_1002081130102,official,TRUE
PL_1002081130103,15.292024224285429,52.67456935278047,PL,PL43,PL431,1002081130103,Deszczno,9942,168.31623307,2020,PL_1002081130103,official,TRUE
PL_1002081130104,15.252980606937005,52.789349032644324,PL,PL43,PL431,1002081130104,Kłodawa,8677,234.74019378,2020,PL_1002081130104,official,TRUE
PL_1002081130105,15.020001762364974,52.781224672183804,PL,PL43,PL431,1002081130105,Lubiszyn,6878,205.27648941,2020,PL_1002081130105,official,TRUE
PL_1002081130106,15.37775090157788,52.7394488039892,PL,PL43,PL431,1002081130106,Santok,8636,169.4098461,2020,PL_1002081130106,official,TRUE
PL_1002081130107,14.892906718209254,52.67530097522295,PL,PL43,PL431,1002081130107,Witnica,12869,278.66588586,2020,PL_1002081130107,official,TRUE
PL_1002081130301,15.399394653764563,52.50206734240291,PL,PL43,PL431,1002081130301,Bledzew,4344,247.49483995,2020,PL_1002081130301,official,TRUE
PL_1002081130302,15.577056594393774,52.44162417659191,PL,PL43,PL431,1002081130302,Międzyrzecz,24815,315.35625393,2020,PL_1002081130302,official,TRUE
PL_1002081130303,15.674224065300232,52.57622426265214,PL,PL43,PL431,1002081130303,Przytoczna,5627,184.82100395,2020,PL_1002081130303,official,TRUE
PL_1002081130304,15.777494953263764,52.48356789479406,PL,PL43,PL431,1002081130304,Pszczew,4269,177.62671506,2020,PL_1002081130304,official,TRUE
PL_1002081130305,15.501217274589111,52.59570163772479,PL,PL43,PL431,1002081130305,Skwierzyna,12103,284.82564019,2020,PL_1002081130305,official,TRUE
PL_1002081130306,15.832144613673522,52.35379596518581,PL,PL43,PL431,1002081130306,Trzciel,6407,177.51921124,2020,PL_1002081130306,official,TRUE
PL_1002081130501,14.791524390065346,52.188443752199504,PL,PL43,PL431,1002081130501,Cybinka,6469,279.61754886,2020,PL_1002081130501,official,TRUE
PL_1002081130502,14.680733898393488,52.49680406834352,PL,PL43,PL431,1002081130502,Górzyca,4299,145.43287207,2020,PL_1002081130502,official,TRUE
PL_1002081130503,14.884490600801998,52.4539410080776,PL,PL43,PL431,1002081130503,Ośno Lubuskie,6376,197.64087534,2020,PL_1002081130503,official,TRUE
PL_1002081130504,14.823154856498206,52.35071515243315,PL,PL43,PL431,1002081130504,Rzepin,9714,190.99365281,2020,PL_1002081130504,official,TRUE
PL_1002081130505,14.559958259968647,52.34844072810176,PL,PL43,PL431,1002081130505,Słubice,20071,185.57129643,2020,PL_1002081130505,official,TRUE
PL_1002081130601,15.761807299217955,52.973118613022095,PL,PL43,PL431,1002081130601,Dobiegniew,6536,351.26513849,2020,PL_1002081130601,official,TRUE
PL_1002081130602,15.829574699603633,52.8374010406704,PL,PL43,PL431,1002081130602,Drezdenko,17100,399.87295377,2020,PL_1002081130602,official,TRUE
PL_1002081130603,15.67666600905664,52.85414029683735,PL,PL43,PL431,1002081130603,Stare Kurowo,4062,77.56140394,2020,PL_1002081130603,official,TRUE
PL_1002081130604,15.529483294700306,52.883517029828894,PL,PL43,PL431,1002081130604,Strzelce Krajeńskie,16993,318.95191971,2020,PL_1002081130604,official,TRUE
PL_1002081130605,15.5543102003597,52.81655380650906,PL,PL43,PL431,1002081130605,Zwierzyn,4318,100.13074805,2020,PL_1002081130605,official,TRUE
PL_1002081130701,15.026740071077032,52.58603231161117,PL,PL43,PL431,1002081130701,Krzeszyce,4729,194.17059983,2020,PL_1002081130701,official,TRUE
PL_1002081130702,15.2380593370551,52.50261139087991,PL,PL43,PL431,1002081130702,Lubniewice,3158,129.63441013,2020,PL_1002081130702,official,TRUE
PL_1002081130703,14.81150869203466,52.56545969259341,PL,PL43,PL431,1002081130703,Słońsk,4733,158.65399494,2020,PL_1002081130703,official,TRUE
PL_1002081130704,15.120019216548679,52.44287074191865,PL,PL43,PL431,1002081130704,Sulęcin,15745,320.07946076,2020,PL_1002081130704,official,TRUE
PL_1002081130705,15.037428329629591,52.31029644068078,PL,PL43,PL431,1002081130705,Torzym,6828,375.30324867,2020,PL_1002081130705,official,TRUE
PL_1002081136101,15.236304684530609,52.74396826000713,PL,PL43,PL431,1002081136101,Gorzów Wielkopolski,123609,85.72312161,2020,PL_1002081136101,official,TRUE
PL_1002081140201,14.727587143454194,51.95702368505743,PL,PL43,PL432,1002081140201,Gubin,16614,20.68863316,2020,PL_1002081140201,official,TRUE
PL_1002081140202,15.060266065036876,51.96544524585634,PL,PL43,PL432,1002081140202,Bobrowice,3178,185.26255851,2020,PL_1002081140202,official,TRUE
PL_1002081140203,15.149385608052533,52.14012631485434,PL,PL43,PL432,1002081140203,Bytnica,2507,208.72982689,2020,PL_1002081140203,official,TRUE
PL_1002081140204,15.194593505259611,52.000665282534385,PL,PL43,PL432,1002081140204,Dąbie,4923,170.47393863,2020,PL_1002081140204,official,TRUE
PL_1002081140205,14.7814356706413,51.9498701989332,PL,PL43,PL432,1002081140205,Gubin,7138,379.58419457,2020,PL_1002081140205,official,TRUE
PL_1002081140206,15.101115825370142,52.05571970751151,PL,PL43,PL432,1002081140206,Krosno Odrzańskie,17670,211.50476052,2020,PL_1002081140206,official,TRUE
PL_1002081140207,14.919599906233012,52.08823493648092,PL,PL43,PL432,1002081140207,Maszewo,2799,213.93086934,2020,PL_1002081140207,official,TRUE
PL_1002081140401,15.707059048377053,51.8036029204352,PL,PL43,PL432,1002081140401,Nowa Sól,38645,21.81627819,2020,PL_1002081140401,official,TRUE
PL_1002081140402,15.819299016476716,51.73048207560072,PL,PL43,PL432,1002081140402,Bytom Odrzański,5426,52.36965041,2020,PL_1002081140402,official,TRUE
PL_1002081140403,15.933358899410562,51.946114213853456,PL,PL43,PL432,1002081140403,Kolsko,3311,80.72596358,2020,PL_1002081140403,official,TRUE
PL_1002081140404,15.594786151568979,51.74612555077128,PL,PL43,PL432,1002081140404,Kożuchów,15881,179.17840403,2020,PL_1002081140404,official,TRUE
PL_1002081140405,15.755593984381868,51.80694402301203,PL,PL43,PL432,1002081140405,Nowa Sól,6943,175.95407839,2020,PL_1002081140405,official,TRUE
PL_1002081140406,15.729662710195626,51.688713416032556,PL,PL43,PL432,1002081140406,Nowe Miasteczko,5358,76.88127254,2020,PL_1002081140406,official,TRUE
PL_1002081140407,15.70423861555369,51.85006012069752,PL,PL43,PL432,1002081140407,Otyń,7012,91.68267457,2020,PL_1002081140407,official,TRUE
PL_1002081140408,15.832401857910536,51.76759481686799,PL,PL43,PL432,1002081140408,Siedlisko,3580,92.17019859,2020,PL_1002081140408,official,TRUE
PL_1002081140801,15.425883578879002,52.30680206437743,PL,PL43,PL432,1002081140801,Lubrza,3567,122.21830508,2020,PL_1002081140801,official,TRUE
PL_1002081140802,15.296947187252957,52.31364196458535,PL,PL43,PL432,1002081140802,Łagów,4947,199.12286742,2020,PL_1002081140802,official,TRUE
PL_1002081140803,15.434497635086219,52.16189601844696,PL,PL43,PL432,1002081140803,Skąpe,5103,181.42089615,2020,PL_1002081140803,official,TRUE
PL_1002081140804,15.679620253134026,52.257759437605685,PL,PL43,PL432,1002081140804,Szczaniec,3836,113.32351238,2020,PL_1002081140804,official,TRUE
PL_1002081140805,15.529354652325564,52.247791761078915,PL,PL43,PL432,1002081140805,Świebodzin,29984,226.45841273,2020,PL_1002081140805,official,TRUE
PL_1002081140806,15.812610789233364,52.248867700641384,PL,PL43,PL432,1002081140806,Zbąszynek,8353,94.07373726,2020,PL_1002081140806,official,TRUE
PL_1002081140901,15.827579637518106,52.165685906674405,PL,PL43,PL432,1002081140901,Babimost,6226,92.77884925,2020,PL_1002081140901,official,TRUE
PL_1002081140902,15.79836301589121,51.96744695611737,PL,PL43,PL432,1002081140902,Bojadła,3277,102.27090945,2020,PL_1002081140902,official,TRUE
PL_1002081140903,15.400691341328603,52.012105006988044,PL,PL43,PL432,1002081140903,Czerwieńsk,9979,195.48499605,2020,PL_1002081140903,official,TRUE
PL_1002081140904,15.858187102396636,52.07121587498589,PL,PL43,PL432,1002081140904,Kargowa,5821,128.52205558,2020,PL_1002081140904,official,TRUE
PL_1002081140905,15.242636383901832,51.800258627758105,PL,PL43,PL432,1002081140905,Nowogród Bobrzański,9441,259.65635485,2020,PL_1002081140905,official,TRUE
PL_1002081140906,15.615132232698233,52.078498375503656,PL,PL43,PL432,1002081140906,Sulechów,26521,236.69383111,2020,PL_1002081140906,official,TRUE
PL_1002081140907,15.384332606631467,51.90241777485701,PL,PL43,PL432,1002081140907,Świdnica,6602,160.891574,2020,PL_1002081140907,official,TRUE
PL_1002081140908,15.73106084403474,52.01650655259364,PL,PL43,PL432,1002081140908,Trzebiechów,3371,80.9634338,2020,PL_1002081140908,official,TRUE
PL_1002081140909,15.690406318410405,51.94528966844313,PL,PL43,PL432,1002081140909,Zabór,4321,93.37029546,2020,PL_1002081140909,official,TRUE
PL_1002081141001,15.093253768566335,51.436304399703225,PL,PL43,PL432,1002081141001,Gozdnica,3000,23.93206252,2020,PL_1002081141001,official,TRUE
PL_1002081141002,15.314484201601825,51.61586067597136,PL,PL43,PL432,1002081141002,Żagań,25668,40.3785092,2020,PL_1002081141002,official,TRUE
PL_1002081141003,15.418894315822156,51.70687396611822,PL,PL43,PL432,1002081141003,Brzeźnica,3733,122.19153007,2020,PL_1002081141003,official,TRUE
PL_1002081141004,15.195552579657209,51.50515683575921,PL,PL43,PL432,1002081141004,Iłowa,6842,153.05885835,2020,PL_1002081141004,official,TRUE
PL_1002081141005,15.44881562897188,51.5553734160501,PL,PL43,PL432,1002081141005,Małomice,5174,79.59486478,2020,PL_1002081141005,official,TRUE
PL_1002081141006,15.726167848230391,51.605744964957275,PL,PL43,PL432,1002081141006,Niegosławice,4357,136.3580868,2020,PL_1002081141006,official,TRUE
PL_1002081141007,15.54381244610583,51.561941968905,PL,PL43,PL432,1002081141007,Szprotawa,20610,232.32833647,2020,PL_1002081141007,official,TRUE
PL_1002081141008,15.0862467423387,51.512813271703266,PL,PL43,PL432,1002081141008,Wymiarki,2263,63.08723801,2020,PL_1002081141008,official,TRUE
PL_1002081141009,15.390558734248371,51.62297832563503,PL,PL43,PL432,1002081141009,Żagań,7306,280.64293941,2020,PL_1002081141009,official,TRUE
PL_1002081141101,14.738550666426825,51.5396068980924,PL,PL43,PL432,1002081141101,Łęknica,2459,16.43249633,2020,PL_1002081141101,official,TRUE
PL_1002081141102,15.131012313593638,51.636354942735025,PL,PL43,PL432,1002081141102,Żary,37304,33.24215019,2020,PL_1002081141102,official,TRUE
PL_1002081141103,14.704723323757307,51.7623673657743,PL,PL43,PL432,1002081141103,Brody,3404,240.15594982,2020,PL_1002081141103,official,TRUE
PL_1002081141104,15.015363274334659,51.753969568012394,PL,PL43,PL432,1002081141104,Jasień,6991,126.8670904,2020,PL_1002081141104,official,TRUE
PL_1002081141105,14.994429055921437,51.63923798207034,PL,PL43,PL432,1002081141105,Lipinki Łużyckie,3375,88.63177566,2020,PL_1002081141105,official,TRUE
PL_1002081141106,14.967509498779298,51.78575236328847,PL,PL43,PL432,1002081141106,Lubsko,18404,182.96778896,2020,PL_1002081141106,official,TRUE
PL_1002081141107,14.957300136660322,51.486229018494576,PL,PL43,PL432,1002081141107,Przewóz,3132,178.26088257,2020,PL_1002081141107,official,TRUE
PL_1002081141108,14.815361250636142,51.61219067733273,PL,PL43,PL432,1002081141108,Trzebiel,5668,166.48967992,2020,PL_1002081141108,official,TRUE
PL_1002081141109,14.839232805720888,51.677422622404166,PL,PL43,PL432,1002081141109,Tuplice,3042,65.85470722,2020,PL_1002081141109,official,TRUE
PL_1002081141110,15.147190720632409,51.650906507853684,PL,PL43,PL432,1002081141110,Żary,12332,293.91432538,2020,PL_1002081141110,official,TRUE
PL_1002081141201,16.074111292235923,51.88256696427012,PL,PL43,PL432,1002081141201,Sława,12682,327.09114615,2020,PL_1002081141201,official,TRUE
PL_1002081141202,16.24320131030916,51.72630023092278,PL,PL43,PL432,1002081141202,Szlichtyngowa,5015,99.75577251,2020,PL_1002081141202,official,TRUE
PL_1002081141203,16.31223659108144,51.80806185546498,PL,PL43,PL432,1002081141203,Wschowa,21134,197.46471073,2020,PL_1002081141203,official,TRUE
PL_1002081146201,15.501190254662806,51.93619584406264,PL,PL43,PL432,1002081146201,Zielona Góra,141222,278.3177524,2020,PL_1002081146201,official,TRUE
PL_1002301570601,17.334428157171395,51.954974168931955,PL,PL41,PL416,1002301570601,Jaraczewo,8142,133.11341601,2020,PL_1002301570601,official,TRUE
PL_1002301570602,17.504431180017907,51.96600402394257,PL,PL41,PL416,1002301570602,Jarocin,45731,200.12054676,2020,PL_1002301570602,official,TRUE
PL_1002301570603,17.647138739052036,51.9224856264268,PL,PL41,PL416,1002301570603,Kotlin,7442,83.92688939,2020,PL_1002301570603,official,TRUE
PL_1002301570604,17.576386102772837,52.070493108485316,PL,PL41,PL416,1002301570604,Żerków,10248,171.32667483,2020,PL_1002301570604,official,TRUE
PL_1002301570701,18.030757141858164,51.85793890938174,PL,PL41,PL416,1002301570701,Blizanów,9940,157.51425774,2020,PL_1002301570701,official,TRUE
PL_1002301570702,18.256799978734175,51.59719428338208,PL,PL41,PL416,1002301570702,Brzeziny,5817,126.9647339,2020,PL_1002301570702,official,TRUE
PL_1002301570703,18.26554834768329,51.85691162770629,PL,PL41,PL416,1002301570703,Ceków-Kolonia,4746,88.29169769,2020,PL_1002301570703,official,TRUE
PL_1002301570704,18.1419666745561,51.64370484946465,PL,PL41,PL416,1002301570704,Godziesze Wielkie,9591,105.34652932,2020,PL_1002301570704,official,TRUE
PL_1002301570705,18.332959642310886,51.79570847326014,PL,PL41,PL416,1002301570705,Koźminek,7547,88.48021326,2020,PL_1002301570705,official,TRUE
PL_1002301570706,18.393499702015685,51.84104316932633,PL,PL41,PL416,1002301570706,Lisków,5213,75.74029326,2020,PL_1002301570706,official,TRUE
PL_1002301570707,18.223693343400605,51.95174137186927,PL,PL41,PL416,1002301570707,Mycielin,4873,110.89303606,2020,PL_1002301570707,official,TRUE
PL_1002301570708,18.208408670936812,51.739264520684955,PL,PL41,PL416,1002301570708,Opatówek,10808,104.30090212,2020,PL_1002301570708,official,TRUE
PL_1002301570709,18.123974330153544,51.93100330874015,PL,PL41,PL416,1002301570709,Stawiszyn,7133,78.19515425,2020,PL_1002301570709,official,TRUE
PL_1002301570710,18.336571978038375,51.69307616277886,PL,PL41,PL416,1002301570710,Szczytniki,7812,110.70122362,2020,PL_1002301570710,official,TRUE
PL_1002301570711,18.148159844875856,51.822867134753125,PL,PL41,PL416,1002301570711,Żelazków,9546,113.6530476,2020,PL_1002301570711,official,TRUE
PL_1002301570801,18.01423885445995,51.25572598039542,PL,PL41,PL416,1002301570801,Baranów,7987,74.41240109,2020,PL_1002301570801,official,TRUE
PL_1002301570802,17.903850060287766,51.28213964155119,PL,PL41,PL416,1002301570802,Bralin,6100,85.35531911,2020,PL_1002301570802,official,TRUE
PL_1002301570803,17.991023523343944,51.2850496252126,PL,PL41,PL416,1002301570803,Kępno,24482,123.85784884,2020,PL_1002301570803,official,TRUE
PL_1002301570804,18.123256091707223,51.214371404953376,PL,PL41,PL416,1002301570804,Łęka Opatowska,5356,77.68766157,2020,PL_1002301570804,official,TRUE
PL_1002301570805,17.809037402617715,51.26642818024233,PL,PL41,PL416,1002301570805,Perzów,3777,75.34274391,2020,PL_1002301570805,official,TRUE
PL_1002301570806,17.869064083408478,51.14505280925837,PL,PL41,PL416,1002301570806,Rychtal,3804,96.61359246,2020,PL_1002301570806,official,TRUE
PL_1002301570807,18.014198321008447,51.179534260826166,PL,PL41,PL416,1002301570807,Trzcinica,4945,75.04187684,2020,PL_1002301570807,official,TRUE
PL_1002301571201,17.52451150334376,51.60761167093137,PL,PL41,PL416,1002301571201,Sulmierzyce,2851,29.20464681,2020,PL_1002301571201,official,TRUE
PL_1002301571202,17.225726501584877,51.72240439987268,PL,PL41,PL416,1002301571202,Kobylin,8090,112.11539495,2020,PL_1002301571202,official,TRUE
PL_1002301571203,17.448196636623077,51.83047200791685,PL,PL41,PL416,1002301571203,Koźmin Wielkopolski,13211,152.40587942,2020,PL_1002301571203,official,TRUE
PL_1002301571204,17.435954279521493,51.698825712488755,PL,PL41,PL416,1002301571204,Krotoszyn,40341,255.79757548,2020,PL_1002301571204,official,TRUE
PL_1002301571205,17.50845622079527,51.78479386151624,PL,PL41,PL416,1002301571205,Rozdrażew,5204,79.04830666,2020,PL_1002301571205,official,TRUE
PL_1002301571206,17.3688423968438,51.65052320888078,PL,PL41,PL416,1002301571206,Zduny,7577,84.98148042,2020,PL_1002301571206,official,TRUE
PL_1002301571701,17.815521118928416,51.647106448027564,PL,PL41,PL416,1002301571701,Ostrów Wielkopolski,71931,41.9159131,2020,PL_1002301571701,official,TRUE
PL_1002301571702,17.99121699080411,51.70799349787773,PL,PL41,PL416,1002301571702,Nowe Skalmierzyce,15563,125.39775487,2020,PL_1002301571702,official,TRUE
PL_1002301571703,17.66304056591497,51.577716069406556,PL,PL41,PL416,1002301571703,Odolanów,14655,136.10609854,2020,PL_1002301571703,official,TRUE
PL_1002301571704,17.875392258051136,51.65107608006297,PL,PL41,PL416,1002301571704,Ostrów Wielkopolski,19147,207.80163197,2020,PL_1002301571704,official,TRUE
PL_1002301571705,17.81152379317583,51.58581973637782,PL,PL41,PL416,1002301571705,Przygodzice,12179,163.35892732,2020,PL_1002301571705,official,TRUE
PL_1002301571706,17.726047159328523,51.72112055980565,PL,PL41,PL416,1002301571706,Raszków,11849,134.57684579,2020,PL_1002301571706,official,TRUE
PL_1002301571707,18.011179932656262,51.62425152429495,PL,PL41,PL416,1002301571707,Sieroszewice,9684,163.18996774,2020,PL_1002301571707,official,TRUE
PL_1002301571708,17.626590139895733,51.471916443720026,PL,PL41,PL416,1002301571708,Sośnie,6573,187.73786753,2020,PL_1002301571708,official,TRUE
PL_1002301571801,18.327122602391984,51.48986540367044,PL,PL41,PL416,1002301571801,Czajków,2490,70.7975948,2020,PL_1002301571801,official,TRUE
PL_1002301571802,18.077835987301516,51.418668189779666,PL,PL41,PL416,1002301571802,Doruchów,5383,99.51543978,2020,PL_1002301571802,official,TRUE
PL_1002301571803,18.108891184849057,51.499064130123124,PL,PL41,PL416,1002301571803,Grabów nad Prosną,7817,123.77635782,2020,PL_1002301571803,official,TRUE
PL_1002301571804,17.83318333797859,51.37762577210006,PL,PL41,PL416,1002301571804,Kobyla Góra,6139,129.27769079,2020,PL_1002301571804,official,TRUE
PL_1002301571805,18.2310227420486,51.513065218368425,PL,PL41,PL416,1002301571805,Kraszewice,3621,74.91573245,2020,PL_1002301571805,official,TRUE
PL_1002301571806,17.989229692547784,51.53531071542771,PL,PL41,PL416,1002301571806,Mikstat,6046,87.19200222,2020,PL_1002301571806,official,TRUE
PL_1002301571807,17.923097915740463,51.42736697675456,PL,PL41,PL416,1002301571807,Ostrzeszów,24004,187.37442791,2020,PL_1002301571807,official,TRUE
PL_1002301572001,17.871601585112746,51.976536716824604,PL,PL41,PL416,1002301572001,Chocz,4753,73.64633158,2020,PL_1002301572001,official,TRUE
PL_1002301572002,17.764599975564604,51.973485087694044,PL,PL41,PL416,1002301572002,Czermin,4947,98.08421427,2020,PL_1002301572002,official,TRUE
PL_1002301572003,17.61159586881397,51.85934858861578,PL,PL41,PL416,1002301572003,Dobrzyca,8128,116.85886772,2020,PL_1002301572003,official,TRUE
PL_1002301572004,17.772604745157302,52.050353012467646,PL,PL41,PL416,1002301572004,Gizałki,4602,108.41515734,2020,PL_1002301572004,official,TRUE
PL_1002301572005,17.951394974196457,51.824819374119684,PL,PL41,PL416,1002301572005,Gołuchów,10777,135.88987269,2020,PL_1002301572005,official,TRUE
PL_1002301572006,17.78085522939529,51.89040293047117,PL,PL41,PL416,1002301572006,Pleszew,29807,180.31728977,2020,PL_1002301572006,official,TRUE
PL_1002301576101,18.07553649763623,51.7546157033654,PL,PL41,PL416,1002301576101,Kalisz,100246,69.36659881,2020,PL_1002301576101,official,TRUE
PL_1002301580301,17.60327340619964,52.53905396287444,PL,PL41,PL414,1002301580301,Gniezno,68217,40.59501902,2020,PL_1002301580301,official,TRUE
PL_1002301580302,17.531515060342947,52.43959564547545,PL,PL41,PL414,1002301580302,Czerniejewo,7405,111.93921703,2020,PL_1002301580302,official,TRUE
PL_1002301580303,17.60119812755739,52.56530348979446,PL,PL41,PL414,1002301580303,Gniezno,12268,178.14922318,2020,PL_1002301580303,official,TRUE
PL_1002301580304,17.281623794745713,52.593130356137046,PL,PL41,PL414,1002301580304,Kiszkowo,5443,114.49537764,2020,PL_1002301580304,official,TRUE
PL_1002301580305,17.435572979259685,52.621342109492836,PL,PL41,PL414,1002301580305,Kłecko,7452,131.92186768,2020,PL_1002301580305,official,TRUE
PL_1002301580306,17.431831040335314,52.506797429402475,PL,PL41,PL414,1002301580306,Łubowo,6743,113.53550119,2020,PL_1002301580306,official,TRUE
PL_1002301580307,17.526259443722783,52.66665539686033,PL,PL41,PL414,1002301580307,Mieleszyn,4038,98.92698837,2020,PL_1002301580307,official,TRUE
PL_1002301580308,17.658974484512658,52.46282574508878,PL,PL41,PL414,1002301580308,Niechanowo,5965,105.57382729,2020,PL_1002301580308,official,TRUE
PL_1002301580309,17.82525999532821,52.56334176845863,PL,PL41,PL414,1002301580309,Trzemeszno,14294,175.22899276,2020,PL_1002301580309,official,TRUE
PL_1002301580310,17.766357343586524,52.43783040892492,PL,PL41,PL414,1002301580310,Witkowo,13593,184.59306347,2020,PL_1002301580310,official,TRUE
PL_1002301580901,18.63513049876978,52.201899423288694,PL,PL41,PL414,1002301580901,Koło,21686,13.86101023,2020,PL_1002301580901,official,TRUE
PL_1002301580902,18.678163039349716,52.34636754504461,PL,PL41,PL414,1002301580902,Babiak,7831,133.76804347,2020,PL_1002301580902,official,TRUE
PL_1002301580903,19.014516023068285,52.248669230611846,PL,PL41,PL414,1002301580903,Chodów,3005,77.79398467,2020,PL_1002301580903,official,TRUE
PL_1002301580904,18.817258181753356,52.09950284151873,PL,PL41,PL414,1002301580904,Dąbie,6284,130.31556813,2020,PL_1002301580904,official,TRUE
PL_1002301580905,18.74406022923165,52.20848450804272,PL,PL41,PL414,1002301580905,Grzegorzew,5693,73.32189152,2020,PL_1002301580905,official,TRUE
PL_1002301580906,18.910957292536693,52.25085240278486,PL,PL41,PL414,1002301580906,Kłodawa,12801,128.90912068,2020,PL_1002301580906,official,TRUE
PL_1002301580907,18.6593364905604,52.21013021094933,PL,PL41,PL414,1002301580907,Koło,7795,102.57872936,2020,PL_1002301580907,official,TRUE
PL_1002301580908,18.59093441468023,52.17025655403313,PL,PL41,PL414,1002301580908,Kościelec,6855,104.65024941,2020,PL_1002301580908,official,TRUE
PL_1002301580909,18.87160384047946,52.185740755852024,PL,PL41,PL414,1002301580909,Olszówka,4502,81.70310668,2020,PL_1002301580909,official,TRUE
PL_1002301580910,18.594465606892427,52.26499003604911,PL,PL41,PL414,1002301580910,Osiek Mały,6155,87.32247518,2020,PL_1002301580910,official,TRUE
PL_1002301580911,18.90124459123412,52.33635377594017,PL,PL41,PL414,1002301580911,Przedecz,4120,76.44841448,2020,PL_1002301580911,official,TRUE
PL_1002301581001,18.10292368835839,52.24413594706422,PL,PL41,PL414,1002301581001,Golina,12079,98.98883146,2020,PL_1002301581001,official,TRUE
PL_1002301581002,18.04100612410802,52.048864089304956,PL,PL41,PL414,1002301581002,Grodziec,5160,117.82116424,2020,PL_1002301581002,official,TRUE
PL_1002301581003,18.172807048649506,52.30072831317996,PL,PL41,PL414,1002301581003,Kazimierz Biskupi,11487,107.61645619,2020,PL_1002301581003,official,TRUE
PL_1002301581004,18.175490147301012,52.37105101240663,PL,PL41,PL414,1002301581004,Kleczew,9947,110.29181204,2020,PL_1002301581004,official,TRUE
PL_1002301581005,18.390122376617324,52.25228964264098,PL,PL41,PL414,1002301581005,Kramsk,11250,132.03697124,2020,PL_1002301581005,official,TRUE
PL_1002301581006,18.341805556852794,52.19263201818534,PL,PL41,PL414,1002301581006,Krzymów,8112,92.51527743,2020,PL_1002301581006,official,TRUE
PL_1002301581007,18.159475095199443,52.070500520472876,PL,PL41,PL414,1002301581007,Rychwał,8249,117.85201742,2020,PL_1002301581007,official,TRUE
PL_1002301581008,18.104159777525858,52.177226712362625,PL,PL41,PL414,1002301581008,Rzgów,7275,104.68765886,2020,PL_1002301581008,official,TRUE
PL_1002301581009,18.333947530521954,52.475766549573066,PL,PL41,PL414,1002301581009,Skulsk,6122,84.87537488,2020,PL_1002301581009,official,TRUE
PL_1002301581010,18.506242696231446,52.38250040695358,PL,PL41,PL414,1002301581010,Sompolno,10380,137.42521575,2020,PL_1002301581010,official,TRUE
PL_1002301581011,18.227168480542957,52.16843803375065,PL,PL41,PL414,1002301581011,Stare Miasto,12436,97.91059495,2020,PL_1002301581011,official,TRUE
PL_1002301581012,18.313159813005335,52.362389888955114,PL,PL41,PL414,1002301581012,Ślesin,14067,145.64161786,2020,PL_1002301581012,official,TRUE
PL_1002301581013,18.49534582962934,52.43754211744874,PL,PL41,PL414,1002301581013,Wierzbinek,7287,147.52832879,2020,PL_1002301581013,official,TRUE
PL_1002301581014,18.178502571135958,52.46932623612975,PL,PL41,PL414,1002301581014,Wilczyn,6202,83.1542708,2020,PL_1002301581014,official,TRUE
PL_1002301582301,17.869165396132402,52.292275129917705,PL,PL41,PL414,1002301582301,Słupca,13658,10.32722758,2020,PL_1002301582301,official,TRUE
PL_1002301582302,17.89609651165885,52.21034508933348,PL,PL41,PL414,1002301582302,Lądek,5740,98.56896654,2020,PL_1002301582302,official,TRUE
PL_1002301582303,18.020688988556362,52.508943603188825,PL,PL41,PL414,1002301582303,Orchowo,3795,98.00696236,2020,PL_1002301582303,official,TRUE
PL_1002301582304,18.017380862638007,52.37727756095075,PL,PL41,PL414,1002301582304,Ostrowite,5077,103.54956078,2020,PL_1002301582304,official,TRUE
PL_1002301582305,17.87308727831879,52.39379955550713,PL,PL41,PL414,1002301582305,Powidz,2320,80.68516385,2020,PL_1002301582305,official,TRUE
PL_1002301582306,17.93928633736081,52.276952219263,PL,PL41,PL414,1002301582306,Słupca,9263,144.80287201,2020,PL_1002301582306,official,TRUE
PL_1002301582307,17.81767615603382,52.312677204978314,PL,PL41,PL414,1002301582307,Strzałkowo,10279,142.33479266,2020,PL_1002301582307,official,TRUE
PL_1002301582308,17.902294323822247,52.161944279814776,PL,PL41,PL414,1002301582308,Zagórów,8945,159.7079569,2020,PL_1002301582308,official,TRUE
PL_1002301582701,18.50978031663716,52.01359032855321,PL,PL41,PL414,1002301582701,Turek,26833,16.16219374,2020,PL_1002301582701,official,TRUE
PL_1002301582702,18.599209675055857,52.09333357289985,PL,PL41,PL414,1002301582702,Brudzew,5966,112.65331863,2020,PL_1002301582702,official,TRUE
PL_1002301582703,18.62528305075722,51.909825535973056,PL,PL41,PL414,1002301582703,Dobra,6134,131.95497697,2020,PL_1002301582703,official,TRUE
PL_1002301582704,18.520400421311223,51.910987448839485,PL,PL41,PL414,1002301582704,Kawęczyn,5195,101.05169517,2020,PL_1002301582704,official,TRUE
PL_1002301582705,18.392156030405868,51.95605796418493,PL,PL41,PL414,1002301582705,Malanów,6585,107.22824487,2020,PL_1002301582705,official,TRUE
PL_1002301582706,18.61385575331478,51.983321145169526,PL,PL41,PL414,1002301582706,Przykona,4589,111.11380581,2020,PL_1002301582706,official,TRUE
PL_1002301582707,18.302611583056304,52.07044215422607,PL,PL41,PL414,1002301582707,Tuliszków,10537,149.6392298,2020,PL_1002301582707,official,TRUE
PL_1002301582708,18.48431323694038,52.00337274836385,PL,PL41,PL414,1002301582708,Turek,9970,109.25632237,2020,PL_1002301582708,official,TRUE
PL_1002301582709,18.455052671727053,52.11206540864389,PL,PL41,PL414,1002301582709,Władysławów,8085,90.71045601,2020,PL_1002301582709,official,TRUE
PL_1002301583001,17.658425595462493,52.23692807729704,PL,PL41,PL414,1002301583001,Kołaczkowo,6025,115.91208482,2020,PL_1002301583001,official,TRUE
PL_1002301583002,17.484786708130784,52.18353438164743,PL,PL41,PL414,1002301583002,Miłosław,10202,132.11272122,2020,PL_1002301583002,official,TRUE
PL_1002301583003,17.41132433049588,52.36063997544386,PL,PL41,PL414,1002301583003,Nekla,7571,95.86376425,2020,PL_1002301583003,official,TRUE
PL_1002301583004,17.684903935105464,52.167864035022895,PL,PL41,PL414,1002301583004,Pyzdry,6937,137.75644486,2020,PL_1002301583004,official,TRUE
PL_1002301583005,17.571230725134892,52.3245894558264,PL,PL41,PL414,1002301583005,Września,47259,221.84731074,2020,PL_1002301583005,official,TRUE
PL_1002301586201,18.258246816396074,52.228687713579205,PL,PL41,PL414,1002301586201,Konin,73522,82.17215251,2020,PL_1002301586201,official,TRUE
PL_1002301590401,17.239177424362857,51.913862151200334,PL,PL41,PL417,1002301590401,Borek Wielkopolski,7473,127.6461599,2020,PL_1002301590401,official,TRUE
PL_1002301590402,17.00373543371833,51.879415113880256,PL,PL41,PL417,1002301590402,Gostyń,28192,137.28123561,2020,PL_1002301590402,official,TRUE
PL_1002301590403,16.977398966016516,51.76931917826435,PL,PL41,PL417,1002301590403,Krobia,12994,129.51281264,2020,PL_1002301590403,official,TRUE
PL_1002301590404,17.11744049630418,51.75594749137716,PL,PL41,PL417,1002301590404,Pępowo,5948,86.58592957,2020,PL_1002301590404,official,TRUE
PL_1002301590405,17.081385153915406,51.877892703852055,PL,PL41,PL417,1002301590405,Piaski,8630,100.73027249,2020,PL_1002301590405,official,TRUE
PL_1002301590406,17.243335398505764,51.815188459331196,PL,PL41,PL417,1002301590406,Pogorzela,4937,96.53866297,2020,PL_1002301590406,official,TRUE
PL_1002301590407,16.825544346384287,51.768999149783745,PL,PL41,PL417,1002301590407,Poniec,7734,132.02312659,2020,PL_1002301590407,official,TRUE
PL_1002301590501,16.53037050376032,52.221235157914116,PL,PL41,PL417,1002301590501,Granowo,5068,68.39906248,2020,PL_1002301590501,official,TRUE
PL_1002301590502,16.359154189395472,52.23299824702118,PL,PL41,PL417,1002301590502,Grodzisk Wielkopolski,20064,134.6773613,2020,PL_1002301590502,official,TRUE
PL_1002301590503,16.474811928879173,52.15958308563771,PL,PL41,PL417,1002301590503,Kamieniec,6673,132.22456657,2020,PL_1002301590503,official,TRUE
PL_1002301590504,16.255331502613487,52.14327464439125,PL,PL41,PL417,1002301590504,Rakoniewice,13178,200.96997262,2020,PL_1002301590504,official,TRUE
PL_1002301590505,16.370234085138826,52.11163283344181,PL,PL41,PL417,1002301590505,Wielichowo,6910,107.63509334,2020,PL_1002301590505,official,TRUE
PL_1002301591101,16.637252209994223,52.083518010156816,PL,PL41,PL417,1002301591101,Kościan,23876,9.00945392,2020,PL_1002301591101,official,TRUE
PL_1002301591102,16.759013500597025,52.14192550991017,PL,PL41,PL417,1002301591102,Czempiń,11513,142.20237965,2020,PL_1002301591102,official,TRUE
PL_1002301591103,16.674754368196414,52.082232245086296,PL,PL41,PL417,1002301591103,Kościan,16144,202.44741759,2020,PL_1002301591103,official,TRUE
PL_1002301591104,16.855957440921415,51.979993552423736,PL,PL41,PL417,1002301591104,Krzywiń,10043,179.00803795,2020,PL_1002301591104,official,TRUE
PL_1002301591105,16.534379642358914,52.01104399091135,PL,PL41,PL417,1002301591105,Śmigiel,17607,189.73517118,2020,PL_1002301591105,official,TRUE
PL_1002301591301,16.802721266374554,51.85300820266728,PL,PL41,PL417,1002301591301,Krzemieniewo,8301,113.17236815,2020,PL_1002301591301,official,TRUE
PL_1002301591302,16.552741086331835,51.90600548167659,PL,PL41,PL417,1002301591302,Lipno,8382,103.86191426,2020,PL_1002301591302,official,TRUE
PL_1002301591303,16.69114678483475,51.896743511971735,PL,PL41,PL417,1002301591303,Osieczna,9269,128.64533858,2020,PL_1002301591303,official,TRUE
PL_1002301591304,16.661381353968153,51.79322924937194,PL,PL41,PL417,1002301591304,Rydzyna,9636,135.62982784,2020,PL_1002301591304,official,TRUE
PL_1002301591305,16.48984138113943,51.84607111319042,PL,PL41,PL417,1002301591305,Święciechowa,8108,134.9738477,2020,PL_1002301591305,official,TRUE
PL_1002301591306,16.20137523740819,51.92025163261399,PL,PL41,PL417,1002301591306,Wijewo,3836,61.81125047,2020,PL_1002301591306,official,TRUE
PL_1002301591307,16.381542520901895,51.93388742001024,PL,PL41,PL417,1002301591307,Włoszakowice,9669,127.73463219,2020,PL_1002301591307,official,TRUE
PL_1002301591401,16.220096554473457,52.624075030357076,PL,PL41,PL417,1002301591401,Chrzypsko Wielkie,3306,84.52234813,2020,PL_1002301591401,official,TRUE
PL_1002301591402,16.096441107308678,52.54824543052419,PL,PL41,PL417,1002301591402,Kwilcz,6341,141.77507282,2020,PL_1002301591402,official,TRUE
PL_1002301591403,15.895396768883371,52.59892040278043,PL,PL41,PL417,1002301591403,Międzychód,18391,307.06347823,2020,PL_1002301591403,official,TRUE
PL_1002301591404,16.082630356310787,52.64958712825748,PL,PL41,PL417,1002301591404,Sieraków,8713,203.07908521,2020,PL_1002301591404,official,TRUE
PL_1002301591501,16.321677820705577,52.37650705275318,PL,PL41,PL417,1002301591501,Kuślin,5523,106.46467112,2020,PL_1002301591501,official,TRUE
PL_1002301591502,16.193896116741747,52.445305013843274,PL,PL41,PL417,1002301591502,Lwówek,9089,183.53838923,2020,PL_1002301591502,official,TRUE
PL_1002301591503,16.108037268188202,52.39420699742598,PL,PL41,PL417,1002301591503,Miedzichowo,3695,208.29570289,2020,PL_1002301591503,official,TRUE
PL_1002301591504,16.128061063877222,52.31704120742754,PL,PL41,PL417,1002301591504,Nowy Tomyśl,27045,186.44286724,2020,PL_1002301591504,official,TRUE
PL_1002301591505,16.413757410580427,52.30876409599462,PL,PL41,PL417,1002301591505,Opalenica,16397,146.84736637,2020,PL_1002301591505,official,TRUE
PL_1002301591506,15.921288726905662,52.2534524842968,PL,PL41,PL417,1002301591506,Zbąszyń,13794,179.99864385,2020,PL_1002301591506,official,TRUE
PL_1002301592201,16.749984843881737,51.70545973144272,PL,PL41,PL417,1002301592201,Bojanowo,8739,123.43347886,2020,PL_1002301592201,official,TRUE
PL_1002301592202,17.163868250186013,51.6388771227425,PL,PL41,PL417,1002301592202,Jutrosin,7053,114.85650663,2020,PL_1002301592202,official,TRUE
PL_1002301592203,16.972921734078817,51.65933664127405,PL,PL41,PL417,1002301592203,Miejska Górka,9249,103.46699699,2020,PL_1002301592203,official,TRUE
PL_1002301592204,17.044820690757916,51.611098676876324,PL,PL41,PL417,1002301592204,Pakosław,4918,77.51044828,2020,PL_1002301592204,official,TRUE
PL_1002301592205,16.861579916936297,51.61002531959683,PL,PL41,PL417,1002301592205,Rawicz,30303,134.16099549,2020,PL_1002301592205,official,TRUE
PL_1002301592901,16.260224048760694,52.00065355300783,PL,PL41,PL417,1002301592901,Przemęt,14173,225.14191393,2020,PL_1002301592901,official,TRUE
PL_1002301592902,15.988769878566215,52.14857095460747,PL,PL41,PL417,1002301592902,Siedlec,12734,204.61938566,2020,PL_1002301592902,official,TRUE
PL_1002301592903,16.116766696687453,52.10734680386038,PL,PL41,PL417,1002301592903,Wolsztyn,30539,249.87399154,2020,PL_1002301592903,official,TRUE
PL_1002301596301,16.584520614733318,51.8431667461594,PL,PL41,PL417,1002301596301,Leszno,63505,31.85331023,2020,PL_1002301596301,official,TRUE
PL_1002301600101,16.91486981558303,52.9924242637479,PL,PL41,PL411,1002301600101,Chodzież,18480,12.76932569,2020,PL_1002301600101,official,TRUE
PL_1002301600102,16.976038558997477,52.88737937218179,PL,PL41,PL411,1002301600102,Budzyń,8526,209.11626018,2020,PL_1002301600102,official,TRUE
PL_1002301600103,16.932157859738414,53.00829524343017,PL,PL41,PL411,1002301600103,Chodzież,6100,212.96062437,2020,PL_1002301600103,official,TRUE
PL_1002301600104,17.093976073694325,52.970834125994394,PL,PL41,PL411,1002301600104,Margonin,6447,123.12522258,2020,PL_1002301600104,official,TRUE
PL_1002301600105,17.130936064324338,53.03120713950755,PL,PL41,PL411,1002301600105,Szamocin,7502,127.10432963,2020,PL_1002301600105,official,TRUE
PL_1002301600201,16.56680377207116,52.90164034500838,PL,PL41,PL411,1002301600201,Czarnków,10607,10.19064445,2020,PL_1002301600201,official,TRUE
PL_1002301600202,16.576715670430517,52.91447036161063,PL,PL41,PL411,1002301600202,Czarnków,11419,347.46340777,2020,PL_1002301600202,official,TRUE
PL_1002301600203,16.04256125825432,52.84223440036753,PL,PL41,PL411,1002301600203,Drawsko,5775,163.03381302,2020,PL_1002301600203,official,TRUE
PL_1002301600204,16.015154081128752,52.87964679191944,PL,PL41,PL411,1002301600204,Krzyż Wielkopolski,8693,174.27261043,2020,PL_1002301600204,official,TRUE
PL_1002301600205,16.52507030204653,52.852466811606156,PL,PL41,PL411,1002301600205,Lubasz,7701,167.27429567,2020,PL_1002301600205,official,TRUE
PL_1002301600206,16.698623269522074,52.79435813376901,PL,PL41,PL411,1002301600206,Połajewo,6173,141.48090859,2020,PL_1002301600206,official,TRUE
PL_1002301600207,16.458102326854092,53.03931595800973,PL,PL41,PL411,1002301600207,Trzcianka,24318,374.06141938,2020,PL_1002301600207,official,TRUE
PL_1002301600208,16.19557102217237,52.888162381218585,PL,PL41,PL411,1002301600208,Wieleń,12304,430.02045226,2020,PL_1002301600208,official,TRUE
PL_1002301601901,16.73876129907481,53.15190506737699,PL,PL41,PL411,1002301601901,Piła,73139,102.66710473,2020,PL_1002301601901,official,TRUE
PL_1002301601902,17.127881674395663,53.10536112230661,PL,PL41,PL411,1002301601902,Białośliwie,4852,75.60369401,2020,PL_1002301601902,official,TRUE
PL_1002301601903,16.922195212429344,53.16325473913381,PL,PL41,PL411,1002301601903,Kaczory,7860,150.6205327,2020,PL_1002301601903,official,TRUE
PL_1002301601904,17.266667661018268,53.25977667928819,PL,PL41,PL411,1002301601904,Łobżenica,9495,190.79969797,2020,PL_1002301601904,official,TRUE
PL_1002301601905,17.011829015673023,53.10316745395038,PL,PL41,PL411,1002301601905,Miasteczko Krajeńskie,3171,70.91170753,2020,PL_1002301601905,official,TRUE
PL_1002301601906,16.639961496079728,53.19327890301216,PL,PL41,PL411,1002301601906,Szydłowo,9196,267.41801062,2020,PL_1002301601906,official,TRUE
PL_1002301601907,16.72447306615709,53.04900885742282,PL,PL41,PL411,1002301601907,Ujście,7957,125.95420549,2020,PL_1002301601907,official,TRUE
PL_1002301601908,17.277833483903915,53.14126990752906,PL,PL41,PL411,1002301601908,Wyrzysk,13926,159.03741641,2020,PL_1002301601908,official,TRUE
PL_1002301601909,17.08088428912319,53.18252173613615,PL,PL41,PL411,1002301601909,Wysoka,6516,122.96859636,2020,PL_1002301601909,official,TRUE
PL_1002301602801,17.208825182336806,52.810004194864796,PL,PL41,PL411,1002301602801,Wągrowiec,25686,17.81318869,2020,PL_1002301602801,official,TRUE
PL_1002301602802,17.481716198232913,52.840771421419035,PL,PL41,PL411,1002301602802,Damasławek,5326,104.53312698,2020,PL_1002301602802,official,TRUE
PL_1002301602803,17.30416486913236,52.94709468665547,PL,PL41,PL411,1002301602803,Gołańcz,8293,191.80759737,2020,PL_1002301602803,official,TRUE
PL_1002301602804,17.326959702867345,52.739465878090066,PL,PL41,PL411,1002301602804,Mieścisko,5937,135.07831222,2020,PL_1002301602804,official,TRUE
PL_1002301602805,17.162188232080805,52.67262398236467,PL,PL41,PL411,1002301602805,Skoki,9713,198.5177165,2020,PL_1002301602805,official,TRUE
PL_1002301602806,17.47010395783712,52.911375524950564,PL,PL41,PL411,1002301602806,Wapno,2962,44.06651674,2020,PL_1002301602806,official,TRUE
PL_1002301602807,17.198830523254355,52.82776601610767,PL,PL41,PL411,1002301602807,Wągrowiec,12316,347.84457617,2020,PL_1002301602807,official,TRUE
PL_1002301603101,17.044155773308336,53.36324864233412,PL,PL41,PL411,1002301603101,Złotów,18532,11.57082261,2020,PL_1002301603101,official,TRUE
PL_1002301603102,16.81130808193472,53.42238897776637,PL,PL41,PL411,1002301603102,Jastrowie,11500,353.08179685,2020,PL_1002301603102,official,TRUE
PL_1002301603103,16.99057550360465,53.29092441531117,PL,PL41,PL411,1002301603103,Krajenka,7534,191.59002909,2020,PL_1002301603103,official,TRUE
PL_1002301603104,17.232807894952042,53.50800305264195,PL,PL41,PL411,1002301603104,Lipka,5509,191.14841518,2020,PL_1002301603104,official,TRUE
PL_1002301603105,16.84421709209891,53.54035940750055,PL,PL41,PL411,1002301603105,Okonek,8502,325.98623163,2020,PL_1002301603105,official,TRUE
PL_1002301603106,16.8762726358691,53.342502913239656,PL,PL41,PL411,1002301603106,Tarnówka,3009,132.46837872,2020,PL_1002301603106,official,TRUE
PL_1002301603107,17.144924160434574,53.41963084548966,PL,PL41,PL411,1002301603107,Zakrzewo,4905,162.36761671,2020,PL_1002301603107,official,TRUE
PL_1002301603108,17.034036971448586,53.37871170250618,PL,PL41,PL411,1002301603108,Złotów,9942,292.28520655,2020,PL_1002301603108,official,TRUE
PL_1002301611601,16.80817217822013,52.64779197666962,PL,PL41,PL418,1002301611601,Oborniki,34179,340.03480887,2020,PL_1002301611601,official,TRUE
PL_1002301611602,16.991866001111585,52.75208404264696,PL,PL41,PL418,1002301611602,Rogoźno,18353,216.24379382,2020,PL_1002301611602,official,TRUE
PL_1002301611603,16.826445741857604,52.80345872209183,PL,PL41,PL418,1002301611603,Ryczywół,7293,154.7390492,2020,PL_1002301611603,official,TRUE
PL_1002301612101,16.875681065146924,52.34446932229712,PL,PL41,PL418,1002301612101,Luboń,31941,13.51522819,2020,PL_1002301612101,official,TRUE
PL_1002301612102,16.8570305419369,52.27958766893606,PL,PL41,PL418,1002301612102,Puszczykowo,9657,16.39059166,2020,PL_1002301612102,official,TRUE
PL_1002301612103,16.52225889174631,52.35559929537066,PL,PL41,PL418,1002301612103,Buk,12610,90.5951367,2020,PL_1002301612103,official,TRUE
PL_1002301612104,16.99109564000188,52.457994842664796,PL,PL41,PL418,1002301612104,Czerwonak,27617,82.48383251,2020,PL_1002301612104,official,TRUE
PL_1002301612105,16.74254424851823,52.3793408069364,PL,PL41,PL418,1002301612105,Dopiewo,28138,108.0111954,2020,PL_1002301612105,official,TRUE
PL_1002301612106,17.0827150901596,52.342500291539004,PL,PL41,PL418,1002301612106,Kleszczewo,8868,74.45929469,2020,PL_1002301612106,official,TRUE
PL_1002301612107,16.818298073964627,52.35120784407224,PL,PL41,PL418,1002301612107,Komorniki,30620,66.40544941,2020,PL_1002301612107,official,TRUE
PL_1002301612108,17.22504427415635,52.39291068295918,PL,PL41,PL418,1002301612108,Kostrzyn,18491,154.79081394,2020,PL_1002301612108,official,TRUE
PL_1002301612109,17.080663839284956,52.25782637279638,PL,PL41,PL418,1002301612109,Kórnik,29787,186.1471575,2020,PL_1002301612109,official,TRUE
PL_1002301612110,16.856739963035203,52.24732803093158,PL,PL41,PL418,1002301612110,Mosina,33442,171.44997105,2020,PL_1002301612110,official,TRUE
PL_1002301612111,17.00141508888709,52.57227663169665,PL,PL41,PL418,1002301612111,Murowana Goślina,16901,172.15663501,2020,PL_1002301612111,official,TRUE
PL_1002301612112,17.264310409085233,52.474783492635744,PL,PL41,PL418,1002301612112,Pobiedziska,19741,189.67070892,2020,PL_1002301612112,official,TRUE
PL_1002301612113,16.74530943452183,52.50830948284911,PL,PL41,PL418,1002301612113,Rokietnica,18637,79.28818329,2020,PL_1002301612113,official,TRUE
PL_1002301612114,16.693728468422634,52.27883262287365,PL,PL41,PL418,1002301612114,Stęszew,15126,175.04040501,2020,PL_1002301612114,official,TRUE
PL_1002301612115,16.880156752769892,52.49640015976105,PL,PL41,PL418,1002301612115,Suchy Las,18104,116.00594904,2020,PL_1002301612115,official,TRUE
PL_1002301612116,17.071866346352483,52.40692819618745,PL,PL41,PL418,1002301612116,Swarzędz,51522,101.78207336,2020,PL_1002301612116,official,TRUE
PL_1002301612117,16.690783094945566,52.4362904956301,PL,PL41,PL418,1002301612117,Tarnowo Podgórne,28070,101.75896804,2020,PL_1002301612117,official,TRUE
PL_1002301612401,16.52749129957142,52.70685039023337,PL,PL41,PL418,1002301612401,Obrzycko,2375,3.7351566,2020,PL_1002301612401,official,TRUE
PL_1002301612402,16.427770213746587,52.451047783787146,PL,PL41,PL418,1002301612402,Duszniki,9109,156.29288245,2020,PL_1002301612402,official,TRUE
PL_1002301612403,16.575988758444932,52.50992654172243,PL,PL41,PL418,1002301612403,Kaźmierz,8755,127.88586998,2020,PL_1002301612403,official,TRUE
PL_1002301612404,16.525449606424083,52.691910741989666,PL,PL41,PL418,1002301612404,Obrzycko,4467,110.83853143,2020,PL_1002301612404,official,TRUE
PL_1002301612405,16.44539976025535,52.62860358980285,PL,PL41,PL418,1002301612405,Ostroróg,4925,84.81733856,2020,PL_1002301612405,official,TRUE
PL_1002301612406,16.261504780250224,52.50747243634829,PL,PL41,PL418,1002301612406,Pniewy,12708,158.48824758,2020,PL_1002301612406,official,TRUE
PL_1002301612407,16.583338991843707,52.611454256587116,PL,PL41,PL418,1002301612407,Szamotuły,30251,175.51214894,2020,PL_1002301612407,official,TRUE
PL_1002301612408,16.379673604457537,52.70841838250854,PL,PL41,PL418,1002301612408,Wronki,19074,301.71454087,2020,PL_1002301612408,official,TRUE
PL_1002301612501,17.37523022199395,52.28710205616942,PL,PL41,PL418,1002301612501,Dominowo,3079,79.39111721,2020,PL_1002301612501,official,TRUE
PL_1002301612502,17.3710776683333,52.12585271963061,PL,PL41,PL418,1002301612502,Krzykosy,7136,110.72653243,2020,PL_1002301612502,official,TRUE
PL_1002301612503,17.38326916134437,52.074412255494664,PL,PL41,PL418,1002301612503,Nowe Miasto nad Wartą,9057,118.94050958,2020,PL_1002301612503,official,TRUE
PL_1002301612504,17.27239655152779,52.22633631742113,PL,PL41,PL418,1002301612504,Środa Wielkopolska,32649,207.1117148,2020,PL_1002301612504,official,TRUE
PL_1002301612505,17.165328968029392,52.15883434115242,PL,PL41,PL418,1002301612505,Zaniemyśl,6958,106.54762421,2020,PL_1002301612505,official,TRUE
PL_1002301612601,16.89175197465392,52.137730166444534,PL,PL41,PL418,1002301612601,Brodnica,4892,95.82708524,2020,PL_1002301612601,official,TRUE
PL_1002301612602,17.068838150617406,51.98957200357759,PL,PL41,PL418,1002301612602,Dolsk,5883,124.45793822,2020,PL_1002301612602,official,TRUE
PL_1002301612603,17.240100537083812,52.05673162119343,PL,PL41,PL418,1002301612603,Książ Wielkopolski,8495,147.93666851,2020,PL_1002301612603,official,TRUE
PL_1002301612604,17.01006657767624,52.0815821132106,PL,PL41,PL418,1002301612604,Śrem,42155,205.84603211,2020,PL_1002301612604,official,TRUE
PL_1002301626401,16.92018337951816,52.41027352654655,PL,PL41,PL415,1002301626401,Poznań,534813,261.9145082,2020,PL_1002301626401,official,TRUE
PL_1002321630101,15.987820462325589,54.00729539673523,PL,PL42,PL426,1002321630101,Białogard,24146,25.74235152,2020,PL_1002321630101,official,TRUE
PL_1002321630102,15.944837853248771,53.98366959758413,PL,PL42,PL426,1002321630102,Białogard,7546,328.22539065,2020,PL_1002321630102,official,TRUE
PL_1002321630103,15.873705604186537,54.03894139923283,PL,PL42,PL426,1002321630103,Karlino,9137,141.03367206,2020,PL_1002321630103,official,TRUE
PL_1002321630104,16.241777152878267,53.93295447056039,PL,PL42,PL426,1002321630104,Tychowo,6731,350.42437264,2020,PL_1002321630104,official,TRUE
PL_1002321630801,15.580340423566936,54.17811216446652,PL,PL42,PL426,1002321630801,Kołobrzeg,46259,25.66473593,2020,PL_1002321630801,official,TRUE
PL_1002321630802,15.741025714590128,54.122203272449596,PL,PL42,PL426,1002321630802,Dygowo,5592,128.53153002,2020,PL_1002321630802,official,TRUE
PL_1002321630803,15.652591504565843,54.046698347317744,PL,PL42,PL426,1002321630803,Gościno,5138,115.99510458,2020,PL_1002321630803,official,TRUE
PL_1002321630804,15.518020143196994,54.14108957625713,PL,PL42,PL426,1002321630804,Kołobrzeg,10982,144.03642609,2020,PL_1002321630804,official,TRUE
PL_1002321630805,15.524856570540363,53.965742397119506,PL,PL42,PL426,1002321630805,Rymań,3929,146.15832535,2020,PL_1002321630805,official,TRUE
PL_1002321630806,15.54926778404725,54.04857770753926,PL,PL42,PL426,1002321630806,Siemyśl,3853,107.30444026,2020,PL_1002321630806,official,TRUE
PL_1002321630807,15.756414530459056,54.209072035474314,PL,PL42,PL426,1002321630807,Ustronie Morskie,3685,56.9833259,2020,PL_1002321630807,official,TRUE
PL_1002321630901,15.97367613016246,54.202492201553234,PL,PL42,PL426,1002321630901,Będzino,8659,166.16869401,2020,PL_1002321630901,official,TRUE
PL_1002321630902,16.098729476165833,54.17110488133103,PL,PL42,PL426,1002321630902,Biesiekierz,7154,116.61555429,2020,PL_1002321630902,official,TRUE
PL_1002321630903,16.57754518569867,53.96136226506873,PL,PL42,PL426,1002321630903,Bobolice,8898,367.51338239,2020,PL_1002321630903,official,TRUE
PL_1002321630904,16.2823676808125,54.09261021409866,PL,PL42,PL426,1002321630904,Manowo,6948,188.30315608,2020,PL_1002321630904,official,TRUE
PL_1002321630905,16.05332145249749,54.25588307892013,PL,PL42,PL426,1002321630905,Mielno,4888,62.14942559,2020,PL_1002321630905,official,TRUE
PL_1002321630906,16.666029026692843,54.119771974710964,PL,PL42,PL426,1002321630906,Polanów,8610,393.3717957,2020,PL_1002321630906,official,TRUE
PL_1002321630907,16.29974956062588,54.230227089884714,PL,PL42,PL426,1002321630907,Sianów,13853,226.76362661,2020,PL_1002321630907,official,TRUE
PL_1002321630908,16.167107053717977,54.11894825697387,PL,PL42,PL426,1002321630908,Świeszyno,7470,132.55197559,2020,PL_1002321630908,official,TRUE
PL_1002321631301,16.411465091906546,54.42032282156108,PL,PL42,PL426,1002321631301,Darłowo,13695,20.21184315,2020,PL_1002321631301,official,TRUE
PL_1002321631302,16.67812217095377,54.362635164563756,PL,PL42,PL426,1002321631302,Sławno,12468,15.83186636,2020,PL_1002321631302,official,TRUE
PL_1002321631303,16.439782166274004,54.386761817688345,PL,PL42,PL426,1002321631303,Darłowo,7949,269.44315105,2020,PL_1002321631303,official,TRUE
PL_1002321631304,16.556866750902522,54.28380885330455,PL,PL42,PL426,1002321631304,Malechowo,6264,226.43931652,2020,PL_1002321631304,official,TRUE
PL_1002321631305,16.682461918072796,54.48259630719943,PL,PL42,PL426,1002321631305,Postomino,6891,226.9067412,2020,PL_1002321631305,official,TRUE
PL_1002321631306,16.72229098244023,54.35572913961793,PL,PL42,PL426,1002321631306,Sławno,8867,284.37843235,2020,PL_1002321631306,official,TRUE
PL_1002321636101,16.18970707038427,54.19830979013306,PL,PL42,PL426,1002321636101,Koszalin,107048,98.35079804,2020,PL_1002321636101,official,TRUE
PL_1002321640201,15.671935886405937,53.03915876116426,PL,PL42,PL427,1002321640201,Bierzwnik,4670,239.06914583,2020,PL_1002321640201,official,TRUE
PL_1002321640202,15.422454116786858,53.16786738788905,PL,PL42,PL427,1002321640202,Choszczno,21635,246.30378974,2020,PL_1002321640202,official,TRUE
PL_1002321640203,15.758817003916672,53.21133229008861,PL,PL42,PL427,1002321640203,Drawno,5053,320.89945011,2020,PL_1002321640203,official,TRUE
PL_1002321640204,15.487494790254951,53.07387808196101,PL,PL42,PL427,1002321640204,Krzęcin,3667,140.29343488,2020,PL_1002321640204,official,TRUE
