gisco_id,longitude,latitude,country,nuts_2,nuts_3,lau_id,lau_name,population,area_km2,year,fid,concordance,pop_weighted
CZ_500011,17.74439615429828,49.21714548979278,CZ,CZ07,CZ072,500011,Želechovice nad Dřevnicí,1869,16.19939834,2020,CZ_500011,official,TRUE
CZ_500020,17.03891259711331,50.011165784656164,CZ,CZ07,CZ071,500020,Petrov nad Desnou,1220,12.0899791,2020,CZ_500020,official,TRUE
CZ_500046,18.07657097650356,49.62815289623963,CZ,CZ08,CZ080,500046,Libhošť,1710,8.1916492,2020,CZ_500046,official,TRUE
CZ_500062,18.00080188047216,49.48896862199712,CZ,CZ07,CZ072,500062,Krhová,2019,8.08358252,2020,CZ_500062,official,TRUE
CZ_500071,17.945729280633167,49.46691489636616,CZ,CZ07,CZ072,500071,Poličná,1753,11.07146223,2020,CZ_500071,official,TRUE
CZ_500101,13.04545956678714,50.17509001716697,CZ,CZ04,CZ041,500101,Bražec,221,12.63559603,2020,CZ_500101,official,TRUE
CZ_500127,13.006419319384824,50.245590823110334,CZ,CZ04,CZ041,500127,Doupovské Hradiště,162,20.81308393,2020,CZ_500127,official,TRUE
CZ_500135,17.555287893549377,49.56841991165701,CZ,CZ07,CZ071,500135,Kozlov,219,45.54962739,2020,CZ_500135,official,TRUE
CZ_500151,17.6578565923313,49.68712764365855,CZ,CZ07,CZ071,500151,Luboměř pod Strážnou,127,9.55715408,2020,CZ_500151,official,TRUE
CZ_500160,17.5202712647862,49.72422629292537,CZ,CZ07,CZ071,500160,Město Libavá,603,29.35714197,2020,CZ_500160,official,TRUE
CZ_500194,14.131585642390826,48.78224959830605,CZ,CZ03,CZ031,500194,Polná na Šumavě,217,18.99905391,2020,CZ_500194,official,TRUE
CZ_500259,18.121086937815704,49.53723236550452,CZ,CZ08,CZ080,500259,Veřovice,1986,16.61747696,2020,CZ_500259,official,TRUE
CZ_500291,18.12306937591386,49.825018228471045,CZ,CZ08,CZ080,500291,Vřesina,2918,8.6508152,2020,CZ_500291,official,TRUE
CZ_500496,17.247784530463232,49.5863126404232,CZ,CZ07,CZ071,500496,Olomouc,100663,103.21802423,2020,CZ_500496,official,TRUE
CZ_500526,17.3210147545491,49.67269503192721,CZ,CZ07,CZ071,500526,Bělkovice-Lašťany,2309,15.23032186,2020,CZ_500526,official,TRUE
CZ_500623,16.971999787837742,49.713671743845396,CZ,CZ07,CZ071,500623,Bílá Lhota,1153,18.11228821,2020,CZ_500623,official,TRUE
CZ_500801,17.244770278174702,49.525607711776615,CZ,CZ07,CZ071,500801,Blatec,642,6.6118482,2020,CZ_500801,official,TRUE
CZ_500852,17.284265379246378,49.65939121566826,CZ,CZ07,CZ071,500852,Bohuňovice,2549,12.51280847,2020,CZ_500852,official,TRUE
CZ_500861,16.902121427130204,49.70139854287214,CZ,CZ07,CZ071,500861,Bouzov,1502,42.28087523,2020,CZ_500861,official,TRUE
CZ_500879,17.18881100438204,49.53738156587584,CZ,CZ07,CZ071,500879,Bystročice,819,7.96779414,2020,CZ_500879,official,TRUE
CZ_501476,17.186660333590524,49.81816015555052,CZ,CZ07,CZ071,501476,Dlouhá Loučka,2004,26.65890452,2020,CZ_501476,official,TRUE
CZ_501646,17.325949397600446,49.6485888488373,CZ,CZ07,CZ071,501646,Dolany,2782,23.80828804,2020,CZ_501646,official,TRUE
CZ_501751,17.065862323901438,49.58045355723031,CZ,CZ07,CZ071,501751,Drahanovice,1743,13.48114476,2020,CZ_501751,official,TRUE
CZ_501794,17.275879828416077,49.48838285843623,CZ,CZ07,CZ071,501794,Dub nad Moravou,1645,15.21942281,2020,CZ_501794,official,TRUE
CZ_501841,17.313985090814498,49.53823623364696,CZ,CZ07,CZ071,501841,Grygov,1539,12.69480539,2020,CZ_501841,official,TRUE
CZ_502146,17.401404242439426,49.62909066870785,CZ,CZ07,CZ071,502146,Hlubočky,4246,23.80062114,2020,CZ_502146,official,TRUE
CZ_502235,17.167295885158193,49.566453424474325,CZ,CZ07,CZ071,502235,Hněvotín,1851,11.72047176,2020,CZ_502235,official,TRUE
CZ_502405,17.227194222224316,49.71551999676468,CZ,CZ07,CZ071,502405,Hnojice,634,9.62826605,2020,CZ_502405,official,TRUE
CZ_502545,17.2062964567533,49.636995108157095,CZ,CZ07,CZ071,502545,Horka nad Moravou,2499,12.00547776,2020,CZ_502545,official,TRUE
CZ_502839,17.053452171119826,49.6544209018524,CZ,CZ07,CZ071,502839,Cholina,744,8.97880111,2020,CZ_502839,official,TRUE
CZ_503142,17.394274153205195,49.70679695320213,CZ,CZ07,CZ071,503142,Jívová,592,15.18371265,2020,CZ_503142,official,TRUE
CZ_503304,17.25799744315116,49.538422166435105,CZ,CZ07,CZ071,503304,Kožušany-Tážaly,872,6.31370678,2020,CZ_503304,official,TRUE
CZ_503410,15.133387033660348,50.290432064135935,CZ,CZ02,CZ020,503410,Žitovlice,183,6.55105618,2020,CZ_503410,official,TRUE
CZ_503444,17.07520574238222,49.70570613687392,CZ,CZ07,CZ071,503444,Litovel,9738,46.35626872,2020,CZ_503444,official,TRUE
CZ_503622,16.94676146816674,49.65485630594811,CZ,CZ07,CZ071,503622,Luká,871,14.86069679,2020,CZ_503622,official,TRUE
CZ_503657,17.139184594288505,49.557035884193176,CZ,CZ07,CZ071,503657,Lutín,3246,8.18885433,2020,CZ_503657,official,TRUE
CZ_503738,17.336341699835273,49.500543432234196,CZ,CZ07,CZ071,503738,Majetín,1198,9.35259635,2020,CZ_503738,official,TRUE
CZ_503916,13.029354580101923,49.6948806500125,CZ,CZ03,CZ032,503916,Kostelec,602,30.89905122,2020,CZ_503916,official,TRUE
CZ_503941,17.418673657132018,49.64584933519528,CZ,CZ07,CZ071,503941,Libavá,0,235.26789262,2020,CZ_503941,official,TRUE
CZ_504246,17.02534840063707,49.703692362879906,CZ,CZ07,CZ071,504246,Mladeč,751,12.22139301,2020,CZ_504246,official,TRUE
CZ_504301,15.743760647319096,49.98117289758698,CZ,CZ05,CZ053,504301,Dřenice,402,2.55620482,2020,CZ_504301,official,TRUE
CZ_504441,17.12698269938357,49.656115523544074,CZ,CZ07,CZ071,504441,Náklo,1514,11.37928217,2020,CZ_504441,official,TRUE
CZ_504505,17.06946992365684,49.60121944620579,CZ,CZ07,CZ071,504505,Náměšť na Hané,2107,18.615188,2020,CZ_504505,official,TRUE
CZ_504785,17.222455515820165,49.799164528345756,CZ,CZ07,CZ071,504785,Paseka,1297,22.84487817,2020,CZ_504785,official,TRUE
CZ_504807,15.726338128844848,49.946101248171026,CZ,CZ05,CZ053,504807,Lány,274,4.67413891,2020,CZ_504807,official,TRUE
CZ_504921,15.742915327437538,49.96359760431724,CZ,CZ05,CZ053,504921,Třibřichy,299,4.21042168,2020,CZ_504921,official,TRUE
CZ_504955,15.897664271169809,49.98173872499572,CZ,CZ05,CZ053,504955,Dvakačovice,173,3.65561402,2020,CZ_504955,official,TRUE
CZ_505005,15.861133021765564,49.89457702710287,CZ,CZ05,CZ053,505005,Bítovany,431,3.49355753,2020,CZ_505005,official,TRUE
CZ_505013,17.14897150303551,49.64256125504946,CZ,CZ07,CZ071,505013,Příkazy,1310,13.97512299,2020,CZ_505013,official,TRUE
CZ_505030,15.88069161584894,49.960138767860926,CZ,CZ05,CZ053,505030,Dolní Bezděkov,231,1.75266306,2020,CZ_505030,official,TRUE
CZ_505081,17.08938466762438,49.62566759392896,CZ,CZ07,CZ071,505081,Senice na Hané,1796,19.29304524,2020,CZ_505081,official,TRUE
CZ_505099,16.05775079240872,50.45128830443736,CZ,CZ05,CZ052,505099,Červená Hora,202,2.08330127,2020,CZ_505099,official,TRUE
CZ_505111,17.09783806517907,49.56089083132513,CZ,CZ07,CZ071,505111,Slatinice,1622,7.84023711,2020,CZ_505111,official,TRUE
CZ_505145,16.5222965910727,49.64810998069109,CZ,CZ05,CZ053,505145,Březová nad Svitavou,1644,12.80205859,2020,CZ_505145,official,TRUE
CZ_505161,17.22348323663601,49.67408318787064,CZ,CZ07,CZ071,505161,Štěpánov,3516,26.8862837,2020,CZ_505161,official,TRUE
CZ_505188,17.29410295255201,49.72721043958361,CZ,CZ07,CZ071,505188,Šternberk,13440,48.44059556,2020,CZ_505188,official,TRUE
CZ_505218,17.135937603319036,49.83458146996974,CZ,CZ07,CZ071,505218,Šumvald,1632,21.06769512,2020,CZ_505218,official,TRUE
CZ_505269,17.129904395624916,49.59315656947163,CZ,CZ07,CZ071,505269,Těšetice,1291,12.39504023,2020,CZ_505269,official,TRUE
CZ_505293,17.0806374964976,49.81527741910891,CZ,CZ07,CZ071,505293,Troubelice,1883,18.82004765,2020,CZ_505293,official,TRUE
CZ_505366,17.424205760761108,49.542398230775724,CZ,CZ07,CZ071,505366,Tršice,1701,24.94215831,2020,CZ_505366,official,TRUE
CZ_505391,16.64798607455287,49.641051661122674,CZ,CZ05,CZ053,505391,Bělá u Jevíčka,355,9.71407822,2020,CZ_505391,official,TRUE
CZ_505501,17.18268445497921,49.76740364846685,CZ,CZ07,CZ071,505501,Újezd,1456,18.60429507,2020,CZ_505501,official,TRUE
CZ_505528,13.997685257376165,50.48268958307518,CZ,CZ04,CZ042,505528,Jenčice,335,6.3263694,2020,CZ_505528,official,TRUE
CZ_505587,17.1150836163875,49.770262731030314,CZ,CZ07,CZ071,505587,Uničov,11335,48.46165386,2020,CZ_505587,official,TRUE
CZ_505609,17.36082705004513,49.59518682869317,CZ,CZ07,CZ071,505609,Velká Bystřice,3493,9.32661793,2020,CZ_505609,official,TRUE
CZ_505650,17.33660879196331,49.548995220219155,CZ,CZ07,CZ071,505650,Velký Týnec,2981,20.69446908,2020,CZ_505650,official,TRUE
CZ_505668,17.486053509244897,49.57691439201424,CZ,CZ07,CZ071,505668,Velký Újezd,1353,6.88075701,2020,CZ_505668,official,TRUE
CZ_505781,14.679672844592634,50.165515119388324,CZ,CZ02,CZ020,505781,Zápy,876,8.74153973,2020,CZ_505781,official,TRUE
CZ_505862,17.18907125962992,49.724402264108114,CZ,CZ07,CZ071,505862,Žerotín,454,7.88059597,2020,CZ_505862,official,TRUE
CZ_505927,17.90368978628414,49.93840416602837,CZ,CZ08,CZ080,505927,Opava,56450,90.63729407,2020,CZ_505927,official,TRUE
CZ_506192,18.13308709780306,49.94287938869943,CZ,CZ08,CZ080,506192,Bohuslavice,1779,15.35649943,2020,CZ_506192,official,TRUE
CZ_506214,18.081800342717067,49.95475716242747,CZ,CZ08,CZ080,506214,Bolatice,4499,13.26341543,2020,CZ_506214,official,TRUE
CZ_506320,17.754847376051988,50.01491713896959,CZ,CZ08,CZ080,506320,Brumovice,1495,25.57632053,2020,CZ_506320,official,TRUE
CZ_506451,17.871337295983867,49.791090742289164,CZ,CZ08,CZ080,506451,Březová,1375,39.02159431,2020,CZ_506451,official,TRUE
CZ_506460,17.62704590213392,49.797301208387424,CZ,CZ08,CZ080,506460,Budišov nad Budišovkou,2918,79.1486038,2020,CZ_506460,official,TRUE
CZ_506486,12.91971426888165,50.41236428286321,CZ,CZ04,CZ041,506486,Boží Dar,250,37.91463688,2020,CZ_506486,official,TRUE
CZ_506494,12.721815757389587,50.36271448343412,CZ,CZ04,CZ041,506494,Nové Hamry,343,25.24676394,2020,CZ_506494,official,TRUE
CZ_506621,13.17246580251214,50.12714669551084,CZ,CZ04,CZ041,506621,Čichalov,177,12.66618587,2020,CZ_506621,official,TRUE
CZ_506664,13.705445831512224,49.6784949481417,CZ,CZ03,CZ032,506664,Skořice,256,23.81507514,2020,CZ_506664,official,TRUE
CZ_506699,16.67095455081209,49.100039775505394,CZ,CZ06,CZ064,506699,Otmarov,366,1.24491159,2020,CZ_506699,official,TRUE
CZ_506702,18.105337350626193,49.91896351981269,CZ,CZ08,CZ080,506702,Dolní Benešov,4038,14.82216388,2020,CZ_506702,official,TRUE
CZ_506711,18.089896617254315,49.84125783687658,CZ,CZ08,CZ080,506711,Dolní Lhota,1483,5.34102034,2020,CZ_506711,official,TRUE
CZ_506729,15.490991763272971,49.379475872003255,CZ,CZ06,CZ063,506729,Dvorce,195,3.58634466,2020,CZ_506729,official,TRUE
CZ_506737,17.698914615884586,49.39443760508473,CZ,CZ07,CZ072,506737,Chvalčov,1614,22.85480277,2020,CZ_506737,official,TRUE
CZ_506753,18.092785226923162,49.900615040508555,CZ,CZ08,CZ080,506753,Háj ve Slezsku,3255,13.85469891,2020,CZ_506753,official,TRUE
CZ_506761,17.045302260367958,49.42145757158401,CZ,CZ07,CZ071,506761,Alojzov,259,4.60558608,2020,CZ_506761,official,TRUE
CZ_506770,17.06408346516762,49.441061014850014,CZ,CZ07,CZ071,506770,Seloutky,522,7.06330668,2020,CZ_506770,official,TRUE
CZ_507016,18.193632170550853,49.89691372869449,CZ,CZ08,CZ080,507016,Hlučín,13931,21.13436112,2020,CZ_507016,official,TRUE
CZ_507091,18.764508056357815,49.66019071481249,CZ,CZ08,CZ080,507091,Nýdek,2078,28.20944275,2020,CZ_507091,official,TRUE
CZ_507105,18.010655783086257,50.004442401424164,CZ,CZ08,CZ080,507105,Hněvošice,1003,6.17698162,2020,CZ_507105,official,TRUE
CZ_507113,17.80943003577709,49.99643386917709,CZ,CZ08,CZ080,507113,Holasovice,1380,16.4184296,2020,CZ_507113,official,TRUE
CZ_507181,18.36977800591724,49.61742695724431,CZ,CZ08,CZ080,507181,Pržno,1060,2.9653214,2020,CZ_507181,official,TRUE
CZ_507237,18.531547344859735,49.65938915626127,CZ,CZ08,CZ080,507237,Komorní Lhotka,1420,19.78991085,2020,CZ_507237,official,TRUE
CZ_507261,18.05269934135992,49.8780945553852,CZ,CZ08,CZ080,507261,Hrabyně,1182,9.90994958,2020,CZ_507261,official,TRUE
CZ_507270,17.87707043370741,49.86702539916797,CZ,CZ08,CZ080,507270,Hradec nad Moravicí,5506,43.96120639,2020,CZ_507270,official,TRUE
CZ_507334,18.113571210534626,49.98940032591759,CZ,CZ08,CZ080,507334,Chuchelná,1284,7.71475842,2020,CZ_507334,official,TRUE
CZ_507377,17.6667797072558,49.89729157271959,CZ,CZ08,CZ080,507377,Jakartovice,1055,49.91917951,2020,CZ_507377,official,TRUE
CZ_507423,18.405436387966244,49.62226087298611,CZ,CZ08,CZ080,507423,Janovice,1930,13.1893148,2020,CZ_507423,official,TRUE
CZ_507458,18.69235009985151,49.59332662696366,CZ,CZ08,CZ080,507458,Košařiska,372,17.10026556,2020,CZ_507458,official,TRUE
CZ_507504,18.054008045869235,49.98512097969014,CZ,CZ08,CZ080,507504,Kobeřice,3280,17.03910573,2020,CZ_507504,official,TRUE
CZ_507547,18.70676378126747,49.58960694184473,CZ,CZ08,CZ080,507547,Milíkov,1370,9.19113363,2020,CZ_507547,official,TRUE
CZ_507580,18.01372597913765,49.93329624071988,CZ,CZ08,CZ080,507580,Kravaře,6717,19.2882175,2020,CZ_507580,official,TRUE
CZ_507610,14.772369369042192,49.21509931427548,CZ,CZ03,CZ031,507610,Doňov,82,5.07287822,2020,CZ_507610,official,TRUE
CZ_507628,14.825349457856284,49.19478723182719,CZ,CZ03,CZ031,507628,Pleše,175,9.80327927,2020,CZ_507628,official,TRUE
CZ_507644,14.785178694917143,49.20551951857816,CZ,CZ03,CZ031,507644,Újezdec,70,4.26222132,2020,CZ_507644,official,TRUE
CZ_507652,14.841701160505052,49.22108791314598,CZ,CZ03,CZ031,507652,Višňová,85,5.78180257,2020,CZ_507652,official,TRUE
CZ_507695,14.79963057194375,49.21375997689646,CZ,CZ03,CZ031,507695,Záhoří,109,3.6402739,2020,CZ_507695,official,TRUE
CZ_507717,15.38750152981986,49.06093511627139,CZ,CZ03,CZ031,507717,Peč,475,18.16554111,2020,CZ_507717,official,TRUE
CZ_507733,14.910352107225744,49.29021981578167,CZ,CZ03,CZ031,507733,Březina,126,9.49442379,2020,CZ_507733,official,TRUE
CZ_507784,14.915871782237694,49.14581495897204,CZ,CZ03,CZ031,507784,Ratiboř,171,11.6905175,2020,CZ_507784,official,TRUE
CZ_507920,17.748411039728296,49.90613668940625,CZ,CZ08,CZ080,507920,Litultovice,910,10.40169974,2020,CZ_507920,official,TRUE
CZ_507971,18.24575748609852,49.88353042724172,CZ,CZ08,CZ080,507971,Ludgeřovice,4946,10.82613092,2020,CZ_507971,official,TRUE
CZ_508004,14.914931217479483,49.12782735636038,CZ,CZ03,CZ031,508004,Roseč,235,5.47670304,2020,CZ_508004,official,TRUE
CZ_508128,18.239179965886386,49.90936639007714,CZ,CZ08,CZ080,508128,Markvartovice,2070,6.72645392,2020,CZ_508128,official,TRUE
CZ_508144,17.75920488708399,49.85171279217412,CZ,CZ08,CZ080,508144,Melč,631,14.03125377,2020,CZ_508144,official,TRUE
CZ_508152,15.163655561690371,49.14367841856577,CZ,CZ03,CZ031,508152,Střížovice,564,12.40082931,2020,CZ_508152,official,TRUE
CZ_508357,15.42096771958346,49.10754558389392,CZ,CZ03,CZ031,508357,Kostelní Vydří,160,6.42208059,2020,CZ_508357,official,TRUE
CZ_508373,18.02895617902126,49.9051878129947,CZ,CZ08,CZ080,508373,Mokré Lazce,1157,10.53771622,2020,CZ_508373,official,TRUE
CZ_508501,14.757559310732619,49.062480113498566,CZ,CZ03,CZ031,508501,Lužnice,420,12.07130402,2020,CZ_508501,official,TRUE
CZ_508683,14.682713619469903,49.10744148774552,CZ,CZ03,CZ031,508683,Záblatí,78,10.25746058,2020,CZ_508683,official,TRUE
CZ_509078,14.90821659151042,49.08224851131031,CZ,CZ03,CZ031,509078,Plavsko,452,10.87824147,2020,CZ_509078,official,TRUE
CZ_509108,15.007939569107268,49.223306881382506,CZ,CZ03,CZ031,509108,Kostelní Radouň,300,5.94017976,2020,CZ_509108,official,TRUE
CZ_509116,15.543757770733976,49.12591406949532,CZ,CZ03,CZ031,509116,Červený Hrádek,210,6.71496787,2020,CZ_509116,official,TRUE
CZ_509141,14.90076404374439,48.84963692393148,CZ,CZ03,CZ031,509141,Dvory nad Lužnicí,352,15.67376127,2020,CZ_509141,official,TRUE
CZ_509191,14.830377706167376,48.92524574670245,CZ,CZ03,CZ031,509191,Cep,192,35.48842706,2020,CZ_509191,official,TRUE
CZ_509388,15.122088856300298,49.533074101897455,CZ,CZ06,CZ063,509388,Arneštovice,85,5.46415393,2020,CZ_509388,official,TRUE
CZ_509418,14.94696057128766,49.30854133168871,CZ,CZ06,CZ063,509418,Bořetín,104,4.81367221,2020,CZ_509418,official,TRUE
CZ_509574,17.959160333190223,49.9915232965948,CZ,CZ08,CZ080,509574,Oldřišov,1410,15.79818895,2020,CZ_509574,official,TRUE
CZ_509612,17.874952072350624,49.91599779734329,CZ,CZ08,CZ080,509612,Otice,1441,7.11694212,2020,CZ_509612,official,TRUE
CZ_509621,14.048704403990351,49.36819437685977,CZ,CZ03,CZ031,509621,Předotice,565,21.49083479,2020,CZ_509621,official,TRUE
CZ_509647,18.193140693034575,49.97628656463441,CZ,CZ08,CZ080,509647,Píšť,2110,15.66054152,2020,CZ_509647,official,TRUE
CZ_509736,18.004237427130708,49.85115716367029,CZ,CZ08,CZ080,509736,Pustá Polom,1380,16.65305415,2020,CZ_509736,official,TRUE
CZ_509752,14.376198899727227,49.402225258466835,CZ,CZ03,CZ031,509752,Křižanov,104,3.37869632,2020,CZ_509752,official,TRUE
CZ_509841,17.942548304995242,49.89289064252867,CZ,CZ08,CZ080,509841,Raduň,1148,8.00213691,2020,CZ_509841,official,TRUE
CZ_510068,13.794772261152088,49.374995492352426,CZ,CZ03,CZ031,510068,Čečelovice,196,6.53759637,2020,CZ_510068,official,TRUE
CZ_510131,17.925807655840337,49.817787475524824,CZ,CZ08,CZ080,510131,Skřipov,1031,20.20893477,2020,CZ_510131,official,TRUE
CZ_510289,17.83882459787928,49.91867216252711,CZ,CZ08,CZ080,510289,Slavkov,2052,10.97581239,2020,CZ_510289,official,TRUE
CZ_510297,18.001058743596314,49.98876910708225,CZ,CZ08,CZ080,510297,Služovice,817,5.95489298,2020,CZ_510297,official,TRUE
CZ_510343,17.805173578914967,49.94139823528825,CZ,CZ08,CZ080,510343,Stěbořice,1490,17.70415449,2020,CZ_510343,official,TRUE
CZ_510378,18.06424212174777,50.02924346983794,CZ,CZ08,CZ080,510378,Sudice,634,9.43668036,2020,CZ_510378,official,TRUE
CZ_510432,18.26874760005402,49.92317823968841,CZ,CZ08,CZ080,510432,Šilheřovice,1612,21.61169034,2020,CZ_510432,official,TRUE
CZ_510483,18.037640756707138,49.958653988835344,CZ,CZ08,CZ080,510483,Štěpánkovice,3233,12.52911414,2020,CZ_510483,official,TRUE
CZ_510491,18.015201872616544,49.91523710884989,CZ,CZ08,CZ080,510491,Štítina,1245,3.07826395,2020,CZ_510491,official,TRUE
CZ_510556,15.7837311960781,49.01417390868899,CZ,CZ06,CZ063,510556,Láz,284,4.66938836,2020,CZ_510556,official,TRUE
CZ_510645,16.01488571794763,49.24558882286917,CZ,CZ06,CZ063,510645,Kojatín,87,4.50577179,2020,CZ_510645,official,TRUE
CZ_510882,18.092363850173662,49.8639907886042,CZ,CZ08,CZ080,510882,Velká Polom,2071,11.69895661,2020,CZ_510882,official,TRUE
CZ_510891,17.729455090813477,49.974054625832316,CZ,CZ08,CZ080,510891,Velké Heraltice,1622,39.36763095,2020,CZ_510891,official,TRUE
CZ_510939,17.97491693707099,49.93797259056245,CZ,CZ08,CZ080,510939,Velké Hoštice,1843,9.96687694,2020,CZ_510939,official,TRUE
CZ_510980,16.12361708894191,49.23053020451257,CZ,CZ06,CZ063,510980,Ocmanice,331,7.03432333,2020,CZ_510980,official,TRUE
CZ_511021,17.755745257554114,49.77865273352408,CZ,CZ08,CZ080,511021,Vítkov,5670,54.81232805,2020,CZ_511021,official,TRUE
CZ_511081,16.130477195740333,49.16705150576554,CZ,CZ06,CZ063,511081,Sedlec,246,9.39371131,2020,CZ_511081,official,TRUE
CZ_511161,17.937307816047507,49.88429050159176,CZ,CZ08,CZ080,511161,Vršovice,514,7.96419435,2020,CZ_511161,official,TRUE
CZ_511242,16.13857483714437,49.20273499164474,CZ,CZ06,CZ063,511242,Vícenice u Náměště nad Oslavou,398,5.96477731,2020,CZ_511242,official,TRUE
CZ_511307,15.685548993953688,49.019238971418396,CZ,CZ06,CZ063,511307,Rácovice,118,7.27613642,2020,CZ_511307,official,TRUE
CZ_511382,17.45507330873502,49.45571903339443,CZ,CZ07,CZ071,511382,Přerov,42871,58.55928769,2020,CZ_511382,official,TRUE
CZ_511412,15.968723887024384,49.31863768828705,CZ,CZ06,CZ063,511412,Oslavička,119,4.23729236,2020,CZ_511412,official,TRUE
CZ_511587,12.582499692939694,50.209808093675974,CZ,CZ04,CZ041,511587,Josefov,383,8.41188775,2020,CZ_511587,official,TRUE
CZ_511633,18.736969299276872,49.56663338256867,CZ,CZ08,CZ080,511633,Bocanovice,477,3.74318532,2020,CZ_511633,official,TRUE
CZ_511935,18.827374110228593,49.550672268909416,CZ,CZ08,CZ080,511935,Bukovec,1384,16.9847768,2020,CZ_511935,official,TRUE
CZ_511951,18.707996870023575,49.546625434855535,CZ,CZ08,CZ080,511951,Dolní Lomná,922,27.04726297,2020,CZ_511951,official,TRUE
CZ_511986,18.634578380958544,49.52839508062826,CZ,CZ08,CZ080,511986,Horní Lomná,381,24.77339193,2020,CZ_511986,official,TRUE
CZ_512028,18.80090748458474,49.55933482272986,CZ,CZ08,CZ080,512028,Písek,1863,15.54604058,2020,CZ_512028,official,TRUE
CZ_512176,18.737029311983918,49.61419912420173,CZ,CZ08,CZ080,512176,Hrádek,1879,9.82251877,2020,CZ_512176,official,TRUE
CZ_512184,18.335358294649517,49.610020539025015,CZ,CZ08,CZ080,512184,Metylovice,1766,11.13973558,2020,CZ_512184,official,TRUE
CZ_512192,18.46604155154608,49.695591642761244,CZ,CZ08,CZ080,512192,Horní Domaslavice,924,5.0517259900000004,2020,CZ_512192,official,TRUE
CZ_512231,17.800947785038275,49.58847541190827,CZ,CZ07,CZ071,512231,Bělotín,1838,33.41385888,2020,CZ_512231,official,TRUE
CZ_512281,17.50409864197035,49.41757550257792,CZ,CZ07,CZ071,512281,Beňov,677,8.65042764,2020,CZ_512281,official,TRUE
CZ_512401,17.606672806928714,49.46479214475844,CZ,CZ07,CZ071,512401,Bezuchov,194,3.9707282,2020,CZ_512401,official,TRUE
CZ_512532,17.421771432320952,49.42289415924573,CZ,CZ07,CZ071,512532,Bochoř,977,9.39009296,2020,CZ_512532,official,TRUE
CZ_512745,18.023804447180186,49.81530342384737,CZ,CZ08,CZ080,512745,Těškovice,820,9.11952698,2020,CZ_512745,official,TRUE
CZ_512800,17.33881843124356,49.482657726115896,CZ,CZ07,CZ071,512800,Brodek u Přerova,1940,8.95288202,2020,CZ_512800,official,TRUE
CZ_512826,17.47221179947828,49.506789154095564,CZ,CZ07,CZ071,512826,Buk,378,3.73913988,2020,CZ_512826,official,TRUE
CZ_512869,18.086811697789116,50.0006165734779,CZ,CZ08,CZ080,512869,Strahovice,882,5.06530255,2020,CZ_512869,official,TRUE
CZ_512877,17.718474264896816,49.4662043937171,CZ,CZ07,CZ071,512877,Býškovice,406,5.9225616,2020,CZ_512877,official,TRUE
CZ_512893,17.68357364004004,49.86466590263178,CZ,CZ08,CZ080,512893,Nové Lublice,192,6.79650299,2020,CZ_512893,official,TRUE
CZ_512907,18.04431873811325,49.832033176843574,CZ,CZ08,CZ080,512907,Kyjovice,860,6.90084367,2020,CZ_512907,official,TRUE
CZ_512923,17.96788712023139,49.961128970293764,CZ,CZ08,CZ080,512923,Chlebičov,1169,3.65553282,2020,CZ_512923,official,TRUE
CZ_512974,18.1413504923859,49.97113576243192,CZ,CZ08,CZ080,512974,Bělá,661,2.91649854,2020,CZ_512974,official,TRUE
CZ_512982,17.326778801551665,49.468946903007485,CZ,CZ07,CZ071,512982,Citov,538,3.70352615,2020,CZ_512982,official,TRUE
CZ_512991,13.972171356009639,50.19588400487274,CZ,CZ02,CZ020,512991,Drnek,171,5.23192557,2020,CZ_512991,official,TRUE
CZ_513032,14.2003831763337,50.24272718081094,CZ,CZ02,CZ020,513032,Kamenný Most,422,3.28873406,2020,CZ_513032,official,TRUE
CZ_513041,14.011015229214342,50.09089578370206,CZ,CZ02,CZ020,513041,Lhota,656,11.70659066,2020,CZ_513041,official,TRUE
CZ_513059,17.366319765496723,49.50789076543336,CZ,CZ07,CZ071,513059,Čelechovice,125,2.13112388,2020,CZ_513059,official,TRUE
CZ_513067,17.772473076405944,49.53688313507428,CZ,CZ07,CZ071,513067,Černotín,774,8.25632469,2020,CZ_513067,official,TRUE
CZ_513075,14.159353329829402,50.27821742753156,CZ,CZ02,CZ020,513075,Hobšovice,356,9.96340315,2020,CZ_513075,official,TRUE
CZ_513105,17.475409735131596,49.40150597004499,CZ,CZ07,CZ071,513105,Dobrčice,224,2.16784077,2020,CZ_513105,official,TRUE
CZ_513113,14.130388078293867,50.1106986930816,CZ,CZ02,CZ020,513113,Malé Přítočno,243,1.90227935,2020,CZ_513113,official,TRUE
CZ_513130,14.145040765277637,50.11343003121221,CZ,CZ02,CZ020,513130,Dolany,314,2.91871752,2020,CZ_513130,official,TRUE
CZ_513148,15.101077066625427,49.99302808110656,CZ,CZ02,CZ020,513148,Polní Voděrady,190,4.07102217,2020,CZ_513148,official,TRUE
CZ_513164,14.958195447746073,49.970631650084144,CZ,CZ02,CZ020,513164,Ždánice,362,10.58438764,2020,CZ_513164,official,TRUE
CZ_513181,15.324082521497774,50.10946212283066,CZ,CZ02,CZ020,513181,Dománovice,120,2.73318702,2020,CZ_513181,official,TRUE
CZ_513199,17.53041894504523,49.547820752541945,CZ,CZ07,CZ071,513199,Dolní Újezd,1227,7.89414101,2020,CZ_513199,official,TRUE
CZ_513202,15.016233506760923,50.0300800174863,CZ,CZ02,CZ020,513202,Zalešany,108,4.89640479,2020,CZ_513202,official,TRUE
CZ_513211,17.546463832151712,49.423706227563464,CZ,CZ07,CZ071,513211,Domaželice,559,4.25766407,2020,CZ_513211,official,TRUE
CZ_513229,17.591413483217632,49.427392487415446,CZ,CZ07,CZ071,513229,Dřevohostice,1500,8.44328802,2020,CZ_513229,official,TRUE
CZ_513237,15.296180644439799,50.11064082658171,CZ,CZ02,CZ020,513237,Polní Chrčice,176,5.23085326,2020,CZ_513237,official,TRUE
CZ_513261,15.025771870275504,50.03775817827293,CZ,CZ02,CZ020,513261,Žabonosy,239,3.12606037,2020,CZ_513261,official,TRUE
CZ_513270,15.36382164347822,50.08883741597952,CZ,CZ02,CZ020,513270,Lipec,197,3.86756172,2020,CZ_513270,official,TRUE
CZ_513288,14.812022105798466,50.042466041893924,CZ,CZ02,CZ020,513288,Mrzky,171,2.86143576,2020,CZ_513288,official,TRUE
CZ_513369,14.83921810999672,50.02784747348894,CZ,CZ02,CZ020,513369,Přehvozdí,297,2.81301123,2020,CZ_513369,official,TRUE
CZ_513393,14.87481040607287,50.057377204062746,CZ,CZ02,CZ020,513393,Přistoupim,450,4.50437448,2020,CZ_513393,official,TRUE
CZ_513415,15.147912635891803,49.987644777922945,CZ,CZ02,CZ020,513415,Kbel,215,2.01902544,2020,CZ_513415,official,TRUE
CZ_513423,15.18585199301883,49.99870982952748,CZ,CZ02,CZ020,513423,Pašinka,349,3.87747697,2020,CZ_513423,official,TRUE
CZ_513431,14.262650034619009,49.99203651491795,CZ,CZ02,CZ020,513431,Chýnice,410,4.19412904,2020,CZ_513431,official,TRUE
CZ_513458,14.500008854999658,49.98284091219352,CZ,CZ02,CZ020,513458,Vestec,2739,4.70791896,2020,CZ_513458,official,TRUE
CZ_513482,14.480604802145965,49.81643601346516,CZ,CZ02,CZ020,513482,Vysoký Újezd,190,4.06546445,2020,CZ_513482,official,TRUE
CZ_513491,17.461854075797994,49.413837874156954,CZ,CZ07,CZ071,513491,Horní Moštěnice,1697,9.79240863,2020,CZ_513491,official,TRUE
CZ_513504,14.123784572914555,49.71877320376748,CZ,CZ02,CZ020,513504,Dlouhá Lhota,430,7.60672544,2020,CZ_513504,official,TRUE
CZ_513512,14.206031902218914,49.63898151316573,CZ,CZ02,CZ020,513512,Zduchovice,308,8.53789602,2020,CZ_513512,official,TRUE
CZ_513521,14.024282273831078,49.64958695037393,CZ,CZ02,CZ020,513521,Lešetice,192,3.06074907,2020,CZ_513521,official,TRUE
CZ_513539,14.31802106509508,49.81323425142765,CZ,CZ02,CZ020,513539,Velká Lečice,179,5.18637709,2020,CZ_513539,official,TRUE
CZ_513547,14.387387730405399,49.671925513564574,CZ,CZ02,CZ020,513547,Příčovy,338,3.14030113,2020,CZ_513547,official,TRUE
CZ_513555,14.09247653799495,49.73694509333217,CZ,CZ02,CZ020,513555,Kotenčice,203,2.31857598,2020,CZ_513555,official,TRUE
CZ_513571,14.066668899500343,49.711714123888356,CZ,CZ02,CZ020,513571,Občov,190,2.92644597,2020,CZ_513571,official,TRUE
CZ_513580,13.92723145962443,49.53187898968118,CZ,CZ02,CZ020,513580,Hudčice,253,8.70638553,2020,CZ_513580,official,TRUE
CZ_513628,14.720281506609627,49.95669515074417,CZ,CZ02,CZ020,513628,Klokočná,273,2.87327549,2020,CZ_513628,official,TRUE
CZ_513636,17.69335167756258,49.57634073286475,CZ,CZ07,CZ071,513636,Hrabůvka,309,3.05733108,2020,CZ_513636,official,TRUE
CZ_513644,14.708046321897822,50.03759011427003,CZ,CZ02,CZ020,513644,Zlatá,369,1.09950742,2020,CZ_513644,official,TRUE
CZ_513661,14.243506609133945,48.94813391272089,CZ,CZ03,CZ031,513661,Nová Ves,416,9.93733047,2020,CZ_513661,official,TRUE
CZ_513695,16.576344363696897,49.618991611128216,CZ,CZ06,CZ064,513695,Horní Smržov,137,3.93572542,2020,CZ_513695,official,TRUE
CZ_513709,16.590497650631633,49.618968532912824,CZ,CZ06,CZ064,513709,Roubanina,129,2.66185448,2020,CZ_513709,official,TRUE
CZ_513717,15.727070314903598,50.1800417208935,CZ,CZ05,CZ052,513717,Urbanice,335,2.31280157,2020,CZ_513717,official,TRUE
CZ_513733,17.574079251441773,49.448922282580064,CZ,CZ07,CZ071,513733,Hradčany,310,5.35007324,2020,CZ_513733,official,TRUE
CZ_513750,17.736836350750274,49.554283974792256,CZ,CZ07,CZ071,513750,Hranice,17999,49.83361839,2020,CZ_513750,official,TRUE
CZ_513768,17.872393526244075,49.53403891367863,CZ,CZ07,CZ071,513768,Hustopeče nad Bečvou,1759,23.85188677,2020,CZ_513768,official,TRUE
CZ_513873,17.75266523746001,49.6420657412065,CZ,CZ07,CZ071,513873,Jindřichov,473,16.15006097,2020,CZ_513873,official,TRUE
CZ_513890,14.61394538742454,50.56177948237175,CZ,CZ05,CZ051,513890,Skalka u Doks,160,5.0199236,2020,CZ_513890,official,TRUE
CZ_514047,17.67870519286559,49.559019541691185,CZ,CZ07,CZ071,514047,Klokočí,250,3.71318726,2020,CZ_514047,official,TRUE
CZ_514055,17.299993780170606,49.35037362520989,CZ,CZ07,CZ071,514055,Kojetín,6078,31.1311483,2020,CZ_514055,official,TRUE
CZ_514152,17.377620053914235,49.49745804000205,CZ,CZ07,CZ071,514152,Kokory,1153,6.73101966,2020,CZ_514152,official,TRUE
CZ_514161,14.66069528823546,50.515835482348855,CZ,CZ05,CZ051,514161,Luka,79,4.55731871,2020,CZ_514161,official,TRUE
CZ_514195,14.62118125298448,50.518127879471336,CZ,CZ05,CZ051,514195,Ždírec,123,5.43679444,2020,CZ_514195,official,TRUE
CZ_514276,14.721285748206828,50.671310624693625,CZ,CZ05,CZ051,514276,Pertoltice pod Ralskem,397,7.8956439,2020,CZ_514276,official,TRUE
CZ_514446,17.456342880697466,49.547220248946275,CZ,CZ07,CZ071,514446,Lazníčky,201,2.92974047,2020,CZ_514446,official,TRUE
CZ_514471,17.465538518502044,49.528017200822234,CZ,CZ07,CZ071,514471,Lazníky,540,3.02013594,2020,CZ_514471,official,TRUE
CZ_514497,17.61403076438347,49.50036453446197,CZ,CZ07,CZ071,514497,Lhota,321,3.25516863,2020,CZ_514497,official,TRUE
CZ_514527,17.405534169057564,49.496561587032716,CZ,CZ07,CZ071,514527,Lhotka,63,1.92597948,2020,CZ_514527,official,TRUE
CZ_514705,17.586047560605298,49.52680012052001,CZ,CZ07,CZ071,514705,Lipník nad Bečvou,7982,30.66742439,2020,CZ_514705,official,TRUE
CZ_514772,17.612444117845783,49.41052936884136,CZ,CZ07,CZ071,514772,Lipová,275,5.02076826,2020,CZ_514772,official,TRUE
CZ_514802,17.54504562209067,49.41420525942024,CZ,CZ07,CZ071,514802,Líšná,261,3.72774007,2020,CZ_514802,official,TRUE
CZ_515191,17.292735371030957,49.39548369991041,CZ,CZ07,CZ071,515191,Lobodice,739,7.20752833,2020,CZ_515191,official,TRUE
CZ_515329,17.765363197517516,49.48987808929393,CZ,CZ07,CZ071,515329,Malhotice,373,7.64417074,2020,CZ_515329,official,TRUE
CZ_515418,17.666568228565396,49.56662554106358,CZ,CZ07,CZ071,515418,Milenov,437,6.18482963,2020,CZ_515418,official,TRUE
CZ_515477,17.84196734771788,49.53882340342645,CZ,CZ07,CZ071,515477,Milotice nad Bečvou,294,4.57255287,2020,CZ_515477,official,TRUE
CZ_515787,17.39231028664071,49.51130061176089,CZ,CZ07,CZ071,515787,Nelešovice,195,3.14632248,2020,CZ_515787,official,TRUE
CZ_515825,17.543718593791056,49.49608107019365,CZ,CZ07,CZ071,515825,Oldřichov,116,0.96376421,2020,CZ_515825,official,TRUE
CZ_516201,17.739071023379147,49.50086305819115,CZ,CZ07,CZ071,516201,Opatovice,818,8.01822301,2020,CZ_516201,official,TRUE
CZ_516350,17.623666983289,49.473553133512006,CZ,CZ07,CZ071,516350,Oprostovice,86,2.67871892,2020,CZ_516350,official,TRUE
CZ_516619,17.523123322285205,49.50975199076947,CZ,CZ07,CZ071,516619,Osek nad Bečvou,1285,12.93874061,2020,CZ_516619,official,TRUE
CZ_516635,17.710495894352984,49.50266286246973,CZ,CZ07,CZ071,516635,Paršovice,399,13.56492992,2020,CZ_516635,official,TRUE
CZ_516686,17.704152979204867,49.62922579276376,CZ,CZ07,CZ071,516686,Partutovice,510,10.00285917,2020,CZ_516686,official,TRUE
CZ_516694,17.552607408391207,49.468488094973324,CZ,CZ07,CZ071,516694,Pavlovice u Přerova,719,8.16753944,2020,CZ_516694,official,TRUE
CZ_516864,17.53384004871579,49.4433067756028,CZ,CZ07,CZ071,516864,Podolí,210,2.21416732,2020,CZ_516864,official,TRUE
CZ_516899,17.26372354738783,49.388186058684305,CZ,CZ07,CZ071,516899,Polkovice,500,7.10558383,2020,CZ_516899,official,TRUE
CZ_516911,17.843287689770495,49.57503472907438,CZ,CZ07,CZ071,516911,Polom,275,8.25502561,2020,CZ_516911,official,TRUE
CZ_517101,17.65070159894467,49.64002006858333,CZ,CZ07,CZ071,517101,Potštát,1189,34.31761665,2020,CZ_517101,official,TRUE
CZ_517151,17.48758816424434,49.49120673521495,CZ,CZ07,CZ071,517151,Prosenice,795,6.25122722,2020,CZ_517151,official,TRUE
CZ_517208,17.764812689640703,49.4539703814988,CZ,CZ07,CZ071,517208,Provodovice,155,3.27063479,2020,CZ_517208,official,TRUE
CZ_517224,17.482766783645676,49.39302188459869,CZ,CZ07,CZ071,517224,Přestavlky,276,3.65297416,2020,CZ_517224,official,TRUE
CZ_517275,17.671000909439414,49.595923903920806,CZ,CZ07,CZ071,517275,Radíkov,163,7.09644921,2020,CZ_517275,official,TRUE
CZ_517321,17.6218860559584,49.4470678974477,CZ,CZ07,CZ071,517321,Radkova Lhota,203,2.14513123,2020,CZ_517321,official,TRUE
CZ_517437,17.617924136324106,49.436931110921655,CZ,CZ07,CZ071,517437,Radkovy,155,2.54229492,2020,CZ_517437,official,TRUE
CZ_517445,17.62662088922337,49.48136612419793,CZ,CZ07,CZ071,517445,Radotín,182,2.62835982,2020,CZ_517445,official,TRUE
CZ_517534,17.51393603358298,49.479746409026625,CZ,CZ07,CZ071,517534,Radslavice,1140,6.98327745,2020,CZ_517534,official,TRUE
CZ_517569,17.476581043037083,49.509644834152084,CZ,CZ07,CZ071,517569,Radvanice,281,2.89725803,2020,CZ_517569,official,TRUE
CZ_517585,17.709327912824154,49.492979330008424,CZ,CZ07,CZ071,517585,Rakov,407,4.95631951,2020,CZ_517585,official,TRUE
CZ_517607,17.380808321330388,49.46462855794331,CZ,CZ07,CZ071,517607,Rokytnice,1523,8.07293268,2020,CZ_517607,official,TRUE
CZ_517615,17.776259993292417,49.47108301315195,CZ,CZ07,CZ071,517615,Rouské,254,5.30600863,2020,CZ_517615,official,TRUE
CZ_517666,17.4465223023087,49.38475291633033,CZ,CZ07,CZ071,517666,Říkovice,474,3.92035167,2020,CZ_517666,official,TRUE
CZ_517747,17.796976374282817,49.515209608167474,CZ,CZ07,CZ071,517747,Skalička,634,4.15921348,2020,CZ_517747,official,TRUE
CZ_517836,17.447805318086626,49.50274486341502,CZ,CZ07,CZ071,517836,Sobíšky,156,2.93786595,2020,CZ_517836,official,TRUE
CZ_517844,17.652287416950575,49.479762120011806,CZ,CZ07,CZ071,517844,Soběchleby,584,6.66118813,2020,CZ_517844,official,TRUE
CZ_517887,17.49001941869621,49.38174323398482,CZ,CZ07,CZ071,517887,Stará Ves,619,9.36038735,2020,CZ_517887,official,TRUE
CZ_517909,17.74177227317915,49.604844953832945,CZ,CZ07,CZ071,517909,Střítež nad Ludinou,843,14.90080127,2020,CZ_517909,official,TRUE
CZ_518026,17.542467325608733,49.48650318343129,CZ,CZ07,CZ071,518026,Sušice,328,4.85746824,2020,CZ_518026,official,TRUE
CZ_519031,17.73992360355668,49.53021419712776,CZ,CZ07,CZ071,519031,Teplice nad Bečvou,380,3.65375363,2020,CZ_519031,official,TRUE
CZ_519146,17.285926595241843,49.43184762671217,CZ,CZ07,CZ071,519146,Tovačov,2468,22.76017272,2020,CZ_519146,official,TRUE
CZ_519651,17.353027374296875,49.427996975686476,CZ,CZ07,CZ071,519651,Troubky,2035,21.09409707,2020,CZ_519651,official,TRUE
CZ_520047,17.511555050495815,49.45326317860706,CZ,CZ07,CZ071,520047,Tučín,435,4.88472326,2020,CZ_520047,official,TRUE
CZ_520306,17.769105511121154,49.516937065919976,CZ,CZ07,CZ071,520306,Ústí,559,3.28794587,2020,CZ_520306,official,TRUE
CZ_520420,17.509816677185462,49.53197883340478,CZ,CZ07,CZ071,520420,Veselíčko,894,13.18470978,2020,CZ_520420,official,TRUE
CZ_521531,17.760803432609052,49.46306592143743,CZ,CZ07,CZ071,521531,Všechovice,849,5.81805919,2020,CZ_521531,official,TRUE
CZ_522775,17.824021917301664,49.50467398576694,CZ,CZ07,CZ071,522775,Zámrsky,245,8.04678104,2020,CZ_522775,official,TRUE
CZ_523453,17.657959230002817,49.452269700316215,CZ,CZ07,CZ071,523453,Žákovice,238,5.58204462,2020,CZ_523453,official,TRUE
CZ_523640,17.505852214183633,49.44459853202909,CZ,CZ07,CZ071,523640,Želatovice,553,4.37722797,2020,CZ_523640,official,TRUE
CZ_523704,16.973320069380897,49.968070784822686,CZ,CZ07,CZ071,523704,Šumperk,25836,27.85341094,2020,CZ_523704,official,TRUE
CZ_523917,17.193297182623322,50.19198377878299,CZ,CZ07,CZ071,523917,Bělá pod Pradědem,1770,92.17530455,2020,CZ_523917,official,TRUE
CZ_524891,17.07851531114963,50.39114418254465,CZ,CZ07,CZ071,524891,Bernartice,861,28.59760398,2020,CZ_524891,official,TRUE
CZ_525227,16.911653133285316,50.43917119351339,CZ,CZ07,CZ071,525227,Bílá Voda,323,14.9729412,2020,CZ_525227,official,TRUE
CZ_525588,16.92441952735882,49.94153208866468,CZ,CZ07,CZ071,525588,Bludov,3062,16.72556528,2020,CZ_525588,official,TRUE
CZ_525804,16.897625505809746,50.02111505728386,CZ,CZ07,CZ071,525804,Bohdíkov,1304,26.3091527,2020,CZ_525804,official,TRUE
CZ_525880,16.937967242032126,49.824175087639894,CZ,CZ07,CZ071,525880,Bohuslavice,513,3.94384248,2020,CZ_525880,official,TRUE
CZ_525979,16.878363344909015,49.953919815770064,CZ,CZ07,CZ071,525979,Bohutín,769,2.28180535,2020,CZ_525979,official,TRUE
CZ_526169,17.01478984333741,50.153027145277086,CZ,CZ07,CZ071,526169,Branná,278,14.51688313,2020,CZ_526169,official,TRUE
CZ_526622,15.379004255627194,49.972958926932364,CZ,CZ02,CZ020,526622,Rohozec,310,5.30163815,2020,CZ_526622,official,TRUE
CZ_528196,14.99029340428377,49.82767076429882,CZ,CZ02,CZ020,528196,Podveky,229,10.27527269,2020,CZ_528196,official,TRUE
CZ_529303,14.689560045132161,49.78520753004614,CZ,CZ02,CZ020,529303,Benešov,16758,46.82827258,2020,CZ_529303,official,TRUE
CZ_529451,14.669918370110743,49.733004724446495,CZ,CZ02,CZ020,529451,Bystřice,4483,63.45324729,2020,CZ_529451,official,TRUE
CZ_529478,14.832507675444296,49.82340806438801,CZ,CZ02,CZ020,529478,Čakov,125,5.31962736,2020,CZ_529478,official,TRUE
CZ_529486,15.047613029501054,49.62599006704614,CZ,CZ02,CZ020,529486,Čechtice,1393,39.38718342,2020,CZ_529486,official,TRUE
CZ_529516,14.708066782542389,49.8495475227958,CZ,CZ02,CZ020,529516,Čerčany,2917,6.4321684,2020,CZ_529516,official,TRUE
CZ_529524,15.344712209393439,49.79310010099492,CZ,CZ02,CZ020,529524,Čejkovice,29,1.99369093,2020,CZ_529524,official,TRUE
CZ_529532,14.605990469610129,49.55734261752105,CZ,CZ02,CZ020,529532,Červený Újezd,349,12.59618471,2020,CZ_529532,official,TRUE
CZ_529541,14.930143295680018,49.81101223625412,CZ,CZ02,CZ020,529541,Český Šternberk,166,5.36107537,2020,CZ_529541,official,TRUE
CZ_529559,15.329391729730522,49.78486923725538,CZ,CZ02,CZ020,529559,Dobrovítov,108,8.95942914,2020,CZ_529559,official,TRUE
CZ_529567,14.713989842026361,49.86790736952724,CZ,CZ02,CZ020,529567,Čtyřkoly,721,2.80523905,2020,CZ_529567,official,TRUE
CZ_529575,14.488898500236981,50.48665787189611,CZ,CZ02,CZ020,529575,Medonosy,146,14.99117492,2020,CZ_529575,official,TRUE
CZ_529583,14.47257939840457,50.44321488726577,CZ,CZ02,CZ020,529583,Tupadly,138,6.34246537,2020,CZ_529583,official,TRUE
CZ_529591,14.796829119231864,50.30401640171791,CZ,CZ02,CZ020,529591,Sedlec,241,4.98847462,2020,CZ_529591,official,TRUE
CZ_529605,14.876644903949668,50.55471035273709,CZ,CZ02,CZ020,529605,Rokytá,298,10.59592474,2020,CZ_529605,official,TRUE
CZ_529613,14.896885168695762,50.452890448713184,CZ,CZ02,CZ020,529613,Josefův Důl,438,0.59838697,2020,CZ_529613,official,TRUE
CZ_529621,14.873904335238556,49.78852491836916,CZ,CZ02,CZ020,529621,Divišov,1758,31.04299293,2020,CZ_529621,official,TRUE
CZ_529630,14.980272378250397,50.17051504516078,CZ,CZ02,CZ020,529630,Kostomlátky,314,5.78858611,2020,CZ_529630,official,TRUE
CZ_529648,15.175868742778535,49.64795074711411,CZ,CZ02,CZ020,529648,Dolní Kralovice,881,17.26331475,2020,CZ_529648,official,TRUE
CZ_529656,14.710531794049897,49.890920449931485,CZ,CZ02,CZ020,529656,Pětihosty,240,3.84230581,2020,CZ_529656,official,TRUE
CZ_529664,14.047891413604347,49.598966488440205,CZ,CZ02,CZ020,529664,Těchařovice,50,4.45887647,2020,CZ_529664,official,TRUE
CZ_529672,13.87960089354395,49.57445340701242,CZ,CZ02,CZ020,529672,Bezděkov pod Třemšínem,142,3.63411064,2020,CZ_529672,official,TRUE
CZ_529681,13.916302391078943,49.51819510096948,CZ,CZ02,CZ020,529681,Koupě,118,7.41614815,2020,CZ_529681,official,TRUE
CZ_529699,13.55476248838696,50.06136064962522,CZ,CZ02,CZ020,529699,Velká Chmelištná,63,8.36724465,2020,CZ_529699,official,TRUE
CZ_529702,14.579176383891689,49.606371268689436,CZ,CZ02,CZ020,529702,Heřmaničky,728,17.41600203,2020,CZ_529702,official,TRUE
CZ_529711,13.466768320499598,50.07783019102624,CZ,CZ02,CZ020,529711,Drahouš,81,14.80991464,2020,CZ_529711,official,TRUE
CZ_529729,14.33049974792136,48.95385084387185,CZ,CZ03,CZ031,529729,Kvítkovice,129,3.93207127,2020,CZ_529729,official,TRUE
CZ_529737,15.085042009253957,49.71239322233748,CZ,CZ02,CZ020,529737,Hulice,298,6.50969885,2020,CZ_529737,official,TRUE
CZ_529745,14.777821716314273,49.872469826938186,CZ,CZ02,CZ020,529745,Hvězdonice,334,1.44078127,2020,CZ_529745,official,TRUE
CZ_529753,15.040806252429988,49.25747649716951,CZ,CZ03,CZ031,529753,Dívčí Kopy,70,2.71466741,2020,CZ_529753,official,TRUE
CZ_529761,15.079210675774974,49.25570500882369,CZ,CZ03,CZ031,529761,Žďár,98,7.12373823,2020,CZ_529761,official,TRUE
CZ_529770,14.9997659700853,49.69172871990679,CZ,CZ02,CZ020,529770,Chlum,129,4.22941798,2020,CZ_529770,official,TRUE
CZ_529788,14.988058404424004,49.648772348593745,CZ,CZ02,CZ020,529788,Chmelná,148,2.42194121,2020,CZ_529788,official,TRUE
CZ_529796,14.807183457481248,49.87137156431762,CZ,CZ02,CZ020,529796,Chocerady,1266,17.78656759,2020,CZ_529796,official,TRUE
CZ_529818,14.812058786200208,49.74459151372151,CZ,CZ02,CZ020,529818,Chotýšany,585,13.97823317,2020,CZ_529818,official,TRUE
CZ_529826,15.202921922055333,49.357651971332764,CZ,CZ06,CZ063,529826,Čelistná,96,3.08934928,2020,CZ_529826,official,TRUE
CZ_529834,15.214866154638763,49.34967709974328,CZ,CZ06,CZ063,529834,Mezná,160,8.26163651,2020,CZ_529834,official,TRUE
CZ_529842,14.732375125198024,49.65093965126019,CZ,CZ02,CZ020,529842,Jankov,911,29.82824272,2020,CZ_529842,official,TRUE
CZ_529851,15.027508032657156,49.68937080853414,CZ,CZ02,CZ020,529851,Javorník,121,7.24108763,2020,CZ_529851,official,TRUE
CZ_529869,15.029450300828026,49.45670079867637,CZ,CZ06,CZ063,529869,Důl,59,2.29334964,2020,CZ_529869,official,TRUE
CZ_529877,14.362708388329875,49.41137071961897,CZ,CZ03,CZ031,529877,Okrouhlá,61,4.3542191,2020,CZ_529877,official,TRUE
CZ_529885,14.320852898727289,49.39550305692636,CZ,CZ03,CZ031,529885,Stehlovice,96,4.4925066,2020,CZ_529885,official,TRUE
CZ_529893,13.623525738819081,49.12356297284259,CZ,CZ03,CZ031,529893,Nicov,92,13.79171626,2020,CZ_529893,official,TRUE
CZ_529907,15.068463974109,49.67968920838255,CZ,CZ02,CZ020,529907,Keblov,183,7.07902659,2020,CZ_529907,official,TRUE
CZ_529915,13.717966547487599,49.14110748087196,CZ,CZ03,CZ031,529915,Vrbice,66,2.30319879,2020,CZ_529915,official,TRUE
CZ_529923,13.89337209021176,49.05058332219098,CZ,CZ03,CZ031,529923,Žárovná,120,2.41193619,2020,CZ_529923,official,TRUE
CZ_529931,14.885678067620264,49.67011889532247,CZ,CZ02,CZ020,529931,Kondrac,514,12.72397879,2020,CZ_529931,official,TRUE
CZ_529940,14.7917101676759,49.82618294205427,CZ,CZ02,CZ020,529940,Kozmice,325,7.96891389,2020,CZ_529940,official,TRUE
CZ_529958,14.556550991127834,49.854112362129264,CZ,CZ02,CZ020,529958,Krhanice,1051,13.67474572,2020,CZ_529958,official,TRUE
CZ_529966,13.934180998673531,49.41917944785001,CZ,CZ03,CZ031,529966,Buzice,175,8.39257539,2020,CZ_529966,official,TRUE
CZ_529974,14.467216773973034,49.843745397488995,CZ,CZ02,CZ020,529974,Krňany,454,12.19556467,2020,CZ_529974,official,TRUE
CZ_529982,13.871298986517074,49.442401667376735,CZ,CZ03,CZ031,529982,Chlum,198,6.30516718,2020,CZ_529982,official,TRUE
CZ_529991,14.476559300208956,49.72367627685474,CZ,CZ02,CZ020,529991,Křečovice,807,31.90424304,2020,CZ_529991,official,TRUE
CZ_530000,15.090762009317059,49.63243711818022,CZ,CZ02,CZ020,530000,Křivsoudov,434,13.72263797,2020,CZ_530000,official,TRUE
CZ_530018,13.793674868975799,49.504679981752275,CZ,CZ03,CZ031,530018,Březí,68,5.63318156,2020,CZ_530018,official,TRUE
CZ_530026,14.996259060124956,49.65577730557635,CZ,CZ02,CZ020,530026,Kuňovice,94,3.45617218,2020,CZ_530026,official,TRUE
CZ_530034,14.145710615673144,49.13148684901501,CZ,CZ03,CZ031,530034,Stožice,375,7.59215794,2020,CZ_530034,official,TRUE
CZ_530042,14.831940452543819,49.28422292640161,CZ,CZ03,CZ031,530042,Katov,78,3.71226868,2020,CZ_530042,official,TRUE
CZ_530051,14.526382969751708,49.841756163852615,CZ,CZ02,CZ020,530051,Lešany,796,14.40949597,2020,CZ_530051,official,TRUE
CZ_530069,14.919694671452651,49.75812190818282,CZ,CZ02,CZ020,530069,Libež,208,7.43435052,2020,CZ_530069,official,TRUE
CZ_530085,13.659246532174341,49.2209424363326,CZ,CZ03,CZ032,530085,Bukovník,63,4.10882147,2020,CZ_530085,official,TRUE
CZ_530093,15.120648029086892,49.6578396809274,CZ,CZ02,CZ020,530093,Loket,580,23.81377086,2020,CZ_530093,official,TRUE
CZ_530107,14.846114514680059,49.63533638781591,CZ,CZ02,CZ020,530107,Louňovice pod Blaníkem,658,17.12033848,2020,CZ_530107,official,TRUE
CZ_530115,14.566777251869254,49.71642160147345,CZ,CZ02,CZ020,530115,Maršovice,754,24.20479244,2020,CZ_530115,official,TRUE
CZ_530123,13.564076431218307,49.25917379151579,CZ,CZ03,CZ032,530123,Dobršín,105,6.52610019,2020,CZ_530123,official,TRUE
CZ_530131,13.24413784582429,49.60099926510411,CZ,CZ03,CZ032,530131,Přestavlky,234,9.83830196,2020,CZ_530131,official,TRUE
CZ_530140,13.56675321267353,49.6472244242851,CZ,CZ03,CZ032,530140,Milínov,208,12.25041065,2020,CZ_530140,official,TRUE
CZ_530158,14.648540173496059,49.533052917155715,CZ,CZ02,CZ020,530158,Mezno,366,15.61666362,2020,CZ_530158,official,TRUE
CZ_530166,14.663672079417402,49.57048290865443,CZ,CZ02,CZ020,530166,Miličín,821,25.68375482,2020,CZ_530166,official,TRUE
CZ_530174,14.981834780123025,49.65651965937539,CZ,CZ02,CZ020,530174,Miřetice,192,2.43998516,2020,CZ_530174,official,TRUE
CZ_530182,13.53276190661211,49.630118003203826,CZ,CZ03,CZ032,530182,Žákava,477,9.47916759,2020,CZ_530182,official,TRUE
CZ_530191,15.039550128770534,49.671508394120565,CZ,CZ02,CZ020,530191,Mnichovice,213,9.17369362,2020,CZ_530191,official,TRUE
CZ_530204,14.694221230368534,49.83096399049463,CZ,CZ02,CZ020,530204,Mrač,855,6.14066416,2020,CZ_530204,official,TRUE
CZ_530212,14.908363854953343,49.60539224239634,CZ,CZ02,CZ020,530212,Načeradec,1059,48.4061071,2020,CZ_530212,official,TRUE
CZ_530221,13.10154706466132,49.73205473206915,CZ,CZ03,CZ032,530221,Hněvnice,122,7.08665376,2020,CZ_530221,official,TRUE
CZ_530239,13.426678703737938,50.02025306148702,CZ,CZ03,CZ032,530239,Bílov,79,6.2295315,2020,CZ_530239,official,TRUE
CZ_530247,13.398257668334987,50.01422028057963,CZ,CZ03,CZ032,530247,Potvorov,137,6.26036346,2020,CZ_530247,official,TRUE
CZ_530263,14.669662153458251,49.85446089518658,CZ,CZ02,CZ020,530263,Nespeky,755,4.99894075,2020,CZ_530263,official,TRUE
CZ_530271,13.425410133844265,50.002438639333086,CZ,CZ03,CZ032,530271,Sedlec,120,5.95535239,2020,CZ_530271,official,TRUE
CZ_530280,13.454604902730162,50.01948355779711,CZ,CZ03,CZ032,530280,Vysoká Libyně,222,12.82319707,2020,CZ_530280,official,TRUE
CZ_530298,14.519588567623654,49.81926909604243,CZ,CZ02,CZ020,530298,Netvořice,1157,17.86612963,2020,CZ_530298,official,TRUE
CZ_530301,14.704545244098746,49.61314817482484,CZ,CZ02,CZ020,530301,Neustupov,536,28.6286437,2020,CZ_530301,official,TRUE
CZ_530310,14.532686924521373,49.75681803545101,CZ,CZ02,CZ020,530310,Neveklov,2661,54.49318428,2020,CZ_530310,official,TRUE
CZ_530328,13.105980331083979,49.81353876415374,CZ,CZ03,CZ032,530328,Čerňovice,207,9.22505156,2020,CZ_530328,official,TRUE
CZ_530336,13.316921394463993,49.95293480771586,CZ,CZ03,CZ032,530336,Pláně,262,13.92510114,2020,CZ_530336,official,TRUE
CZ_530344,14.636167009152485,49.67159049200295,CZ,CZ02,CZ020,530344,Olbramovice,1287,25.33031259,2020,CZ_530344,official,TRUE
CZ_530352,14.831323250065475,49.83586185402805,CZ,CZ02,CZ020,530352,Ostředek,399,13.01184643,2020,CZ_530352,official,TRUE
CZ_530361,13.792039846074191,49.81959199542335,CZ,CZ03,CZ032,530361,Kařízek,52,4.50081093,2020,CZ_530361,official,TRUE
CZ_530379,13.722809631184477,49.875909805937816,CZ,CZ03,CZ032,530379,Drahoňův Újezd,127,13.98629799,2020,CZ_530379,official,TRUE
CZ_530387,14.58140404285485,50.75679209191942,CZ,CZ05,CZ051,530387,Radvanec,237,8.88180105,2020,CZ_530387,official,TRUE
CZ_530395,14.371641218719741,50.80729861143241,CZ,CZ04,CZ042,530395,Janská,208,5.40442322,2020,CZ_530395,official,TRUE
CZ_530409,14.752619306417865,49.81048147459987,CZ,CZ02,CZ020,530409,Petroupim,316,9.53467527,2020,CZ_530409,official,TRUE
CZ_530417,14.441309775587708,50.898599761877975,CZ,CZ04,CZ042,530417,Doubice,115,19.36881274,2020,CZ_530417,official,TRUE
CZ_530425,15.193112114976339,50.6851365266273,CZ,CZ05,CZ051,530425,Dalešice,200,2.42541376,2020,CZ_530425,official,TRUE
CZ_530433,15.027909240072788,50.92216432576215,CZ,CZ05,CZ051,530433,Kunratice,365,12.35035933,2020,CZ_530433,official,TRUE
CZ_530441,14.67454965157158,49.841187928271644,CZ,CZ02,CZ020,530441,Poříčí nad Sázavou,1364,9.33673652,2020,CZ_530441,official,TRUE
CZ_530450,14.780566194664184,49.72839459663689,CZ,CZ02,CZ020,530450,Postupice,1363,39.95758364,2020,CZ_530450,official,TRUE
CZ_530468,15.070233042724189,50.71296302908947,CZ,CZ05,CZ051,530468,Dlouhý Most,912,4.44572513,2020,CZ_530468,official,TRUE
CZ_530476,14.93117350622457,49.635524181436345,CZ,CZ02,CZ020,530476,Pravonín,569,19.87650483,2020,CZ_530476,official,TRUE
CZ_530484,15.085302253387296,50.704182629118606,CZ,CZ05,CZ051,530484,Jeřmanice,545,4.377317,2020,CZ_530484,official,TRUE
CZ_530492,14.739254126470641,49.857044624507054,CZ,CZ02,CZ020,530492,Přestavlky u Čerčan,390,6.56039358,2020,CZ_530492,official,TRUE
CZ_530506,14.104743800251036,50.55591127437391,CZ,CZ04,CZ042,530506,Miřejovice,235,1.96202868,2020,CZ_530506,official,TRUE
CZ_530514,14.965010671576595,49.756298280435466,CZ,CZ02,CZ020,530514,Psáře,127,8.28728882,2020,CZ_530514,official,TRUE
CZ_530522,14.450141448116744,49.80444657818861,CZ,CZ02,CZ020,530522,Rabyně,266,15.9899024,2020,CZ_530522,official,TRUE
CZ_530531,14.866009191865315,49.74263956444862,CZ,CZ02,CZ020,530531,Radošovice,385,8.02592492,2020,CZ_530531,official,TRUE
CZ_530549,14.972873128012205,49.70199042540549,CZ,CZ02,CZ020,530549,Rataje,167,4.47819272,2020,CZ_530549,official,TRUE
CZ_530557,13.781812660973015,50.458467836132165,CZ,CZ04,CZ042,530557,Kozly,129,4.40031796,2020,CZ_530557,official,TRUE
CZ_530565,13.878370444205629,50.4635979889413,CZ,CZ04,CZ042,530565,Želkovice,98,2.28193136,2020,CZ_530565,official,TRUE
CZ_530573,14.532909999372617,49.57292190798895,CZ,CZ02,CZ020,530573,Sedlec-Prčice,2866,64.18437337,2020,CZ_530573,official,TRUE
CZ_530581,13.48942410654555,50.30637044694583,CZ,CZ04,CZ042,530581,Čeradice,313,12.65790453,2020,CZ_530581,official,TRUE
CZ_530590,13.506410776859536,50.332843588187416,CZ,CZ04,CZ042,530590,Libočany,554,5.73388763,2020,CZ_530590,official,TRUE
CZ_530603,13.604630797240159,50.325421147640334,CZ,CZ04,CZ042,530603,Zálužice,95,6.07263495,2020,CZ_530603,official,TRUE
CZ_530611,14.618087854084031,49.60084423308637,CZ,CZ02,CZ020,530611,Smilkov,269,11.15400424,2020,CZ_530611,official,TRUE
CZ_530620,13.91356125242053,50.688680871628485,CZ,CZ04,CZ042,530620,Přestanov,438,1.99765527,2020,CZ_530620,official,TRUE
CZ_530638,14.727068369765933,49.822796749267724,CZ,CZ02,CZ020,530638,Soběhrdy,410,10.0933105,2020,CZ_530638,official,TRUE
CZ_530646,15.513206634981742,49.59574424564755,CZ,CZ06,CZ063,530646,Hurtova Lhota,241,3.00448972,2020,CZ_530646,official,TRUE
CZ_530654,15.624206617256165,49.563145062845045,CZ,CZ06,CZ063,530654,Vysoká,241,7.96510207,2020,CZ_530654,official,TRUE
CZ_530662,15.645713409165666,49.627572730845266,CZ,CZ06,CZ063,530662,Ždírec,146,2.51562088,2020,CZ_530662,official,TRUE
CZ_530671,15.625839776561714,50.29244811046605,CZ,CZ05,CZ052,530671,Pšánky,63,2.2701182,2020,CZ_530671,official,TRUE
CZ_530689,14.755559812537506,49.76412909119742,CZ,CZ02,CZ020,530689,Struhařov,927,21.96952814,2020,CZ_530689,official,TRUE
CZ_530697,15.679941453174031,49.92098543074115,CZ,CZ05,CZ053,530697,Úherčice,145,2.87688045,2020,CZ_530697,official,TRUE
CZ_530701,14.61455028713729,49.535307441112174,CZ,CZ02,CZ020,530701,Střezimíř,324,8.18174677,2020,CZ_530701,official,TRUE
CZ_530719,15.129650471867507,49.604844968554765,CZ,CZ02,CZ020,530719,Studený,92,4.41633092,2020,CZ_530719,official,TRUE
CZ_530727,16.96520460326178,49.89410933580739,CZ,CZ07,CZ071,530727,Brníčko,663,8.4368249,2020,CZ_530727,official,TRUE
CZ_530735,15.214245635654445,50.38619767069456,CZ,CZ05,CZ052,530735,Staré Hrady,182,3.89712374,2020,CZ_530735,official,TRUE
CZ_530743,14.858675024019151,49.76084082771238,CZ,CZ02,CZ020,530743,Bílkovice,218,5.76541475,2020,CZ_530743,official,TRUE
CZ_530751,14.958415622465415,49.73510801154702,CZ,CZ02,CZ020,530751,Tehov,355,10.04433576,2020,CZ_530751,official,TRUE
CZ_530760,14.802048488577942,49.80704935563705,CZ,CZ02,CZ020,530760,Teplýšovice,529,10.55504545,2020,CZ_530760,official,TRUE
CZ_530778,14.999106569825262,49.76880967348389,CZ,CZ02,CZ020,530778,Tichonice,210,9.95466699,2020,CZ_530778,official,TRUE
CZ_530786,16.017527798962647,50.38155288629335,CZ,CZ05,CZ052,530786,Říkov,227,2.46250101,2020,CZ_530786,official,TRUE
CZ_530794,15.457041298398984,50.03111867981839,CZ,CZ05,CZ053,530794,Trnávka,229,3.63356818,2020,CZ_530794,official,TRUE
CZ_530808,15.96997914213633,50.67638252563862,CZ,CZ05,CZ052,530808,Královec,192,9.96717583,2020,CZ_530808,official,TRUE
CZ_530816,15.016483724219771,49.71049015769669,CZ,CZ02,CZ020,530816,Trhový Štěpánov,1401,29.00508751,2020,CZ_530816,official,TRUE
CZ_530824,16.73838876075996,49.48305286408416,CZ,CZ06,CZ064,530824,Velenov,261,7.50641546,2020,CZ_530824,official,TRUE
CZ_530832,15.474505017823667,49.97630342367215,CZ,CZ02,CZ020,530832,Brambory,115,1.25283748,2020,CZ_530832,official,TRUE
CZ_530841,14.5886880750237,49.835251519007606,CZ,CZ02,CZ020,530841,Týnec nad Sázavou,5739,25.49168733,2020,CZ_530841,official,TRUE
CZ_530859,15.516027357643024,49.95697217172245,CZ,CZ02,CZ020,530859,Semtěš,272,5.01011351,2020,CZ_530859,official,TRUE
CZ_530867,14.813063226330733,49.675215332558864,CZ,CZ02,CZ020,530867,Veliš,334,12.25341725,2020,CZ_530867,official,TRUE
CZ_530875,15.501578012772505,49.93864281796728,CZ,CZ02,CZ020,530875,Starkoč,132,4.16051051,2020,CZ_530875,official,TRUE
CZ_530883,14.897001525635298,49.70483173915087,CZ,CZ02,CZ020,530883,Vlašim,11550,41.39086978,2020,CZ_530883,official,TRUE
CZ_530891,14.525576307824707,49.65561155525159,CZ,CZ02,CZ020,530891,Vojkov,480,15.58055231,2020,CZ_530891,official,TRUE
CZ_530905,14.634880523637255,49.64046833440801,CZ,CZ02,CZ020,530905,Votice,4569,36.49312207,2020,CZ_530905,official,TRUE
CZ_530913,14.940188889042822,49.658480769853604,CZ,CZ02,CZ020,530913,Vracovice,395,10.96997359,2020,CZ_530913,official,TRUE
CZ_530921,14.7753767075797,49.852744193138854,CZ,CZ02,CZ020,530921,Vranov,418,9.43251144,2020,CZ_530921,official,TRUE
CZ_530930,15.209641672040323,49.8267441133344,CZ,CZ02,CZ020,530930,Štipoklasy,150,3.80236932,2020,CZ_530930,official,TRUE
CZ_530948,14.580311128593973,49.664756724708724,CZ,CZ02,CZ020,530948,Vrchotovy Janovice,1024,23.07179351,2020,CZ_530948,official,TRUE
CZ_530956,15.252074702285007,49.85137964066695,CZ,CZ02,CZ020,530956,Opatovice I,139,6.3596367,2020,CZ_530956,official,TRUE
CZ_530964,15.24965791213198,49.80658391065485,CZ,CZ02,CZ020,530964,Bludov,25,2.0401032,2020,CZ_530964,official,TRUE
CZ_530972,15.272805897740904,49.77343522312424,CZ,CZ02,CZ020,530972,Třebětín,111,12.41318084,2020,CZ_530972,official,TRUE
CZ_530981,15.339343627726437,49.92916147725213,CZ,CZ02,CZ020,530981,Třebešice,279,7.19267833,2020,CZ_530981,official,TRUE
CZ_530999,15.344662988527466,49.90792633982396,CZ,CZ02,CZ020,530999,Močovice,405,4.90217695,2020,CZ_530999,official,TRUE
CZ_531006,16.73383816828343,49.45730420597729,CZ,CZ06,CZ064,531006,Ludíkov,337,4.03016931,2020,CZ_531006,official,TRUE
CZ_531014,15.337087276316034,49.89508184245816,CZ,CZ02,CZ020,531014,Vodranty,87,1.60390647,2020,CZ_531014,official,TRUE
CZ_531022,14.971398193416796,49.684157614967944,CZ,CZ02,CZ020,531022,Zdislavice,533,6.78368853,2020,CZ_531022,official,TRUE
CZ_531031,14.838055361136465,49.59996664372402,CZ,CZ02,CZ020,531031,Kamberk,140,11.28036777,2020,CZ_531031,official,TRUE
CZ_531049,14.804986639008407,49.6292300061383,CZ,CZ02,CZ020,531049,Zvěstov,351,22.39179135,2020,CZ_531049,official,TRUE
CZ_531057,14.060143193721267,49.960607620072025,CZ,CZ02,CZ020,531057,Beroun,19641,31.18209067,2020,CZ_531057,official,TRUE
CZ_531065,15.313241368081323,49.88371686295493,CZ,CZ02,CZ020,531065,Souňov,140,2.69713085,2020,CZ_531065,official,TRUE
CZ_531073,14.021270551064715,49.80329929495937,CZ,CZ02,CZ020,531073,Běštín,320,3.00910752,2020,CZ_531073,official,TRUE
CZ_531081,13.854200740203563,49.95282070658903,CZ,CZ02,CZ020,531081,Broumy,974,28.63545085,2020,CZ_531081,official,TRUE
CZ_531090,13.879892063000907,49.9067169308936,CZ,CZ02,CZ020,531090,Březová,345,4.6089917,2020,CZ_531090,official,TRUE
CZ_531103,14.162870516325238,49.969147171375475,CZ,CZ02,CZ020,531103,Bubovice,546,4.07543765,2020,CZ_531103,official,TRUE
CZ_531111,15.397558191953339,50.015845458148,CZ,CZ02,CZ020,531111,Bernardov,190,3.49003902,2020,CZ_531111,official,TRUE
CZ_531120,13.864152110737281,49.89810308306789,CZ,CZ02,CZ020,531120,Bzová,448,11.2430872,2020,CZ_531120,official,TRUE
CZ_531138,13.832296371153744,49.85114525501719,CZ,CZ02,CZ020,531138,Cerhovice,1154,8.08817285,2020,CZ_531138,official,TRUE
CZ_531146,14.203949487148844,50.03022812868476,CZ,CZ02,CZ020,531146,Drahelčice,1142,4.6971566,2020,CZ_531146,official,TRUE
CZ_531154,13.833904135794347,49.863034678194595,CZ,CZ02,CZ020,531154,Drozdov,776,9.94118851,2020,CZ_531154,official,TRUE
CZ_531162,13.940709008879807,49.81459899965089,CZ,CZ02,CZ020,531162,Felbabka,287,1.69838073,2020,CZ_531162,official,TRUE
CZ_531171,14.208100013540596,49.922085219515196,CZ,CZ02,CZ020,531171,Hlásná Třebaň,1083,4.05363523,2020,CZ_531171,official,TRUE
CZ_531189,13.903417899278125,49.83543640738946,CZ,CZ02,CZ020,531189,Hořovice,6901,9.56439157,2020,CZ_531189,official,TRUE
CZ_531197,15.29621152941222,49.98491911782197,CZ,CZ02,CZ020,531197,Hlízov,614,6.00930836,2020,CZ_531197,official,TRUE
CZ_531201,14.042195341022865,49.824562070418864,CZ,CZ02,CZ020,531201,Hostomice,1832,28.23310529,2020,CZ_531201,official,TRUE
CZ_531219,13.91962475538488,49.90489911376236,CZ,CZ02,CZ020,531219,Hředle,391,12.25961313,2020,CZ_531219,official,TRUE
CZ_531227,13.968885408547644,49.960068248331154,CZ,CZ02,CZ020,531227,Hudlice,1225,20.69571904,2020,CZ_531227,official,TRUE
CZ_531235,13.875518012709277,49.80285716972,CZ,CZ02,CZ020,531235,Hvozdec,252,4.450416,2020,CZ_531235,official,TRUE
CZ_531243,14.046743033156629,49.99095861382208,CZ,CZ02,CZ020,531243,Hýskov,1951,6.34493739,2020,CZ_531243,official,TRUE
CZ_531251,13.870343939644101,49.79244883744018,CZ,CZ02,CZ020,531251,Chaloupky,506,6.63434208,2020,CZ_531251,official,TRUE
CZ_531260,15.129299615125834,49.74223756983532,CZ,CZ02,CZ020,531260,Dolní Pohleď,93,3.59236857,2020,CZ_531260,official,TRUE
CZ_531278,15.307431170109194,49.839815857906316,CZ,CZ02,CZ020,531278,Paběnice,201,5.95254631,2020,CZ_531278,official,TRUE
CZ_531286,15.432155443424287,49.85201014797575,CZ,CZ02,CZ020,531286,Bratčice,380,8.29767166,2020,CZ_531286,official,TRUE
CZ_531294,14.073949030256484,50.025987760307395,CZ,CZ02,CZ020,531294,Chyňava,1851,38.00451878,2020,CZ_531294,official,TRUE
CZ_531308,13.83681421903237,49.79328880800136,CZ,CZ02,CZ020,531308,Jivina,194,4.64052923,2020,CZ_531308,official,TRUE
CZ_531316,14.179789908078702,49.9346111288195,CZ,CZ02,CZ020,531316,Karlštejn,861,12.09668822,2020,CZ_531316,official,TRUE
CZ_531324,13.856690365148845,49.8082828598661,CZ,CZ02,CZ020,531324,Komárov,2430,6.03160437,2020,CZ_531324,official,TRUE
CZ_531332,14.063195618793314,49.920437789818166,CZ,CZ02,CZ020,531332,Koněprusy,253,6.0744318,2020,CZ_531332,official,TRUE
CZ_531341,15.410894680594643,49.88933307375759,CZ,CZ02,CZ020,531341,Drobovice,411,2.83212075,2020,CZ_531341,official,TRUE
CZ_531359,15.436973680664392,49.869821248930606,CZ,CZ02,CZ020,531359,Horky,395,2.36492241,2020,CZ_531359,official,TRUE
CZ_531367,15.407258277923427,49.85658300533026,CZ,CZ02,CZ020,531367,Adamov,125,2.79018279,2020,CZ_531367,official,TRUE
CZ_531375,13.876250589745938,49.94287179429714,CZ,CZ02,CZ020,531375,Kublov,671,6.22943046,2020,CZ_531375,official,TRUE
CZ_531383,15.370704013140376,49.86180296751463,CZ,CZ02,CZ020,531383,Schořov,79,1.41955877,2020,CZ_531383,official,TRUE
CZ_531391,15.100962545808377,49.85840072546618,CZ,CZ02,CZ020,531391,Sudějov,86,3.90872454,2020,CZ_531391,official,TRUE
CZ_531405,15.38195125450881,50.00761087712517,CZ,CZ02,CZ020,531405,Kobylnice,202,2.3693749,2020,CZ_531405,official,TRUE
CZ_531413,15.337618147521955,49.854965726111395,CZ,CZ02,CZ020,531413,Hraběšín,101,8.02084503,2020,CZ_531413,official,TRUE
CZ_531421,15.362651794421195,49.82829861579359,CZ,CZ02,CZ020,531421,Šebestěnice,86,3.30509296,2020,CZ_531421,official,TRUE
CZ_531430,15.431694611597003,49.98117304320008,CZ,CZ02,CZ020,531430,Horka I,389,6.94765701,2020,CZ_531430,official,TRUE
CZ_531448,14.00017624607228,49.87400500306229,CZ,CZ02,CZ020,531448,Libomyšl,605,9.69386398,2020,CZ_531448,official,TRUE
CZ_531456,14.152895364875668,49.90484548335889,CZ,CZ02,CZ020,531456,Liteň,1197,12.8361256,2020,CZ_531456,official,TRUE
CZ_531464,14.158855779963064,49.995319506648016,CZ,CZ02,CZ020,531464,Loděnice,1991,6.04154432,2020,CZ_531464,official,TRUE
CZ_531472,13.98224040357487,49.84917621151918,CZ,CZ02,CZ020,531472,Lochovice,1286,13.1756543,2020,CZ_531472,official,TRUE
CZ_531481,15.4221736672308,49.99660266281986,CZ,CZ02,CZ020,531481,Horušice,176,8.45918658,2020,CZ_531481,official,TRUE
CZ_531499,14.589463251651596,50.339542237580915,CZ,CZ02,CZ020,531499,Hostín,319,6.3205969,2020,CZ_531499,official,TRUE
CZ_531502,14.590027525114525,50.312607629709895,CZ,CZ02,CZ020,531502,Liblice,495,8.93649233,2020,CZ_531502,official,TRUE
CZ_531511,14.354882532832972,50.22928204032373,CZ,CZ02,CZ020,531511,Zlončice,576,4.65845215,2020,CZ_531511,official,TRUE
CZ_531529,14.11527486203928,49.90792709369587,CZ,CZ02,CZ020,531529,Měňany,309,8.17522517,2020,CZ_531529,official,TRUE
CZ_531537,14.209869254956534,50.003045086070735,CZ,CZ02,CZ020,531537,Mezouň,581,3.04381768,2020,CZ_531537,official,TRUE
CZ_531545,14.209363793535742,49.95327380383759,CZ,CZ02,CZ020,531545,Mořina,836,9.89480141,2020,CZ_531545,official,TRUE
CZ_531553,14.653401426269625,50.27391540235669,CZ,CZ02,CZ020,531553,Konětopy,315,3.05746815,2020,CZ_531553,official,TRUE
CZ_531561,14.516017356955858,50.297533912431675,CZ,CZ02,CZ020,531561,Tuhaň,777,4.60127618,2020,CZ_531561,official,TRUE
CZ_531570,14.568221755959321,50.467546895496476,CZ,CZ02,CZ020,531570,Dobřeň,177,20.61851294,2020,CZ_531570,official,TRUE
CZ_531588,14.03832458395984,49.85445203176258,CZ,CZ02,CZ020,531588,Neumětely,589,9.36146735,2020,CZ_531588,official,TRUE
CZ_531596,13.999692222556348,50.00235816437839,CZ,CZ02,CZ020,531596,Nižbor,2082,28.17378322,2020,CZ_531596,official,TRUE
CZ_531600,13.941378291218857,49.97798817039156,CZ,CZ02,CZ020,531600,Nový Jáchymov,695,4.93072573,2020,CZ_531600,official,TRUE
CZ_531618,14.227809910477053,50.02014009195589,CZ,CZ02,CZ020,531618,Nučice,2248,5.8060671,2020,CZ_531618,official,TRUE
CZ_531626,13.812747968756057,49.7801241045464,CZ,CZ02,CZ020,531626,Olešná,428,10.63405136,2020,CZ_531626,official,TRUE
CZ_531634,13.860676886018918,49.819337806700425,CZ,CZ02,CZ020,531634,Osek,805,5.06155511,2020,CZ_531634,official,TRUE
CZ_531642,14.08339142394386,49.845762501857,CZ,CZ02,CZ020,531642,Osov,328,2.46400362,2020,CZ_531642,official,TRUE
CZ_531651,14.597424079450867,50.42093581980183,CZ,CZ02,CZ020,531651,Kanina,90,5.28877522,2020,CZ_531651,official,TRUE
CZ_531669,13.974178215762565,49.982498936868815,CZ,CZ02,CZ020,531669,Otročiněves,517,4.27537733,2020,CZ_531669,official,TRUE
CZ_531677,14.671752870673558,50.4623155914261,CZ,CZ02,CZ020,531677,Lobeč,149,3.54968749,2020,CZ_531677,official,TRUE
CZ_531685,13.912912673693308,49.81517850872136,CZ,CZ02,CZ020,531685,Podluhy,669,16.70422993,2020,CZ_531685,official,TRUE
CZ_531693,13.931264155632844,49.868378266810936,CZ,CZ02,CZ020,531693,Praskolesy,908,5.14863534,2020,CZ_531693,official,TRUE
CZ_531707,14.670678072336342,50.4717469323727,CZ,CZ02,CZ020,531707,Nosálov,183,11.04774028,2020,CZ_531707,official,TRUE
CZ_531715,13.941738989070927,49.82703194113493,CZ,CZ02,CZ020,531715,Rpety,487,5.91295665,2020,CZ_531715,official,TRUE
CZ_531723,14.224681778374704,50.030744544018305,CZ,CZ02,CZ020,531723,Rudná,5153,8.3350799,2020,CZ_531723,official,TRUE
CZ_531731,14.66096301505749,50.419948954446056,CZ,CZ02,CZ020,531731,Stránka,198,8.69374897,2020,CZ_531731,official,TRUE
CZ_531740,14.158820141894537,49.87733764328251,CZ,CZ02,CZ020,531740,Skuhrov,540,8.71349496,2020,CZ_531740,official,TRUE
CZ_531758,14.134562755242717,49.935849920288376,CZ,CZ02,CZ020,531758,Srbsko,558,6.57849455,2020,CZ_531758,official,TRUE
CZ_531766,13.960572901945518,49.8858435423892,CZ,CZ02,CZ020,531766,Stašov,450,2.30418651,2020,CZ_531766,official,TRUE
CZ_531774,14.694089724575115,50.3984830159814,CZ,CZ02,CZ020,531774,Kadlín,146,6.83925141,2020,CZ_531774,official,TRUE
CZ_531782,14.058487696541416,49.89578056421997,CZ,CZ02,CZ020,531782,Suchomasty,483,7.29449828,2020,CZ_531782,official,TRUE
CZ_531791,13.964147996090318,49.93981701106792,CZ,CZ02,CZ020,531791,Svatá,523,5.48781525,2020,CZ_531791,official,TRUE
CZ_531804,14.130976121283947,49.97371740455374,CZ,CZ02,CZ020,531804,Svatý Jan pod Skalou,180,4.03980362,2020,CZ_531804,official,TRUE
CZ_531812,14.186596799806447,49.89011781600059,CZ,CZ02,CZ020,531812,Svinaře,815,7.44494659,2020,CZ_531812,official,TRUE
CZ_531821,14.237936233500987,50.01191216143929,CZ,CZ02,CZ020,531821,Tachlovice,886,6.41338037,2020,CZ_531821,official,TRUE
CZ_531839,14.105497869920917,49.943974237679825,CZ,CZ02,CZ020,531839,Tetín,879,10.33489441,2020,CZ_531839,official,TRUE
CZ_531847,13.88731937047056,49.84966344819959,CZ,CZ02,CZ020,531847,Tlustice,1057,4.10866782,2020,CZ_531847,official,TRUE
CZ_531855,14.03197010192905,49.910198074258275,CZ,CZ02,CZ020,531855,Tmaň,1240,10.03576247,2020,CZ_531855,official,TRUE
CZ_531863,14.610026145889687,50.25767359885964,CZ,CZ02,CZ020,531863,Nedomice,311,3.20082705,2020,CZ_531863,official,TRUE
CZ_531871,14.336524139625078,50.34352154471211,CZ,CZ02,CZ020,531871,Jeviněves,226,5.13114046,2020,CZ_531871,official,TRUE
CZ_531880,13.996103412358249,49.95385387721336,CZ,CZ02,CZ020,531880,Trubská,185,1.83104699,2020,CZ_531880,official,TRUE
CZ_531898,14.555753613316892,50.3683222717059,CZ,CZ02,CZ020,531898,Lhotka,294,5.3239253,2020,CZ_531898,official,TRUE
CZ_531901,13.831661212677597,49.82755618816755,CZ,CZ02,CZ020,531901,Újezd,669,10.42874604,2020,CZ_531901,official,TRUE
CZ_531910,14.082043564437257,49.823923212776734,CZ,CZ02,CZ020,531910,Velký Chlumec,406,4.52244329,2020,CZ_531910,official,TRUE
CZ_531928,14.395197847547191,50.2938483149203,CZ,CZ02,CZ020,531928,Hostín u Vojkovic,332,4.75647732,2020,CZ_531928,official,TRUE
CZ_531936,14.531044845012454,50.467939433566436,CZ,CZ02,CZ020,531936,Vidim,122,8.70377684,2020,CZ_531936,official,TRUE
CZ_531944,14.129709820276338,49.98419252830619,CZ,CZ02,CZ020,531944,Vráž,1193,6.42687459,2020,CZ_531944,official,TRUE
CZ_531952,14.104873884014944,49.87176943267577,CZ,CZ02,CZ020,531952,Všeradice,447,7.40943621,2020,CZ_531952,official,TRUE
CZ_531961,14.209013636653609,49.99325688572424,CZ,CZ02,CZ020,531961,Vysoký Újezd,1006,11.50272954,2020,CZ_531961,official,TRUE
CZ_531979,14.210125333278748,49.913933542753256,CZ,CZ02,CZ020,531979,Zadní Třebaň,914,3.54685675,2020,CZ_531979,official,TRUE
CZ_531987,14.499170446821918,50.42619325520439,CZ,CZ02,CZ020,531987,Dolní Zimoř,96,1.64636681,2020,CZ_531987,official,TRUE
CZ_531995,13.841538511377586,49.77004883156848,CZ,CZ02,CZ020,531995,Zaječov,1436,22.21254096,2020,CZ_531995,official,TRUE
CZ_532002,13.860075892183296,49.84394218410678,CZ,CZ02,CZ020,532002,Záluží,533,4.56254622,2020,CZ_532002,official,TRUE
CZ_532011,13.976552152102935,49.9127949628975,CZ,CZ02,CZ020,532011,Zdice,4201,13.8770743,2020,CZ_532011,official,TRUE
CZ_532029,13.892737229011367,49.87818402365027,CZ,CZ02,CZ020,532029,Žebrák,2186,8.48744877,2020,CZ_532029,official,TRUE
CZ_532037,14.578439788863056,49.78953543734309,CZ,CZ02,CZ020,532037,Chrášťany,235,11.51539331,2020,CZ_532037,official,TRUE
CZ_532045,14.65091181464323,49.79807076980694,CZ,CZ02,CZ020,532045,Chlístov,377,2.92319822,2020,CZ_532045,official,TRUE
CZ_532053,14.112677176421318,50.13625651843224,CZ,CZ02,CZ020,532053,Kladno,69337,37.00005547,2020,CZ_532053,official,TRUE
CZ_532061,14.61571921907952,49.78909532190277,CZ,CZ02,CZ020,532061,Václavice,597,8.22605025,2020,CZ_532061,official,TRUE
CZ_532070,14.218601798093417,50.12903824239261,CZ,CZ02,CZ020,532070,Běloky,184,2.24128594,2020,CZ_532070,official,TRUE
CZ_532088,14.116599987429277,50.267502581391426,CZ,CZ02,CZ020,532088,Beřovice,381,5.71489135,2020,CZ_532088,official,TRUE
CZ_532096,15.021201252266813,49.6458267304853,CZ,CZ02,CZ020,532096,Borovnice,86,3.06933208,2020,CZ_532096,official,TRUE
CZ_532100,14.239451481869054,50.20848742403867,CZ,CZ02,CZ020,532100,Blevice,288,4.24509002,2020,CZ_532100,official,TRUE
CZ_532118,14.15705170532417,50.18572617115434,CZ,CZ02,CZ020,532118,Brandýsek,1997,3.85400516,2020,CZ_532118,official,TRUE
CZ_532126,14.094094711371937,50.09880575655381,CZ,CZ02,CZ020,532126,Braškov,1096,4.74995541,2020,CZ_532126,official,TRUE
CZ_532134,14.609175963735979,49.58262770855469,CZ,CZ02,CZ020,532134,Ješetice,127,7.29099521,2020,CZ_532134,official,TRUE
CZ_532142,14.021430101941887,50.070488238254036,CZ,CZ02,CZ020,532142,Bratronice,923,15.64792153,2020,CZ_532142,official,TRUE
CZ_532151,14.902374552439637,49.82234334818746,CZ,CZ02,CZ020,532151,Drahňovice,103,8.08302616,2020,CZ_532151,official,TRUE
CZ_532169,14.189878265266902,50.155036180615106,CZ,CZ02,CZ020,532169,Buštěhrad,3498,7.5836073,2020,CZ_532169,official,TRUE
CZ_532177,14.031488963547082,50.23451974067236,CZ,CZ02,CZ020,532177,Tuřany,615,3.55756921,2020,CZ_532177,official,TRUE
CZ_532185,14.155120249073219,50.178584602136624,CZ,CZ02,CZ020,532185,Cvrčovice,768,2.46547075,2020,CZ_532185,official,TRUE
CZ_532193,14.713736250915252,49.86044730710907,CZ,CZ02,CZ020,532193,Lštění,426,4.76198729,2020,CZ_532193,official,TRUE
CZ_532207,14.209378091826082,50.3004898182846,CZ,CZ02,CZ020,532207,Černuc,960,21.17134851,2020,CZ_532207,official,TRUE
CZ_532215,14.162484192490192,50.068154176429864,CZ,CZ02,CZ020,532215,Červený Újezd,1434,5.35186066,2020,CZ_532215,official,TRUE
CZ_532223,14.048334142361867,50.11722747195695,CZ,CZ02,CZ020,532223,Doksy,1698,2.92538063,2020,CZ_532223,official,TRUE
CZ_532231,14.878342327156453,49.76006822599192,CZ,CZ02,CZ020,532231,Slověnice,36,2.97782463,2020,CZ_532231,official,TRUE
CZ_532258,14.855912849142758,49.779078714536155,CZ,CZ02,CZ020,532258,Litichovice,66,1.91274966,2020,CZ_532258,official,TRUE
CZ_532266,14.911411537244783,49.7766563692172,CZ,CZ02,CZ020,532266,Všechlapy,107,5.59056168,2020,CZ_532266,official,TRUE
CZ_532274,14.048423663071723,50.10478607630357,CZ,CZ02,CZ020,532274,Družec,1078,7.14864522,2020,CZ_532274,official,TRUE
CZ_532282,14.208979357680738,50.18278509673109,CZ,CZ02,CZ020,532282,Dřetovice,471,5.4138738,2020,CZ_532282,official,TRUE
CZ_532291,14.070727941460216,50.27765009724282,CZ,CZ02,CZ020,532291,Dřínov,322,6.5550473,2020,CZ_532291,official,TRUE
CZ_532304,14.827902050323472,49.77775959753805,CZ,CZ02,CZ020,532304,Třebešice,94,4.18655102,2020,CZ_532304,official,TRUE
CZ_532312,14.070473285858625,50.079973786118295,CZ,CZ02,CZ020,532312,Horní Bezděkov,678,4.61188881,2020,CZ_532312,official,TRUE
CZ_532321,13.964348581382922,50.2728419724813,CZ,CZ02,CZ020,532321,Hořešovice,256,4.36811846,2020,CZ_532321,official,TRUE
CZ_532339,14.172706783275862,50.303699833628386,CZ,CZ02,CZ020,532339,Hospozín,536,8.1177687,2020,CZ_532339,official,TRUE
CZ_532347,14.20303807229452,50.11137581247901,CZ,CZ02,CZ020,532347,Hostouň,1359,10.34341342,2020,CZ_532347,official,TRUE
CZ_532355,13.986619439959114,50.1882392964987,CZ,CZ02,CZ020,532355,Hradečno,487,6.8261186,2020,CZ_532355,official,TRUE
CZ_532363,14.070605189957334,50.19714301878846,CZ,CZ02,CZ020,532363,Hrdlív,497,1.72080858,2020,CZ_532363,official,TRUE
CZ_532371,14.162660354344313,50.138248353841675,CZ,CZ02,CZ020,532371,Hřebeč,2090,4.23478134,2020,CZ_532371,official,TRUE
CZ_532380,15.200347001229343,49.6195947554598,CZ,CZ02,CZ020,532380,Blažejovice,111,4.65196914,2020,CZ_532380,official,TRUE
CZ_532398,14.258887326930505,50.2992284908698,CZ,CZ02,CZ020,532398,Chržín,261,8.73277259,2020,CZ_532398,official,TRUE
CZ_532401,14.082772050697033,50.32259446163391,CZ,CZ02,CZ020,532401,Jarpice,289,7.11307159,2020,CZ_532401,official,TRUE
CZ_532410,13.975060744472604,50.23497536959713,CZ,CZ02,CZ020,532410,Jedomělice,417,7.13407343,2020,CZ_532410,official,TRUE
CZ_532428,14.116540021116606,50.20639476151304,CZ,CZ02,CZ020,532428,Jemníky,281,2.91144002,2020,CZ_532428,official,TRUE
CZ_532436,15.229186744849544,49.62743196002831,CZ,CZ02,CZ020,532436,Snět,112,6.01557778,2020,CZ_532436,official,TRUE
CZ_532444,13.984040215555117,50.164157578977324,CZ,CZ02,CZ020,532444,Kačice,1225,6.48171799,2020,CZ_532444,official,TRUE
CZ_532452,14.02279220644775,50.12668112240601,CZ,CZ02,CZ020,532452,Kamenné Žehrovice,1728,9.17958377,2020,CZ_532452,official,TRUE
CZ_532461,13.992527800235377,50.29207407591746,CZ,CZ02,CZ020,532461,Klobuky,1015,15.90707007,2020,CZ_532461,official,TRUE
CZ_532479,14.15498112591506,50.30914632303326,CZ,CZ02,CZ020,532479,Kmetiněves,294,6.75787471,2020,CZ_532479,official,TRUE
CZ_532487,14.141349645883247,50.21258246146044,CZ,CZ02,CZ020,532487,Knovíz,580,4.21748887,2020,CZ_532487,official,TRUE
CZ_532495,14.225323969113173,50.20046680505398,CZ,CZ02,CZ020,532495,Koleč,577,5.17426478,2020,CZ_532495,official,TRUE
CZ_532509,15.223746613623176,49.64105971293723,CZ,CZ02,CZ020,532509,Šetějovice,58,6.09223845,2020,CZ_532509,official,TRUE
CZ_532517,13.996783295024255,50.256919043768356,CZ,CZ02,CZ020,532517,Kvílice,84,1.95429391,2020,CZ_532517,official,TRUE
CZ_532525,14.110719294426557,50.08783900517417,CZ,CZ02,CZ020,532525,Kyšice,636,4.82570787,2020,CZ_532525,official,TRUE
CZ_532533,14.003955521979805,50.19584315349156,CZ,CZ02,CZ020,532533,Ledce,493,5.51493417,2020,CZ_532533,official,TRUE
CZ_532541,15.16963799197438,49.64681743481973,CZ,CZ02,CZ020,532541,Tomice,138,7.25207701,2020,CZ_532541,official,TRUE
CZ_532550,14.759209576054978,49.64448604073315,CZ,CZ02,CZ020,532550,Ratměřice,303,9.55578895,2020,CZ_532550,official,TRUE
CZ_532568,15.125109367839082,49.67710433970219,CZ,CZ02,CZ020,532568,Bernartice,234,10.15491034,2020,CZ_532568,official,TRUE
CZ_532576,14.055250170583726,50.169009034150854,CZ,CZ02,CZ020,532576,Libušín,3394,9.40266436,2020,CZ_532576,official,TRUE
CZ_532584,14.186156730068141,50.143956960734016,CZ,CZ02,CZ020,532584,Lidice,579,4.75710762,2020,CZ_532584,official,TRUE
CZ_532592,14.603282332438388,49.753594251688476,CZ,CZ02,CZ020,532592,Tisem,230,3.44846042,2020,CZ_532592,official,TRUE
CZ_532606,14.876147022475209,49.84126265100547,CZ,CZ02,CZ020,532606,Choratice,72,4.48674821,2020,CZ_532606,official,TRUE
CZ_532614,14.834997454635781,49.846416523259514,CZ,CZ02,CZ020,532614,Vodslivy,98,4.67420145,2020,CZ_532614,official,TRUE
CZ_532622,14.221089547576058,50.144633932905954,CZ,CZ02,CZ020,532622,Makotřasy,493,4.36740408,2020,CZ_532622,official,TRUE
CZ_532631,14.086486295145832,50.06157714783017,CZ,CZ02,CZ020,532631,Malé Kyšice,510,4.20883576,2020,CZ_532631,official,TRUE
CZ_532649,14.751067059408111,49.69489380218538,CZ,CZ02,CZ020,532649,Popovice,277,11.81396439,2020,CZ_532649,official,TRUE
CZ_532657,13.98368561826629,50.21186855263121,CZ,CZ02,CZ020,532657,Malíkovice,378,6.26558392,2020,CZ_532657,official,TRUE
CZ_532665,14.215485176221591,50.24495220096258,CZ,CZ02,CZ020,532665,Neuměřice,446,5.59883441,2020,CZ_532665,official,TRUE
CZ_532673,14.242241284581539,50.2358919037933,CZ,CZ02,CZ020,532673,Olovnice,545,5.84259432,2020,CZ_532673,official,TRUE
CZ_532681,14.268622782434207,50.20968376370901,CZ,CZ02,CZ020,532681,Otvovice,826,6.09281224,2020,CZ_532681,official,TRUE
CZ_532690,14.907559039792432,49.73858242986394,CZ,CZ02,CZ020,532690,Ctiboř,150,3.91921061,2020,CZ_532690,official,TRUE
CZ_532711,14.16962592271365,50.09527782911726,CZ,CZ02,CZ020,532711,Pavlov,203,1.5887575,2020,CZ_532711,official,TRUE
CZ_532720,14.113082402582753,50.19086070146962,CZ,CZ02,CZ020,532720,Pchery,1930,6.75658939,2020,CZ_532720,official,TRUE
CZ_532738,14.108083857022779,50.106307469333785,CZ,CZ02,CZ020,532738,Pletený Újezd,590,1.63671407,2020,CZ_532738,official,TRUE
CZ_532746,15.145620648694326,49.6220950441458,CZ,CZ02,CZ020,532746,Děkanovice,63,4.0792611,2020,CZ_532746,official,TRUE
CZ_532754,14.157538745717321,50.22137920017821,CZ,CZ02,CZ020,532754,Podlešín,331,4.20333198,2020,CZ_532754,official,TRUE
CZ_532762,13.937779933372944,50.243066323938805,CZ,CZ02,CZ020,532762,Pozdeň,471,11.78389417,2020,CZ_532762,official,TRUE
CZ_532771,14.043436350979222,50.20715206662126,CZ,CZ02,CZ020,532771,Přelíc,389,3.77631584,2020,CZ_532771,official,TRUE
CZ_532789,14.167661336178806,50.05216425218142,CZ,CZ02,CZ020,532789,Ptice,907,7.75932259,2020,CZ_532789,official,TRUE
CZ_532797,14.002621537001588,50.21741852174896,CZ,CZ02,CZ020,532797,Řisuty,364,6.07976785,2020,CZ_532797,official,TRUE
CZ_532801,14.290684119104304,50.30608606402931,CZ,CZ02,CZ020,532801,Sazená,326,6.75289887,2020,CZ_532801,official,TRUE
CZ_532819,14.078658419307079,50.2321675120045,CZ,CZ02,CZ020,532819,Slaný,15864,35.07383445,2020,CZ_532819,official,TRUE
CZ_532827,14.222084903085436,50.22442365599686,CZ,CZ02,CZ020,532827,Slatina,631,5.22648404,2020,CZ_532827,official,TRUE
CZ_532835,14.041819736939408,50.18913318324722,CZ,CZ02,CZ020,532835,Smečno,1964,9.55486545,2020,CZ_532835,official,TRUE
CZ_532843,15.157286206387978,49.603559412891855,CZ,CZ02,CZ020,532843,Dunice,63,3.56100359,2020,CZ_532843,official,TRUE
CZ_532851,14.193670460791726,50.17389524350312,CZ,CZ02,CZ020,532851,Stehelčeves,1029,4.9546168,2020,CZ_532851,official,TRUE
CZ_532860,13.954580853383819,50.14726480984608,CZ,CZ02,CZ020,532860,Stochov,5392,9.54536976,2020,CZ_532860,official,TRUE
CZ_532878,14.554475355271299,49.82767151008279,CZ,CZ02,CZ020,532878,Chleby,51,2.35175592,2020,CZ_532878,official,TRUE
CZ_532886,14.581470815619781,49.81904117604776,CZ,CZ02,CZ020,532886,Chářovice,217,4.19909789,2020,CZ_532886,official,TRUE
CZ_532894,16.83536205532884,49.97467989459077,CZ,CZ07,CZ071,532894,Bušín,387,8.62504978,2020,CZ_532894,official,TRUE
CZ_532908,14.05439199795638,50.178011898490254,CZ,CZ02,CZ020,532908,Svinařov,722,1.9475581,2020,CZ_532908,official,TRUE
CZ_532916,14.10816320799677,50.31399002775288,CZ,CZ02,CZ020,532916,Šlapanice,183,6.88336568,2020,CZ_532916,official,TRUE
CZ_532924,14.617380092468164,49.825840793894855,CZ,CZ02,CZ020,532924,Bukovany,773,7.4289782,2020,CZ_532924,official,TRUE
CZ_532932,14.840776570390194,49.68694377798836,CZ,CZ02,CZ020,532932,Hradiště,23,2.51034382,2020,CZ_532932,official,TRUE
CZ_532941,14.944658327519477,49.69416584105286,CZ,CZ02,CZ020,532941,Řimovice,236,3.30014395,2020,CZ_532941,official,TRUE
CZ_532959,14.073383399608247,50.189374056537794,CZ,CZ02,CZ020,532959,Třebichovice,584,3.85962764,2020,CZ_532959,official,TRUE
CZ_532967,13.992701012102135,50.271861636368506,CZ,CZ02,CZ020,532967,Třebíz,233,4.8789848,2020,CZ_532967,official,TRUE
CZ_532975,14.182620319839822,50.20182656766435,CZ,CZ02,CZ020,532975,Třebusice,511,4.30560927,2020,CZ_532975,official,TRUE
CZ_532983,13.992136956336141,50.137464748629725,CZ,CZ02,CZ020,532983,Tuchlovice,2648,12.75692686,2020,CZ_532983,official,TRUE
CZ_532991,14.18311124414138,50.04475760467836,CZ,CZ02,CZ020,532991,Úhonice,1155,9.95949776,2020,CZ_532991,official,TRUE
CZ_533009,14.274290650261479,50.286307560329135,CZ,CZ02,CZ020,533009,Uhy,376,5.77336568,2020,CZ_533009,official,TRUE
CZ_533017,14.130820606070772,50.086540845189425,CZ,CZ02,CZ020,533017,Unhošť,4824,17.37384654,2020,CZ_533017,official,TRUE
CZ_533025,14.075286434677755,50.10865746921824,CZ,CZ02,CZ020,533025,Velká Dobrá,1794,8.42652464,2020,CZ_533025,official,TRUE
CZ_533033,14.130788739801199,50.11592537709255,CZ,CZ02,CZ020,533033,Velké Přítočno,1018,2.38379381,2020,CZ_533033,official,TRUE
CZ_533041,14.233456149391689,50.280932832500405,CZ,CZ02,CZ020,533041,Velvary,3080,18.17058495,2020,CZ_533041,official,TRUE
CZ_533050,14.087654925777747,50.17219243152745,CZ,CZ02,CZ020,533050,Vinařice,2162,5.10406869,2020,CZ_533050,official,TRUE
CZ_533068,14.016147630998336,50.32580223770561,CZ,CZ02,CZ020,533068,Vraný,765,17.03624767,2020,CZ_533068,official,TRUE
CZ_533076,14.932843997019908,49.71275226257984,CZ,CZ02,CZ020,533076,Pavlovice,249,3.90081081,2020,CZ_533076,official,TRUE
CZ_533084,14.956081055567372,49.72075242148973,CZ,CZ02,CZ020,533084,Kladruby,271,4.66663354,2020,CZ_533084,official,TRUE
CZ_533092,14.251987804408715,50.19790759492761,CZ,CZ02,CZ020,533092,Zákolany,571,5.79861426,2020,CZ_533092,official,TRUE
CZ_533106,14.005069323040596,49.938922662719044,CZ,CZ02,CZ020,533106,Trubín,504,3.76305323,2020,CZ_533106,official,TRUE
CZ_533114,14.091979249926004,50.28643821311838,CZ,CZ02,CZ020,533114,Zlonice,2263,16.07394651,2020,CZ_533114,official,TRUE
CZ_533122,14.185008383870509,50.22956144096535,CZ,CZ02,CZ020,533122,Zvoleněves,876,4.58876498,2020,CZ_533122,official,TRUE
CZ_533149,14.006275524976367,50.09988887722204,CZ,CZ02,CZ020,533149,Žilina,839,7.80918789,2020,CZ_533149,official,TRUE
CZ_533157,14.154907193455823,50.24752587050299,CZ,CZ02,CZ020,533157,Žižice,694,12.03694412,2020,CZ_533157,official,TRUE
CZ_533165,15.1937521842917,50.02575001713726,CZ,CZ02,CZ020,533165,Kolín,31973,34.96407548,2020,CZ_533165,official,TRUE
CZ_533173,14.97218981241726,49.94209311338136,CZ,CZ02,CZ020,533173,Barchovice,247,17.67341668,2020,CZ_533173,official,TRUE
CZ_533181,15.080685597636647,49.95428163837351,CZ,CZ02,CZ020,533181,Bečváry,1036,16.28720482,2020,CZ_533181,official,TRUE
CZ_533190,15.319572988221342,50.06901876428553,CZ,CZ02,CZ020,533190,Bělušice,311,2.58119847,2020,CZ_533190,official,TRUE
CZ_533203,14.02752432571303,49.94396360304578,CZ,CZ02,CZ020,533203,Králův Dvůr,9690,15.21805055,2020,CZ_533203,official,TRUE
CZ_533211,15.083321242784947,50.03225480467316,CZ,CZ02,CZ020,533211,Břežany I,318,5.96610693,2020,CZ_533211,official,TRUE
CZ_533220,14.80339662582854,50.09026403702279,CZ,CZ02,CZ020,533220,Břežany II,854,9.013902,2020,CZ_533220,official,TRUE
CZ_533238,15.276977583816238,50.0666467948357,CZ,CZ02,CZ020,533238,Býchory,619,6.49660696,2020,CZ_533238,official,TRUE
CZ_533246,15.074943839885705,50.072200157492944,CZ,CZ02,CZ020,533246,Cerhenice,1749,10.65201254,2020,CZ_533246,official,TRUE
CZ_533254,14.802933215057335,49.94425910569779,CZ,CZ02,CZ020,533254,Černé Voděrady,348,13.00899794,2020,CZ_533254,official,TRUE
CZ_533262,15.210084383301796,49.97897322869745,CZ,CZ02,CZ020,533262,Červené Pečky,1829,16.10908705,2020,CZ_533262,official,TRUE
CZ_533271,14.858894612298931,50.07252701019709,CZ,CZ02,CZ020,533271,Český Brod,7049,19.65684652,2020,CZ_533271,official,TRUE
CZ_533289,15.040152535875778,50.091957492121416,CZ,CZ02,CZ020,533289,Dobřichov,765,6.10004891,2020,CZ_533289,official,TRUE
CZ_533297,15.068683302991461,49.97759581277065,CZ,CZ02,CZ020,533297,Dolní Chvatliny,481,12.1611872,2020,CZ_533297,official,TRUE
CZ_533301,14.793251677133215,50.02305870423258,CZ,CZ02,CZ020,533301,Doubravčice,847,9.08601997,2020,CZ_533301,official,TRUE
CZ_533319,13.878534021380641,49.77560725517981,CZ,CZ02,CZ020,533319,Malá Víska,107,10.18362348,2020,CZ_533319,official,TRUE
CZ_533327,14.954696828459621,49.918409201911516,CZ,CZ02,CZ020,533327,Horní Kruty,516,14.3678938,2020,CZ_533327,official,TRUE
CZ_533335,13.997600950338844,49.83061889074478,CZ,CZ02,CZ020,533335,Lhotka,346,5.37587794,2020,CZ_533335,official,TRUE
CZ_533343,14.995304871465832,50.07030890486359,CZ,CZ02,CZ020,533343,Chotutice,490,3.89894527,2020,CZ_533343,official,TRUE
CZ_533351,14.922622262100065,50.06459045420458,CZ,CZ02,CZ020,533351,Chrášťany,720,14.5352018,2020,CZ_533351,official,TRUE
CZ_533360,15.264405919020545,50.088488272508876,CZ,CZ02,CZ020,533360,Jestřabí Lhota,529,5.51490885,2020,CZ_533360,official,TRUE
CZ_533378,14.80945854342646,49.97154786132479,CZ,CZ02,CZ020,533378,Jevany,784,12.92802758,2020,CZ_533378,official,TRUE
CZ_533386,14.922024365253284,50.08991964020023,CZ,CZ02,CZ020,533386,Klučov,1051,14.38875306,2020,CZ_533386,official,TRUE
CZ_533394,15.279599030725755,50.038881962688784,CZ,CZ02,CZ020,533394,Konárovice,970,10.77268956,2020,CZ_533394,official,TRUE
CZ_533408,15.131781045740398,49.96999197737196,CZ,CZ02,CZ020,533408,Kořenice,633,10.25848829,2020,CZ_533408,official,TRUE
CZ_533416,14.85890852018298,49.99340669523001,CZ,CZ02,CZ020,533416,Kostelec nad Černými lesy,3780,17.72878836,2020,CZ_533416,official,TRUE
CZ_533424,14.975535442000085,50.00119557550852,CZ,CZ02,CZ020,533424,Kouřim,1903,14.46037599,2020,CZ_533424,official,TRUE
CZ_533432,14.813051234398829,49.99703273261261,CZ,CZ02,CZ020,533432,Kozojedy,934,7.16205348,2020,CZ_533432,official,TRUE
CZ_533441,15.368740790092934,50.07022775053573,CZ,CZ02,CZ020,533441,Krakovany,868,10.55464042,2020,CZ_533441,official,TRUE
CZ_533459,14.87791838784076,50.02063829153603,CZ,CZ02,CZ020,533459,Krupá,402,5.63242296,2020,CZ_533459,official,TRUE
CZ_533467,15.133172098131032,50.02797945458756,CZ,CZ02,CZ020,533467,Křečhoř,499,9.63386233,2020,CZ_533467,official,TRUE
CZ_533475,15.254433557538022,49.986382901532956,CZ,CZ02,CZ020,533475,Libenice,309,4.87480617,2020,CZ_533475,official,TRUE
CZ_533483,15.088422397740871,50.003117301558305,CZ,CZ02,CZ020,533483,Libodřice,305,5.93422154,2020,CZ_533483,official,TRUE
CZ_533491,17.148530098806972,50.30599508204241,CZ,CZ07,CZ071,533491,Černá Voda,536,9.89087431,2020,CZ_533491,official,TRUE
CZ_533505,15.130427677104231,49.9966136486262,CZ,CZ02,CZ020,533505,Lošany,309,6.77759459,2020,CZ_533505,official,TRUE
CZ_533513,14.967838474863456,49.961360462807114,CZ,CZ02,CZ020,533513,Malotice,347,8.59453766,2020,CZ_533513,official,TRUE
CZ_533521,15.221181278742538,49.996458474051565,CZ,CZ02,CZ020,533521,Nebovidy,715,4.79239299,2020,CZ_533521,official,TRUE
CZ_533530,15.152176137701312,50.05141747269321,CZ,CZ02,CZ020,533530,Nová Ves I,1305,10.33533527,2020,CZ_533530,official,TRUE
CZ_533548,14.88796473855641,49.957595257393876,CZ,CZ02,CZ020,533548,Nučice,383,5.0005284,2020,CZ_533548,official,TRUE
CZ_533556,15.295270328956075,50.10018357139838,CZ,CZ02,CZ020,533556,Ohaře,297,6.01737426,2020,CZ_533556,official,TRUE
CZ_533564,14.915433723888702,49.97543792719245,CZ,CZ02,CZ020,533564,Oleška,982,11.93958282,2020,CZ_533564,official,TRUE
CZ_533572,15.235731309814048,50.06029808008585,CZ,CZ02,CZ020,533572,Ovčáry,889,10.37352265,2020,CZ_533572,official,TRUE
CZ_533581,15.026080413432629,50.05048967608145,CZ,CZ02,CZ020,533581,Plaňany,1926,13.85093445,2020,CZ_533581,official,TRUE
CZ_533599,15.208277467915313,50.00672666203698,CZ,CZ02,CZ020,533599,Polepy,645,2.44136402,2020,CZ_533599,official,TRUE
CZ_533602,14.139539650995015,50.02251179571674,CZ,CZ02,CZ020,533602,Nenačovice,279,4.01041831,2020,CZ_533602,official,TRUE
CZ_533611,14.763939044588602,50.05117087707834,CZ,CZ02,CZ020,533611,Přišimasy,824,7.00774058,2020,CZ_533611,official,TRUE
CZ_533629,15.011752197598414,50.07043853239568,CZ,CZ02,CZ020,533629,Radim,1233,4.9830798100000004,2020,CZ_533629,official,TRUE
CZ_533637,15.146250945778654,50.00952685589238,CZ,CZ02,CZ020,533637,Radovesnice I,375,2.96801594,2020,CZ_533637,official,TRUE
CZ_533645,15.365961439049787,50.10563440219111,CZ,CZ02,CZ020,533645,Radovesnice II,492,12.9219402,2020,CZ_533645,official,TRUE
CZ_533653,15.155504698700137,49.97989410152427,CZ,CZ02,CZ020,533653,Ratboř,591,4.78663727,2020,CZ_533653,official,TRUE
CZ_533661,14.799413969073486,50.07110999938213,CZ,CZ02,CZ020,533661,Rostoklaty,541,6.99221365,2020,CZ_533661,official,TRUE
CZ_533670,14.152778522529418,50.00487481670159,CZ,CZ02,CZ020,533670,Chrustenice,983,6.7223106,2020,CZ_533670,official,TRUE
CZ_533688,16.993083831126793,49.90672399241209,CZ,CZ07,CZ071,533688,Dlouhomilov,493,10.42293408,2020,CZ_533688,official,TRUE
CZ_533696,15.00048257330427,49.89900325484079,CZ,CZ02,CZ020,533696,Skvrňov,212,6.22117262,2020,CZ_533696,official,TRUE
CZ_533700,15.298660524960969,50.01149180160954,CZ,CZ02,CZ020,533700,Starý Kolín,1639,8.90967803,2020,CZ_533700,official,TRUE
CZ_533718,14.844733302522089,49.89806275051231,CZ,CZ02,CZ020,533718,Stříbrná Skalice,1400,24.37145305,2020,CZ_533718,official,TRUE
CZ_533726,15.04577680877848,50.0053825370944,CZ,CZ02,CZ020,533726,Svojšice,557,9.82203933,2020,CZ_533726,official,TRUE
CZ_533734,14.814609844719739,50.06009935894739,CZ,CZ02,CZ020,533734,Tismice,534,7.53855355,2020,CZ_533734,official,TRUE
CZ_533742,15.006475062555472,49.987185580593184,CZ,CZ02,CZ020,533742,Toušice,347,7.23236655,2020,CZ_533742,official,TRUE
CZ_533751,14.964080410504977,50.026971694174264,CZ,CZ02,CZ020,533751,Třebovle,541,10.96570235,2020,CZ_533751,official,TRUE
CZ_533769,15.25931813875531,50.03137778368819,CZ,CZ02,CZ020,533769,Tři Dvory,967,4.60793802,2020,CZ_533769,official,TRUE
CZ_533777,14.853189918029667,50.04834167412071,CZ,CZ02,CZ020,533777,Tuchoraz,557,5.94425056,2020,CZ_533777,official,TRUE
CZ_533785,14.765508178100417,50.08583867781717,CZ,CZ02,CZ020,533785,Tuklaty,1034,8.14863291,2020,CZ_533785,official,TRUE
CZ_533793,14.135684714730678,49.92568512699589,CZ,CZ02,CZ020,533793,Korno,124,5.22711491,2020,CZ_533793,official,TRUE
CZ_533807,15.358638604485366,50.044163098702214,CZ,CZ02,CZ020,533807,Týnec nad Labem,2077,15.64119712,2020,CZ_533807,official,TRUE
CZ_533815,15.39395246733582,50.08098144249847,CZ,CZ02,CZ020,533815,Uhlířská Lhota,357,9.13947511,2020,CZ_533815,official,TRUE
CZ_533823,15.300523336747395,50.02959409655418,CZ,CZ02,CZ020,533823,Veletov,261,5.28135691,2020,CZ_533823,official,TRUE
CZ_533831,15.120405970541366,50.06326630000315,CZ,CZ02,CZ020,533831,Velim,2224,15.81823407,2020,CZ_533831,official,TRUE
CZ_533840,15.192712980168459,50.09781902255348,CZ,CZ02,CZ020,533840,Velký Osek,2419,10.61794441,2020,CZ_533840,official,TRUE
CZ_533858,15.189260655697543,50.06869324996891,CZ,CZ02,CZ020,533858,Veltruby,1419,9.42342825,2020,CZ_533858,official,TRUE
CZ_533866,14.922251720943747,50.01112244847308,CZ,CZ02,CZ020,533866,Vitice,1088,22.43463295,2020,CZ_533866,official,TRUE
CZ_533874,14.894317194177104,49.90067953181579,CZ,CZ02,CZ020,533874,Vlkančice,196,7.26478269,2020,CZ_533874,official,TRUE
CZ_533882,15.238286483418474,50.094138831451644,CZ,CZ02,CZ020,533882,Volárna,522,4.06997206,2020,CZ_533882,official,TRUE
CZ_533891,14.99565193556639,50.052283878102564,CZ,CZ02,CZ020,533891,Vrbčany,396,6.20362782,2020,CZ_533891,official,TRUE
CZ_533904,14.78893950390327,49.986235166184144,CZ,CZ02,CZ020,533904,Vyžlovka,715,3.8332437600000002,2020,CZ_533904,official,TRUE
CZ_533912,14.255914526268795,49.938419980989956,CZ,CZ02,CZ020,533912,Mořinka,169,6.97310885,2020,CZ_533912,official,TRUE
CZ_533921,15.029138417590401,49.95579244229355,CZ,CZ02,CZ020,533921,Zásmuky,1994,24.11565209,2020,CZ_533921,official,TRUE
CZ_533939,14.07691025516509,49.85310042505475,CZ,CZ02,CZ020,533939,Lážovice,110,4.90185805,2020,CZ_533939,official,TRUE
CZ_533947,15.394621173139363,50.13269598761969,CZ,CZ02,CZ020,533947,Žiželice,1705,18.5994285,2020,CZ_533947,official,TRUE
CZ_533955,15.276747369370664,49.955907690484445,CZ,CZ02,CZ020,533955,Kutná Hora,20653,33.08466802,2020,CZ_533955,official,TRUE
CZ_533963,14.080069344847754,49.844803704332406,CZ,CZ02,CZ020,533963,Skřipel,127,3.03697384,2020,CZ_533963,official,TRUE
CZ_533971,15.484020087698324,49.95867734290712,CZ,CZ02,CZ020,533971,Bílé Podolí,613,15.27362299,2020,CZ_533971,official,TRUE
CZ_533980,15.218930036967118,49.78158091029759,CZ,CZ02,CZ020,533980,Bohdaneč,422,16.59353175,2020,CZ_533980,official,TRUE
CZ_533998,15.334112675581908,49.948444928305605,CZ,CZ02,CZ020,533998,Církvice,1319,10.12651244,2020,CZ_533998,official,TRUE
CZ_534005,15.394741208700388,49.90966753472358,CZ,CZ02,CZ020,534005,Čáslav,10322,26.4124305,2020,CZ_534005,official,TRUE
CZ_534013,15.222532452538204,49.862263111658564,CZ,CZ02,CZ020,534013,Černíny,386,16.15369185,2020,CZ_534013,official,TRUE
CZ_534021,15.251963561509024,49.833482245764166,CZ,CZ02,CZ020,534021,Červené Janovice,658,14.94182927,2020,CZ_534021,official,TRUE
CZ_534030,15.09392756389452,49.800199471673054,CZ,CZ02,CZ020,534030,Čestín,426,32.45493761,2020,CZ_534030,official,TRUE
CZ_534048,14.109524906537672,49.85361338751979,CZ,CZ02,CZ020,534048,Vižina,271,3.89205079,2020,CZ_534048,official,TRUE
CZ_534056,15.129490771081306,49.73024150627467,CZ,CZ02,CZ020,534056,Horka II,392,10.18112017,2020,CZ_534056,official,TRUE
CZ_534064,15.46405339795377,49.859632580420126,CZ,CZ02,CZ020,534064,Hostovlice,239,5.86703775,2020,CZ_534064,official,TRUE
CZ_534072,13.929456032858416,49.85160626552947,CZ,CZ02,CZ020,534072,Kotopeky,298,3.90554972,2020,CZ_534072,official,TRUE
CZ_534081,15.083403828921677,49.75165224400681,CZ,CZ02,CZ020,534081,Chabeřice,260,8.06248792,2020,CZ_534081,official,TRUE
CZ_534099,15.18820060903604,49.87981371965601,CZ,CZ02,CZ020,534099,Chlístovice,738,29.49942107,2020,CZ_534099,official,TRUE
CZ_534102,15.393372887675353,49.949926237868034,CZ,CZ02,CZ020,534102,Chotusice,747,6.98767229,2020,CZ_534102,official,TRUE
CZ_534111,13.946727943539042,49.869392301720445,CZ,CZ02,CZ020,534111,Otmíče,176,2.61259997,2020,CZ_534111,official,TRUE
CZ_534129,15.023237597199998,49.780713503146906,CZ,CZ02,CZ020,534129,Kácov,803,11.26533622,2020,CZ_534129,official,TRUE
CZ_534137,15.32272395317711,49.9054119978972,CZ,CZ02,CZ020,534137,Kluky,513,10.6917587,2020,CZ_534137,official,TRUE
CZ_534145,14.058746368319584,49.884763237048155,CZ,CZ02,CZ020,534145,Bykoš,229,4.00647436,2020,CZ_534145,official,TRUE
CZ_534153,15.348568234561748,49.88786293550594,CZ,CZ02,CZ020,534153,Krchleby,403,5.95054491,2020,CZ_534153,official,TRUE
CZ_534161,15.260184374999161,49.905702596633354,CZ,CZ02,CZ020,534161,Křesetice,688,10.90893321,2020,CZ_534161,official,TRUE
CZ_534170,14.946122313478476,49.84722940403762,CZ,CZ02,CZ020,534170,Ledečko,181,3.01761289,2020,CZ_534170,official,TRUE
CZ_534188,15.22902511973154,49.90691720998309,CZ,CZ02,CZ020,534188,Malešov,1029,14.26543957,2020,CZ_534188,official,TRUE
CZ_534196,15.349890352630183,49.993077631677075,CZ,CZ02,CZ020,534196,Svatý Mikuláš,875,17.76178964,2020,CZ_534196,official,TRUE
CZ_534200,15.224186360692142,49.94619718729398,CZ,CZ02,CZ020,534200,Miskovice,1106,19.14477094,2020,CZ_534200,official,TRUE
CZ_534218,14.017573072086318,49.89293477933242,CZ,CZ02,CZ020,534218,Málkov,111,3.41518456,2020,CZ_534218,official,TRUE
CZ_534226,15.1461889627959,49.88296094626251,CZ,CZ02,CZ020,534226,Nepoměřice,212,7.2107128,2020,CZ_534226,official,TRUE
CZ_534234,14.10018165883935,49.88997292947291,CZ,CZ02,CZ020,534234,Vinařice,100,4.97833523,2020,CZ_534234,official,TRUE
CZ_534242,15.320503205011448,49.96906584984453,CZ,CZ02,CZ020,534242,Nové Dvory,880,9.0449107,2020,CZ_534242,official,TRUE
CZ_534251,15.473991178621446,49.85001924195892,CZ,CZ02,CZ020,534251,Okřesaneč,184,2.46071411,2020,CZ_534251,official,TRUE
CZ_534269,14.127229121610794,49.87998954279204,CZ,CZ02,CZ020,534269,Nesvačily,169,2.72244018,2020,CZ_534269,official,TRUE
CZ_534277,15.11983035687951,49.90319976867169,CZ,CZ02,CZ020,534277,Onomyšl,321,12.86691594,2020,CZ_534277,official,TRUE
CZ_534285,14.125773878972206,49.86209721776946,CZ,CZ02,CZ020,534285,Podbrdy,232,3.76669978,2020,CZ_534285,official,TRUE
CZ_534293,14.960805525563837,49.795983953683404,CZ,CZ02,CZ020,534293,Soběšín,164,7.25110388,2020,CZ_534293,official,TRUE
CZ_534307,15.179940467508036,49.75427477770612,CZ,CZ02,CZ020,534307,Pertoltice,158,8.83879272,2020,CZ_534307,official,TRUE
CZ_534315,15.293041024283104,49.809180388983606,CZ,CZ02,CZ020,534315,Petrovice I,291,14.87287818,2020,CZ_534315,official,TRUE
CZ_534323,15.07977678822686,49.826190309625844,CZ,CZ02,CZ020,534323,Petrovice II,132,11.62550671,2020,CZ_534323,official,TRUE
CZ_534331,15.423582038838797,49.87038529988993,CZ,CZ02,CZ020,534331,Potěhy,648,5.04762053,2020,CZ_534331,official,TRUE
CZ_534340,15.090132637815868,49.89877428895585,CZ,CZ02,CZ020,534340,Rašovice,383,12.35306648,2020,CZ_534340,official,TRUE
CZ_534358,14.960168254411194,49.84039777907122,CZ,CZ02,CZ020,534358,Rataje nad Sázavou,513,13.30586698,2020,CZ_534358,official,TRUE
CZ_534366,15.096303603366863,49.76983068485011,CZ,CZ02,CZ020,534366,Řendějov,244,8.40848611,2020,CZ_534366,official,TRUE
CZ_534374,14.923380779368545,49.87263116731969,CZ,CZ02,CZ020,534374,Samopše,172,6.58867165,2020,CZ_534374,official,TRUE
CZ_534382,14.905841827935205,49.875852171703336,CZ,CZ02,CZ020,534382,Sázava,3734,20.53402844,2020,CZ_534382,official,TRUE
CZ_534391,15.173014548863607,49.78021267815585,CZ,CZ02,CZ020,534391,Slavošov,146,7.48909583,2020,CZ_534391,official,TRUE
CZ_534404,14.192199497319441,49.98486537977528,CZ,CZ02,CZ020,534404,Lužce,133,3.05686,2020,CZ_534404,official,TRUE
CZ_534412,15.014286202944445,49.8734710323261,CZ,CZ02,CZ020,534412,Staňkovice,287,12.06332526,2020,CZ_534412,official,TRUE
CZ_534421,13.961229985699333,49.894691763966534,CZ,CZ02,CZ020,534421,Bavoryně,344,2.14722648,2020,CZ_534421,official,TRUE
CZ_534439,15.164970639666912,49.95295315768279,CZ,CZ02,CZ020,534439,Suchdol,1111,19.28662409,2020,CZ_534439,official,TRUE
CZ_534447,13.987361748017936,49.89617793880657,CZ,CZ02,CZ020,534447,Chodouň,699,4.23129347,2020,CZ_534447,official,TRUE
CZ_534455,13.915829809205281,49.87876440281244,CZ,CZ02,CZ020,534455,Chlustina,238,5.65538993,2020,CZ_534455,official,TRUE
CZ_534463,13.88705122173662,49.881051347385366,CZ,CZ02,CZ020,534463,Točník,230,5.43183571,2020,CZ_534463,official,TRUE
CZ_534471,15.293229801584458,50.24597839339498,CZ,CZ02,CZ020,534471,Záhornice,425,17.05605648,2020,CZ_534471,official,TRUE
CZ_534480,15.398721067605571,49.865857512706256,CZ,CZ02,CZ020,534480,Tupadly,669,6.53247975,2020,CZ_534480,official,TRUE
CZ_534498,15.061942176974947,49.88144047751854,CZ,CZ02,CZ020,534498,Uhlířské Janovice,3118,25.48216551,2020,CZ_534498,official,TRUE
CZ_534501,15.272465418795202,49.878324446616055,CZ,CZ02,CZ020,534501,Úmonín,514,13.78370544,2020,CZ_534501,official,TRUE
CZ_534510,14.93757209336932,49.88398757063997,CZ,CZ02,CZ020,534510,Úžice,665,18.60926181,2020,CZ_534510,official,TRUE
CZ_534528,15.04816924596941,49.900936822991234,CZ,CZ02,CZ020,534528,Vavřinec,548,10.69146443,2020,CZ_534528,official,TRUE
CZ_534536,15.173817273288083,49.92093825287624,CZ,CZ02,CZ020,534536,Vidice,242,11.89370993,2020,CZ_534536,official,TRUE
CZ_534544,15.49868177453855,49.91212579382921,CZ,CZ02,CZ020,534544,Vinaře,263,5.11948669,2020,CZ_534544,official,TRUE
CZ_534552,15.445036545686692,49.941264412288504,CZ,CZ02,CZ020,534552,Vlačice,243,5.32847262,2020,CZ_534552,official,TRUE
CZ_534561,15.171659162355954,49.728583876823045,CZ,CZ02,CZ020,534561,Vlastějovice,459,18.9935073,2020,CZ_534561,official,TRUE
CZ_534579,15.403879365031957,49.80724418976781,CZ,CZ02,CZ020,534579,Vlkaneč,612,14.09166845,2020,CZ_534579,official,TRUE
CZ_534587,15.469396700555125,49.92261740861924,CZ,CZ02,CZ020,534587,Vrdy,2946,18.51543153,2020,CZ_534587,official,TRUE
CZ_534595,15.355428421570208,50.025874224118105,CZ,CZ02,CZ020,534595,Záboří nad Labem,845,8.90436187,2020,CZ_534595,official,TRUE
CZ_534609,15.026474521950055,49.82362136349294,CZ,CZ02,CZ020,534609,Zbizuby,468,19.35747152,2020,CZ_534609,official,TRUE
CZ_534617,15.183575526809589,49.80986835541031,CZ,CZ02,CZ020,534617,Zbraslavice,1401,38.18196771,2020,CZ_534617,official,TRUE
CZ_534625,15.351294613089467,49.81459007806247,CZ,CZ02,CZ020,534625,Zbýšov,626,26.13007714,2020,CZ_534625,official,TRUE
CZ_534633,15.092485483257924,49.74308863814677,CZ,CZ02,CZ020,534633,Zruč nad Sázavou,4861,16.34630697,2020,CZ_534633,official,TRUE
CZ_534641,15.366368075306251,49.872290795923554,CZ,CZ02,CZ020,534641,Žáky,349,5.67580337,2020,CZ_534641,official,TRUE
CZ_534650,15.407145572197402,49.97017874545386,CZ,CZ02,CZ020,534650,Žehušice,799,8.94453679,2020,CZ_534650,official,TRUE
CZ_534668,15.48133352768734,49.89164041854776,CZ,CZ02,CZ020,534668,Žleby,1339,14.59790547,2020,CZ_534668,official,TRUE
CZ_534676,14.484727808917448,50.34922618432981,CZ,CZ02,CZ020,534676,Mělník,19559,24.92050906,2020,CZ_534676,official,TRUE
CZ_534684,14.648087030162712,50.220058965013756,CZ,CZ02,CZ020,534684,Borek,321,2.97640618,2020,CZ_534684,official,TRUE
CZ_534692,16.65589300293983,49.46507568151566,CZ,CZ06,CZ064,534692,Újezd u Boskovic,488,12.79263194,2020,CZ_534692,official,TRUE
CZ_534706,15.344778333059338,50.28855922608292,CZ,CZ02,CZ020,534706,Chroustov,216,7.42886873,2020,CZ_534706,official,TRUE
CZ_534714,14.420381807264842,50.34619772397463,CZ,CZ02,CZ020,534714,Býkev,479,5.59628492,2020,CZ_534714,official,TRUE
CZ_534722,14.614268756919884,50.31152427814096,CZ,CZ02,CZ020,534722,Byšice,1395,10.98083801,2020,CZ_534722,official,TRUE
CZ_534731,14.400299300614261,50.373764093338835,CZ,CZ02,CZ020,534731,Cítov,1251,15.80175387,2020,CZ_534731,official,TRUE
CZ_534749,14.614419891179017,50.29360186938978,CZ,CZ02,CZ020,534749,Čečelice,673,11.37602062,2020,CZ_534749,official,TRUE
CZ_534757,15.099486089810101,50.31863688505591,CZ,CZ02,CZ020,534757,Seletice,216,11.3821436,2020,CZ_534757,official,TRUE
