gisco_id,longitude,latitude,country,nuts_2,nuts_3,lau_id,lau_name,population,area_km2,year,fid,concordance,pop_weighted
IT_001001,7.765649624043404,45.3624056179879,IT,ITC1,ITC11,001001,Agliè,2638,13.14729134,2020,IT_001001,geo,TRUE
IT_001002,7.483248954052127,44.91954809465169,IT,ITC1,ITC11,001002,Airasca,3696,15.7519527,2020,IT_001002,geo,TRUE
IT_001003,7.302946389261744,45.31221663619226,IT,ITC1,ITC11,001003,Ala di Stura,453,46.3548347,2020,IT_001003,geo,TRUE
IT_001004,7.950681827129469,45.43498075202099,IT,ITC1,ITC11,001004,Albiano d'Ivrea,1641,11.78782194,2020,IT_001004,geo,TRUE
IT_001006,7.401032964089804,45.11605979378767,IT,ITC1,ITC11,001006,Almese,6375,17.88423341,2020,IT_001006,geo,TRUE
IT_001007,7.582760618324316,45.409839306228555,IT,ITC1,ITC11,001007,Alpette,246,5.63188169,2020,IT_001007,geo,TRUE
IT_001008,7.5239570578878086,45.09626844109618,IT,ITC1,ITC11,001008,Alpignano,16811,11.92205458,2020,IT_001008,geo,TRUE
IT_001009,7.8697923826039196,45.036725025182506,IT,ITC1,ITC11,001009,Andezeno,2058,7.4935089,2020,IT_001009,geo,TRUE
IT_001010,7.877263513624949,45.52698318272994,IT,ITC1,ITC11,001010,Andrate,495,9.31308245,2020,IT_001010,geo,TRUE
IT_001011,7.227706524660544,44.83680394633246,IT,ITC1,ITC11,001011,Angrogna,845,38.88455794,2020,IT_001011,geo,TRUE
IT_001012,7.901148758620397,45.038493667845955,IT,ITC1,ITC11,001012,Arignano,1081,8.17253039,2020,IT_001012,geo,TRUE
IT_001013,7.400068434249833,45.08199670522929,IT,ITC1,ITC11,001013,Avigliana,12599,23.22709956,2020,IT_001013,geo,TRUE
IT_001014,7.990839998309881,45.42557410362941,IT,ITC1,ITC11,001014,Azeglio,1250,9.91330543,2020,IT_001014,geo,TRUE
IT_001015,7.753457277952435,45.382624414994076,IT,ITC1,ITC11,001015,Bairo,802,7.08782943,2020,IT_001015,geo,TRUE
IT_001016,7.522649255512322,45.270663042337176,IT,ITC1,ITC11,001016,Balangero,3136,13.01415108,2020,IT_001016,geo,TRUE
IT_001017,7.745513482051246,45.40990776512851,IT,ITC1,ITC11,001017,Baldissero Canavese,535,4.51169507,2020,IT_001017,geo,TRUE
IT_001018,7.80656739805421,45.07243137873963,IT,ITC1,ITC11,001018,Baldissero Torinese,3659,15.40668414,2020,IT_001018,geo,TRUE
IT_001019,7.217931736133975,45.30099781884936,IT,ITC1,ITC11,001019,Balme,112,62.61268818,2020,IT_001019,geo,TRUE
IT_001020,7.859060404326992,45.45577355346029,IT,ITC1,ITC11,001020,Banchette,3225,2.01888666,2020,IT_001020,geo,TRUE
IT_001021,7.6292639327252845,45.29170790667077,IT,ITC1,ITC11,001021,Barbania,1598,12.80930864,2020,IT_001021,geo,TRUE
IT_001022,6.702862025791745,45.07776339325668,IT,ITC1,ITC11,001022,Bardonecchia,3159,132.14840543,2020,IT_001022,geo,TRUE
IT_001023,7.869221638971036,45.32512375835666,IT,ITC1,ITC11,001023,Barone Canavese,578,3.99369288,2020,IT_001023,geo,TRUE
IT_001024,7.594692916005966,45.01076984911514,IT,ITC1,ITC11,001024,Beinasco,17856,6.74293795,2020,IT_001024,geo,TRUE
IT_001025,7.292745440045509,44.798070820141845,IT,ITC1,ITC11,001025,Bibiana,3476,18.59856099,2020,IT_001025,geo,TRUE
IT_001026,7.115803217575387,44.81087628305456,IT,ITC1,ITC11,001026,Bobbio Pellice,546,94.14021792,2020,IT_001026,geo,TRUE
IT_001027,7.945669772652793,45.47189464179685,IT,ITC1,ITC11,001027,Bollengo,2135,14.22693795,2020,IT_001027,geo,TRUE
IT_001028,7.656978084418693,45.15159815305721,IT,ITC1,ITC11,001028,Borgaro Torinese,11931,11.0932459,2020,IT_001028,geo,TRUE
IT_001029,7.669113093596267,45.41796578813713,IT,ITC1,ITC11,001029,Borgiallo,597,6.96124599,2020,IT_001029,geo,TRUE
IT_001030,7.858065198859626,45.514267159546684,IT,ITC1,ITC11,001030,Borgofranco d'Ivrea,3631,13.41879031,2020,IT_001030,geo,TRUE
IT_001031,7.991692579823932,45.36317356033978,IT,ITC1,ITC11,001031,Borgomasino,796,12.38282112,2020,IT_001031,geo,TRUE
IT_001032,7.24336960417329,45.120120422802714,IT,ITC1,ITC11,001032,Borgone Susa,2210,4.96855165,2020,IT_001032,geo,TRUE
IT_001033,7.766653373268603,45.268439259662536,IT,ITC1,ITC11,001033,Bosconero,3107,10.92395074,2020,IT_001033,geo,TRUE
IT_001034,7.837318174760495,45.17982472032483,IT,ITC1,ITC11,001034,Brandizzo,8822,6.29217472,2020,IT_001034,geo,TRUE
IT_001035,7.303641174121296,44.825126854989115,IT,ITC1,ITC11,001035,Bricherasio,4600,22.76298582,2020,IT_001035,geo,TRUE
IT_001036,7.806489280841279,45.49492002487462,IT,ITC1,ITC11,001036,Brosso,401,11.14194963,2020,IT_001036,geo,TRUE
IT_001037,8.070373809426604,45.11798801871123,IT,ITC1,ITC11,001037,Brozolo,443,8.95192973,2020,IT_001037,geo,TRUE
IT_001038,7.474634001166616,45.01698645327886,IT,ITC1,ITC11,001038,Bruino,8598,5.56233861,2020,IT_001038,geo,TRUE
IT_001039,8.058515552999204,45.15694007560988,IT,ITC1,ITC11,001039,Brusasco,1498,14.3763018,2020,IT_001039,geo,TRUE
IT_001040,7.196918692945446,45.13977858792496,IT,ITC1,ITC11,001040,Bruzolo,1519,12.57323317,2020,IT_001040,geo,TRUE
IT_001041,7.416456162592016,44.87400443351357,IT,ITC1,ITC11,001041,Buriasco,1355,14.69196103,2020,IT_001041,geo,TRUE
IT_001042,7.933023690742533,45.479205289739475,IT,ITC1,ITC11,001042,Burolo,1135,5.48014416,2020,IT_001042,geo,TRUE
IT_001043,7.661370188895164,45.32978259184351,IT,ITC1,ITC11,001043,Busano,1637,5.06062335,2020,IT_001043,geo,TRUE
IT_001044,7.148374903653498,45.13811614567722,IT,ITC1,ITC11,001044,Bussoleno,5824,37.07882839,2020,IT_001044,geo,TRUE
IT_001045,7.432362716584325,45.07766306851689,IT,ITC1,ITC11,001045,Buttigliera Alta,6347,8.09396704,2020,IT_001045,geo,TRUE
IT_001046,7.513701810118821,45.244311915667346,IT,ITC1,ITC11,001046,Cafasse,3383,10.23644781,2020,IT_001046,geo,TRUE
IT_001047,7.890911717757826,45.30359985105395,IT,ITC1,ITC11,001047,Caluso,7496,39.51584073,2020,IT_001047,geo,TRUE
IT_001048,7.777994006818688,44.97163088485125,IT,ITC1,ITC11,001048,Cambiano,6008,14.14885858,2020,IT_001048,geo,TRUE
IT_001049,7.3099731054436345,44.802996776758114,IT,ITC1,ITC11,001049,Campiglione Fenile,1339,11.08849515,2020,IT_001049,geo,TRUE
IT_001050,7.887909466171766,45.326809523227695,IT,ITC1,ITC11,001050,Candia Canavese,1214,9.14328474,2020,IT_001050,geo,TRUE
IT_001051,7.599631712315273,44.95870920032889,IT,ITC1,ITC11,001051,Candiolo,5644,11.83965423,2020,IT_001051,geo,TRUE
IT_001052,7.598039201507777,45.373685532091145,IT,ITC1,ITC11,001052,Canischio,274,11.95671481,2020,IT_001052,geo,TRUE
IT_001053,7.337382578468401,44.944736512871685,IT,ITC1,ITC11,001053,Cantalupa,2590,11.19704132,2020,IT_001053,geo,TRUE
IT_001054,7.381785540555807,45.3411451460802,IT,ITC1,ITC11,001054,Cantoira,585,23.0389871,2020,IT_001054,geo,TRUE
IT_001055,7.342039785304683,45.11862732841169,IT,ITC1,ITC11,001055,Caprie,2078,16.41223566,2020,IT_001055,geo,TRUE
IT_001056,7.963386690307446,45.398664577726784,IT,ITC1,ITC11,001056,Caravino,911,11.54962458,2020,IT_001056,geo,TRUE
IT_001057,7.807717577780825,45.58493387419709,IT,ITC1,ITC11,001057,Carema,765,10.2574552,2020,IT_001057,geo,TRUE
IT_001058,7.672652826226455,44.90702268665754,IT,ITC1,ITC11,001058,Carignano,9241,50.71857909,2020,IT_001058,geo,TRUE
IT_001059,7.718520440616693,44.847481393820196,IT,ITC1,ITC11,001059,Carmagnola,28924,95.7659339,2020,IT_001059,geo,TRUE
IT_001060,7.938345159243465,45.12848283270383,IT,ITC1,ITC11,001060,Casalborgone,1880,20.13740106,2020,IT_001060,geo,TRUE
IT_001061,7.90432204201732,45.479223081934435,IT,ITC1,ITC11,001061,Cascinette d'Ivrea,1517,2.17228911,2020,IT_001061,geo,TRUE
IT_001062,7.484620586017104,45.10962379674765,IT,ITC1,ITC11,001062,Caselette,3041,14.32748569,2020,IT_001062,geo,TRUE
IT_001063,7.642952016337789,45.17581833684254,IT,ITC1,ITC11,001063,Caselle Torinese,14003,23.55556999,2020,IT_001063,geo,TRUE
IT_001064,7.887118734214997,45.163076799810526,IT,ITC1,ITC11,001064,Castagneto Po,1757,11.49039037,2020,IT_001064,geo,TRUE
IT_001065,7.5667693692187825,44.89894565407603,IT,ITC1,ITC11,001065,Castagnole Piemonte,2202,17.28121404,2020,IT_001065,geo,TRUE
IT_001066,7.710709941203354,45.38447108922677,IT,ITC1,ITC11,001066,Castellamonte,9845,38.72718966,2020,IT_001066,geo,TRUE
IT_001067,7.698468407688274,45.43657691569909,IT,ITC1,ITC11,001067,Castelnuovo Nigra,414,28.37863202,2020,IT_001067,geo,TRUE
IT_001068,7.810535052016803,45.11677548122742,IT,ITC1,ITC11,001068,Castiglione Torinese,6500,14.14495619,2020,IT_001068,geo,TRUE
IT_001069,8.049646201173175,45.15075733620822,IT,ITC1,ITC11,001069,Cavagnolo,2247,12.33897029,2020,IT_001069,geo,TRUE
IT_001070,7.37217947722136,44.786706858007,IT,ITC1,ITC11,001070,Cavour,5478,48.9881014,2020,IT_001070,geo,TRUE
IT_001071,7.503578313412114,44.85880904312797,IT,ITC1,ITC11,001071,Cercenasco,1781,13.17705572,2020,IT_001071,geo,TRUE
IT_001072,7.391209445541783,45.31296528621431,IT,ITC1,ITC11,001072,Ceres,1033,28.05995928,2020,IT_001072,geo,TRUE
IT_001073,7.240227152027964,45.437558221832404,IT,ITC1,ITC11,001073,Ceresole Reale,163,99.87627587,2020,IT_001073,geo,TRUE
IT_001074,6.793017895911855,44.954985125461775,IT,ITC1,ITC11,001074,Cesana Torinese,940,121.57972431,2020,IT_001074,geo,TRUE
IT_001075,7.345341919973813,45.36181323139366,IT,ITC1,ITC11,001075,Chialamberto,355,35.46494745,2020,IT_001075,geo,TRUE
IT_001076,7.1659628274406,45.142413444287214,IT,ITC1,ITC11,001076,Chianocco,1590,18.6259692,2020,IT_001076,geo,TRUE
IT_001077,7.901129941131299,45.499121782526615,IT,ITC1,ITC11,001077,Chiaverano,2045,12.0369894,2020,IT_001077,geo,TRUE
IT_001078,7.822946135544065,45.010337308826564,IT,ITC1,ITC11,001078,Chieri,36770,54.22773573,2020,IT_001078,geo,TRUE
IT_001079,7.6560368298875785,45.417819979432956,IT,ITC1,ITC11,001079,Chiesanuova,220,4.12610663,2020,IT_001079,geo,TRUE
IT_001080,6.98523468137545,45.12257840820433,IT,ITC1,ITC11,001080,Chiomonte,881,26.76712218,2020,IT_001080,geo,TRUE
IT_001081,7.328339521395249,45.10543052782078,IT,ITC1,ITC11,001081,Chiusa di San Michele,1601,5.91977133,2020,IT_001081,geo,TRUE
IT_001082,7.892871147724849,45.192396991754464,IT,ITC1,ITC11,001082,Chivasso,26827,51.27567626,2020,IT_001082,geo,TRUE
IT_001083,7.763370928219739,45.331564569168684,IT,ITC1,ITC11,001083,Ciconio,385,3.16599995,2020,IT_001083,geo,TRUE
IT_001084,7.684127039494552,45.422372794076416,IT,ITC1,ITC11,001084,Cintano,245,4.95281266,2020,IT_001084,geo,TRUE
IT_001085,7.926009045120955,45.09197128215234,IT,ITC1,ITC11,001085,Cinzano,328,6.19808711,2020,IT_001085,geo,TRUE
IT_001086,7.602792518293969,45.23184502450254,IT,ITC1,ITC11,001086,Ciriè,18548,17.73786676,2020,IT_001086,geo,TRUE
IT_001087,6.754786566510645,44.93914410952614,IT,ITC1,ITC11,001087,Claviere,204,2.61470928,2020,IT_001087,geo,TRUE
IT_001088,7.470529109598183,45.300065732755066,IT,ITC1,ITC11,001088,Coassolo Torinese,1491,27.890782,2020,IT_001088,geo,TRUE
IT_001089,7.301986695585795,45.05110574787402,IT,ITC1,ITC11,001089,Coazze,3196,56.59070525,2020,IT_001089,geo,TRUE
IT_001090,7.577465764837678,45.07713462669023,IT,ITC1,ITC11,001090,Collegno,49615,18.11955138,2020,IT_001090,geo,TRUE
IT_001091,7.681465361985772,45.4211377890988,IT,ITC1,ITC11,001091,Colleretto Castelnuovo,302,6.33464531,2020,IT_001091,geo,TRUE
IT_001092,7.802426230651106,45.43475361568264,IT,ITC1,ITC11,001092,Colleretto Giacosa,584,4.59212363,2020,IT_001092,geo,TRUE
IT_001093,7.310445798035578,45.114239098324646,IT,ITC1,ITC11,001093,Condove,4485,71.1219098,2020,IT_001093,geo,TRUE
IT_001094,7.535875511782372,45.30970795321164,IT,ITC1,ITC11,001094,Corio,3183,41.50790871,2020,IT_001094,geo,TRUE
IT_001095,7.994522639285546,45.39050288599167,IT,ITC1,ITC11,001095,Cossano Canavese,463,3.24277858,2020,IT_001095,geo,TRUE
IT_001096,7.81399079133234,45.35983085065175,IT,ITC1,ITC11,001096,Cuceglio,959,6.87810083,2020,IT_001096,geo,TRUE
IT_001097,7.37518224378452,44.97900070912376,IT,ITC1,ITC11,001097,Cumiana,7876,60.75051913,2020,IT_001097,geo,TRUE
IT_001098,7.6495497715495935,45.391418038075116,IT,ITC1,ITC11,001098,Cuorgnè,9630,19.31321711,2020,IT_001098,geo,TRUE
IT_001099,7.577786584203373,45.13043517362858,IT,ITC1,ITC11,001099,Druento,8914,27.56355582,2020,IT_001099,geo,TRUE
IT_001100,6.930867355509757,45.098212185430825,IT,ITC1,ITC11,001100,Exilles,238,46.47397496,2020,IT_001100,geo,TRUE
IT_001101,7.689162688595924,45.33039492091304,IT,ITC1,ITC11,001101,Favria,5182,14.85912767,2020,IT_001101,geo,TRUE
IT_001102,7.746332384377568,45.30430022102948,IT,ITC1,ITC11,001102,Feletto,2240,7.89341036,2020,IT_001102,geo,TRUE
IT_001103,7.060348149636902,45.03309204844563,IT,ITC1,ITC11,001103,Fenestrelle,506,49.42025082,2020,IT_001103,geo,TRUE
IT_001104,7.525921666970007,45.21811528584573,IT,ITC1,ITC11,001104,Fiano,2639,12.04138041,2020,IT_001104,geo,TRUE
IT_001105,7.8352540470509195,45.46873056917949,IT,ITC1,ITC11,001105,Fiorano Canavese,764,4.34424061,2020,IT_001105,geo,TRUE
IT_001106,7.817867915997092,45.27094052509439,IT,ITC1,ITC11,001106,Foglizzo,2284,15.67064456,2020,IT_001106,geo,TRUE
IT_001107,7.58708362508811,45.344674175037284,IT,ITC1,ITC11,001107,Forno Canavese,3321,16.52967648,2020,IT_001107,geo,TRUE
IT_001108,7.606815652813223,45.437939556097085,IT,ITC1,ITC11,001108,Frassinetto,263,24.83708243,2020,IT_001108,geo,TRUE
IT_001109,7.672165577763873,45.27516947380934,IT,ITC1,ITC11,001109,Front,1662,10.95241643,2020,IT_001109,geo,TRUE
IT_001110,7.351830064978708,44.93305647156717,IT,ITC1,ITC11,001110,Frossasco,2876,20.15725146,2020,IT_001110,geo,TRUE
IT_001111,7.374842648472831,44.83577390861558,IT,ITC1,ITC11,001111,Garzigliana,551,7.40352044,2020,IT_001111,geo,TRUE
IT_001112,7.8270211482041026,45.12639519153006,IT,ITC1,ITC11,001112,Gassino Torinese,9500,20.52142804,2020,IT_001112,geo,TRUE
IT_001113,7.466810940643698,45.263182323402,IT,ITC1,ITC11,001113,Germagnano,1131,14.45495473,2020,IT_001113,geo,TRUE
IT_001114,7.010592693187063,45.14214327128913,IT,ITC1,ITC11,001114,Giaglione,602,33.39357795,2020,IT_001114,geo,TRUE
IT_001115,7.349223741166978,45.04317900914135,IT,ITC1,ITC11,001115,Giaveno,16425,71.76756745,2020,IT_001115,geo,TRUE
IT_001116,7.498560246180351,45.158242570471735,IT,ITC1,ITC11,001116,Givoletto,3974,12.82719074,2020,IT_001116,geo,TRUE
IT_001117,7.019041071061842,45.124332927991105,IT,ITC1,ITC11,001117,Gravere,671,18.97129941,2020,IT_001117,geo,TRUE
IT_001118,7.279702071293207,45.36738332216571,IT,ITC1,ITC11,001118,Groscavallo,192,92.07345929,2020,IT_001118,geo,TRUE
IT_001119,7.559642500800265,45.25470341015514,IT,ITC1,ITC11,001119,Grosso,1000,4.32367005,2020,IT_001119,geo,TRUE
IT_001120,7.58141501975591,45.06459853708824,IT,ITC1,ITC11,001120,Grugliasco,37627,13.13232945,2020,IT_001120,geo,TRUE
IT_001121,7.569909031090458,45.463903341985315,IT,ITC1,ITC11,001121,Ingria,47,14.76131056,2020,IT_001121,geo,TRUE
IT_001122,7.221564336379663,44.94082397241531,IT,ITC1,ITC11,001122,Inverso Pinasca,701,8.02993287,2020,IT_001122,geo,TRUE
IT_001123,7.907695872485086,44.909890831516215,IT,ITC1,ITC11,001123,Isolabella,379,4.77592911,2020,IT_001123,geo,TRUE
IT_001124,7.747052201403806,45.44879065260683,IT,ITC1,ITC11,001124,Issiglio,395,5.52721564,2020,IT_001124,geo,TRUE
IT_001125,7.880154763925617,45.462247995588605,IT,ITC1,ITC11,001125,Ivrea,23338,30.12071356,2020,IT_001125,geo,TRUE
IT_001126,7.516210498747904,45.18226074222079,IT,ITC1,ITC11,001126,La Cassa,1795,12.04162718,2020,IT_001126,geo,TRUE
IT_001127,7.667459360254018,44.955676178474036,IT,ITC1,ITC11,001127,La Loggia,8841,12.79628742,2020,IT_001127,geo,TRUE
IT_001128,7.478915612741732,45.273623218571245,IT,ITC1,ITC11,001128,Lanzo Torinese,4986,10.29690317,2020,IT_001128,geo,TRUE
IT_001129,7.989336242514881,45.153538537463206,IT,ITC1,ITC11,001129,Lauriano,1494,14.29763152,2020,IT_001129,geo,TRUE
IT_001130,7.716515039500322,45.18492614050212,IT,ITC1,ITC11,001130,Leini,16477,31.9241627,2020,IT_001130,geo,TRUE
IT_001131,7.296924496068289,45.22882316223443,IT,ITC1,ITC11,001131,Lemie,164,45.69220782,2020,IT_001131,geo,TRUE
IT_001132,7.814569647117463,45.479619525724246,IT,ITC1,ITC11,001132,Lessolo,1802,7.94351088,2020,IT_001132,geo,TRUE
IT_001133,7.607414346317726,45.3198437082696,IT,ITC1,ITC11,001133,Levone,445,5.39150483,2020,IT_001133,geo,TRUE
IT_001134,7.452221048658206,45.41688834262715,IT,ITC1,ITC11,001134,Locana,1427,132.57318748,2020,IT_001134,geo,TRUE
IT_001135,7.73781894833998,45.23361515580613,IT,ITC1,ITC11,001135,Lombardore,1721,12.71464395,2020,IT_001135,geo,TRUE
IT_001136,7.632954742931781,44.84226269914524,IT,ITC1,ITC11,001136,Lombriasco,1053,7.21198292,2020,IT_001136,geo,TRUE
IT_001137,7.8093851364038995,45.441175921144,IT,ITC1,ITC11,001137,Loranzè,1154,4.19619733,2020,IT_001137,geo,TRUE
IT_001139,7.247620049781677,44.81514677742754,IT,ITC1,ITC11,001139,Luserna San Giovanni,7267,17.74651124,2020,IT_001139,geo,TRUE
IT_001140,7.243600234362949,44.80267205395925,IT,ITC1,ITC11,001140,Lusernetta,508,7.04229196,2020,IT_001140,geo,TRUE
IT_001141,7.765408040671108,45.3141969102054,IT,ITC1,ITC11,001141,Lusigliè,565,5.26138756,2020,IT_001141,geo,TRUE
IT_001142,7.407567824980429,44.85355008093825,IT,ITC1,ITC11,001142,Macello,1158,14.15237246,2020,IT_001142,geo,TRUE
IT_001143,8.011637167591562,45.346207959621374,IT,ITC1,ITC11,001143,Maglione,411,6.32168727,2020,IT_001143,geo,TRUE
IT_001144,7.8773183545889705,45.057626344250785,IT,ITC1,ITC11,001144,Marentino,1304,11.26941188,2020,IT_001144,geo,TRUE
IT_001145,7.057422249661661,44.9512138917559,IT,ITC1,ITC11,001145,Massello,53,38.27282643,2020,IT_001145,geo,TRUE
IT_001146,7.5405862044481795,45.2555770656873,IT,ITC1,ITC11,001146,Mathi,3889,7.07855834,2020,IT_001146,geo,TRUE
IT_001147,7.113782783423405,45.11796801977211,IT,ITC1,ITC11,001147,Mattie,663,28.71161881,2020,IT_001147,geo,TRUE
IT_001148,7.936767190425501,45.2927380899186,IT,ITC1,ITC11,001148,Mazzè,4194,27.36037068,2020,IT_001148,geo,TRUE
IT_001149,7.067027915936471,45.12253456127517,IT,ITC1,ITC11,001149,Meana di Susa,827,16.55810503,2020,IT_001149,geo,TRUE
IT_001150,7.871012307050529,45.357682366211996,IT,ITC1,ITC11,001150,Mercenasco,1269,12.65275925,2020,IT_001150,geo,TRUE
IT_001152,7.397066076163969,45.292609692245364,IT,ITC1,ITC11,001152,Mezzenile,761,29.0954973,2020,IT_001152,geo,TRUE
IT_001153,7.9157742543056475,45.046123478808774,IT,ITC1,ITC11,001153,Mombello di Torino,379,4.09096409,2020,IT_001153,geo,TRUE
IT_001154,7.061426055332139,45.14495909645278,IT,ITC1,ITC11,001154,Mompantero,643,30.34071881,2020,IT_001154,geo,TRUE
IT_001155,7.435273897513136,45.301875589639465,IT,ITC1,ITC11,001155,Monastero di Lanzo,335,17.66798009,2020,IT_001155,geo,TRUE
IT_001156,7.677418319740319,45.00438804053795,IT,ITC1,ITC11,001156,Moncalieri,57465,47.55365421,2020,IT_001156,geo,TRUE
IT_001157,6.9810547137006465,45.204263789917114,IT,ITC1,ITC11,001157,Moncenisio,33,4.58670247,2020,IT_001157,geo,TRUE
IT_001158,7.8509302354300186,45.065692367052435,IT,ITC1,ITC11,001158,Montaldo Torinese,714,4.65715625,2020,IT_001158,geo,TRUE
IT_001159,7.840531489361816,45.335530407432366,IT,ITC1,ITC11,001159,Montalenghe,989,6.46751799,2020,IT_001159,geo,TRUE
IT_001160,7.860167601211398,45.490049537294304,IT,ITC1,ITC11,001160,Montalto Dora,3380,7.3635589,2020,IT_001160,geo,TRUE
IT_001161,7.856816655528052,45.233324341449276,IT,ITC1,ITC11,001161,Montanaro,5212,20.90239648,2020,IT_001161,geo,TRUE
IT_001162,8.014180825446207,45.14985992983046,IT,ITC1,ITC11,001162,Monteu da Po,840,7.38661005,2020,IT_001162,geo,TRUE
IT_001163,7.939597578339203,45.0368695998583,IT,ITC1,ITC11,001163,Moriondo Torinese,852,6.49494774,2020,IT_001163,geo,TRUE
IT_001164,7.645893599479961,44.99761266681664,IT,ITC1,ITC11,001164,Nichelino,47508,20.58053601,2020,IT_001164,geo,TRUE
IT_001165,7.311005761325839,45.456093524462794,IT,ITC1,ITC11,001165,Noasca,110,78.07624586,2020,IT_001165,geo,TRUE
IT_001166,7.570471583147678,45.244529887498196,IT,ITC1,ITC11,001166,Nole,6838,11.37177244,2020,IT_001166,geo,TRUE
IT_001167,7.858746673174093,45.536596796001696,IT,ITC1,ITC11,001167,Nomaglio,295,3.0779695,2020,IT_001167,geo,TRUE
IT_001168,7.539960238714941,44.93319983755147,IT,ITC1,ITC11,001168,None,7948,24.66974632,2020,IT_001168,geo,TRUE
IT_001169,7.019433752047826,45.18645783455292,IT,ITC1,ITC11,001169,Novalesa,526,28.68699213,2020,IT_001169,geo,TRUE
IT_001170,7.687871993323757,45.34039920215973,IT,ITC1,ITC11,001170,Oglianico,1460,6.30301902,2020,IT_001170,geo,TRUE
IT_001171,7.53813435405603,45.00611264138577,IT,ITC1,ITC11,001171,Orbassano,23324,22.2097313,2020,IT_001171,geo,TRUE
IT_001172,7.862937260274619,45.32632573578919,IT,ITC1,ITC11,001172,Orio Canavese,767,7.14998987,2020,IT_001172,geo,TRUE
IT_001173,7.342890083849858,44.848500234885165,IT,ITC1,ITC11,001173,Osasco,1168,5.48591724,2020,IT_001173,geo,TRUE
IT_001174,7.605880947881014,44.86996521993008,IT,ITC1,ITC11,001174,Osasio,911,4.5788701,2020,IT_001174,geo,TRUE
IT_001175,6.828204300823676,45.03760223524864,IT,ITC1,ITC11,001175,Oulx,3316,99.77025605,2020,IT_001175,geo,TRUE
IT_001176,7.746037288003241,45.3487233808165,IT,ITC1,ITC11,001176,Ozegna,1192,5.40783746,2020,IT_001176,geo,TRUE
IT_001177,7.976408977942879,45.4590939676654,IT,ITC1,ITC11,001177,Palazzo Canavese,852,5.08689348,2020,IT_001177,geo,TRUE
IT_001178,7.584360862624628,44.8321149792755,IT,ITC1,ITC11,001178,Pancalieri,2046,15.88752277,2020,IT_001178,geo,TRUE
IT_001179,7.793878767750789,45.43019649273793,IT,ITC1,ITC11,001179,Parella,417,2.69224262,2020,IT_001179,geo,TRUE
IT_001180,7.836410242480152,45.07311415416762,IT,ITC1,ITC11,001180,Pavarolo,1127,4.41314793,2020,IT_001180,geo,TRUE
IT_001181,7.856126353523111,45.43770058858401,IT,ITC1,ITC11,001181,Pavone Canavese,3757,11.55735832,2020,IT_001181,geo,TRUE
IT_001183,7.751963619653992,45.01673340564988,IT,ITC1,ITC11,001183,Pecetto Torinese,4102,9.17713677,2020,IT_001183,geo,TRUE
IT_001184,7.194523616663959,44.95840645691526,IT,ITC1,ITC11,001184,Perosa Argentina,3169,26.097758,2020,IT_001184,geo,TRUE
IT_001185,7.8273308673762045,45.39672415734713,IT,ITC1,ITC11,001185,Perosa Canavese,527,4.70761966,2020,IT_001185,geo,TRUE
IT_001186,7.115581431671115,44.937268078510314,IT,ITC1,ITC11,001186,Perrero,624,63.20467886,2020,IT_001186,geo,TRUE
IT_001187,7.6389881650294464,45.35276811499539,IT,ITC1,ITC11,001187,Pertusio,746,4.00089808,2020,IT_001187,geo,TRUE
IT_001188,7.410581020366528,45.287811426070235,IT,ITC1,ITC11,001188,Pessinetto,617,5.34666401,2020,IT_001188,geo,TRUE
IT_001189,7.546708633525384,45.105922853011194,IT,ITC1,ITC11,001189,Pianezza,15534,16.46646689,2020,IT_001189,geo,TRUE
IT_001190,7.229543519225392,44.94325622597138,IT,ITC1,ITC11,001190,Pinasca,2918,34.72800314,2020,IT_001190,geo,TRUE
IT_001191,7.333952503291583,44.886132055931,IT,ITC1,ITC11,001191,Pinerolo,36178,50.35168221,2020,IT_001191,geo,TRUE
IT_001192,7.778409403317476,45.04041748551374,IT,ITC1,ITC11,001192,Pino Torinese,8415,21.83929327,2020,IT_001192,geo,TRUE
IT_001193,7.612477466657044,44.93173897317243,IT,ITC1,ITC11,001193,Piobesi Torinese,3856,19.66016485,2020,IT_001193,geo,TRUE
IT_001194,7.4683136994289825,44.98954645985275,IT,ITC1,ITC11,001194,Piossasco,18405,40.15859412,2020,IT_001194,geo,TRUE
IT_001195,7.426575418223167,44.91852270051469,IT,ITC1,ITC11,001195,Piscina,3350,9.91062861,2020,IT_001195,geo,TRUE
IT_001196,8.00478346670869,45.44486551738802,IT,ITC1,ITC11,001196,Piverone,1373,11.04513395,2020,IT_001196,geo,TRUE
IT_001197,7.844228059325916,44.919716555216645,IT,ITC1,ITC11,001197,Poirino,10293,75.66782898,2020,IT_001197,geo,TRUE
IT_001198,7.184264968586635,44.95740915847961,IT,ITC1,ITC11,001198,Pomaretto,986,8.56450627,2020,IT_001198,geo,TRUE
IT_001199,7.596111913380002,45.42091516481192,IT,ITC1,ITC11,001199,Pont-Canavese,3210,19.06400741,2020,IT_001199,geo,TRUE
IT_001200,7.27279436330684,44.88757783825716,IT,ITC1,ITC11,001200,Porte,1054,4.44687928,2020,IT_001200,geo,TRUE
IT_001201,6.946072422820192,45.01773921262261,IT,ITC1,ITC11,001201,Pragelato,770,89.21887619,2020,IT_001201,geo,TRUE
IT_001202,7.0489508526217515,44.889890210857125,IT,ITC1,ITC11,001202,Prali,248,72.647908760000007,2020,IT_001202,geo,TRUE
IT_001203,7.900125681451749,44.859135466673294,IT,ITC1,ITC11,001203,Pralormo,1908,29.8636781,2020,IT_001203,geo,TRUE
IT_001204,7.201199765778829,44.90845434153484,IT,ITC1,ITC11,001204,Pramollo,217,22.47926053,2020,IT_001204,geo,TRUE
IT_001205,7.287361756015716,44.87015146603733,IT,ITC1,ITC11,001205,Prarostino,1270,10.5138604,2020,IT_001205,geo,TRUE
IT_001206,7.620277027210476,45.365430514632024,IT,ITC1,ITC11,001206,Prascorsano,731,6.24521471,2020,IT_001206,geo,TRUE
IT_001207,7.598038278670641,45.35010955617662,IT,ITC1,ITC11,001207,Pratiglione,481,7.89112533,2020,IT_001207,geo,TRUE
IT_001208,7.783645448845689,45.426170446283585,IT,ITC1,ITC11,001208,Quagliuzzo,330,2.0340461,2020,IT_001208,geo,TRUE
IT_001209,7.833317146907008,45.52274877968455,IT,ITC1,ITC11,001209,Quassolo,352,3.96319666,2020,IT_001209,geo,TRUE
IT_001210,7.8061888563556945,45.56109772264667,IT,ITC1,ITC11,001210,Quincinetto,1029,17.80139631,2020,IT_001210,geo,TRUE
IT_001211,7.431650806158183,45.052910553965006,IT,ITC1,ITC11,001211,Reano,1776,6.66735712,2020,IT_001211,geo,TRUE
IT_001212,7.493220993284926,45.44192743836242,IT,ITC1,ITC11,001212,Ribordone,49,43.629607,2020,IT_001212,geo,TRUE
IT_001213,7.885536979322012,45.11668421907373,IT,ITC1,ITC11,001213,Rivalba,1162,10.83075263,2020,IT_001213,geo,TRUE
IT_001214,7.52503202821662,45.021195584951066,IT,ITC1,ITC11,001214,Rivalta di Torino,20267,25.13553642,2020,IT_001214,geo,TRUE
IT_001215,7.87063492699055,44.98326478225651,IT,ITC1,ITC11,001215,Riva presso Chieri,4765,35.8592397,2020,IT_001215,geo,TRUE
IT_001216,7.6302539507165585,45.33371689554095,IT,ITC1,ITC11,001216,Rivara,2537,12.57605516,2020,IT_001216,geo,TRUE
IT_001217,7.7217355846906495,45.32984281522953,IT,ITC1,ITC11,001217,Rivarolo Canavese,12511,32.26919155,2020,IT_001217,geo,TRUE
IT_001218,7.714144920200958,45.249831516036956,IT,ITC1,ITC11,001218,Rivarossa,1577,10.87560228,2020,IT_001218,geo,TRUE
IT_001219,7.530670573262079,45.07165487943834,IT,ITC1,ITC11,001219,Rivoli,48472,29.51746681,2020,IT_001219,geo,TRUE
IT_001220,7.566314963466022,45.19859296892604,IT,ITC1,ITC11,001220,Robassomero,3031,8.57051276,2020,IT_001220,geo,TRUE
IT_001221,7.5784865895797875,45.306634136771706,IT,ITC1,ITC11,001221,Rocca Canavese,1716,14.1960508,2020,IT_001221,geo,TRUE
IT_001222,7.332548195000194,44.92176457965492,IT,ITC1,ITC11,001222,Roletto,2026,9.71408531,2020,IT_001222,geo,TRUE
IT_001223,7.8685349436754155,45.38778640308313,IT,ITC1,ITC11,001223,Romano Canavese,2665,11.21295233,2020,IT_001223,geo,TRUE
IT_001224,7.538490186195803,45.498838461734486,IT,ITC1,ITC11,001224,Ronco Canavese,299,96.31810242,2020,IT_001224,geo,TRUE
IT_001225,7.961279677138742,45.24591729119094,IT,ITC1,ITC11,001225,Rondissone,1883,10.70386045,2020,IT_001225,geo,TRUE
IT_001226,7.196865975697034,44.79292347711456,IT,ITC1,ITC11,001226,Rorà,231,12.41498742,2020,IT_001226,geo,TRUE
IT_001227,7.127843581278809,45.00592074385971,IT,ITC1,ITC11,001227,Roure,789,59.38759606,2020,IT_001227,geo,TRUE
IT_001228,7.464340215821157,45.07258540212039,IT,ITC1,ITC11,001228,Rosta,5043,9.06492126,2020,IT_001228,geo,TRUE
IT_001229,7.3819998728643315,45.13834265096104,IT,ITC1,ITC11,001229,Rubiana,2385,26.95471372,2020,IT_001229,geo,TRUE
IT_001230,7.758685037704674,45.46720716083685,IT,ITC1,ITC11,001230,Rueglio,785,15.10984315,2020,IT_001230,geo,TRUE
IT_001231,7.686897199045407,45.35738362839572,IT,ITC1,ITC11,001231,Salassa,1842,4.95493627,2020,IT_001231,geo,TRUE
IT_001232,6.882425867815475,45.07098790593803,IT,ITC1,ITC11,001232,Salbertrand,623,38.32306239,2020,IT_001232,geo,TRUE
IT_001233,7.846279479757483,45.455646890667964,IT,ITC1,ITC11,001233,Salerano Canavese,468,2.10534089,2020,IT_001233,geo,TRUE
IT_001234,7.058281761133292,44.938024848172745,IT,ITC1,ITC11,001234,Salza di Pinerolo,75,15.88395576,2020,IT_001234,geo,TRUE
IT_001235,7.846083532746282,45.450130604611175,IT,ITC1,ITC11,001235,Samone,1532,2.43955252,2020,IT_001235,geo,TRUE
IT_001236,7.78340369959495,45.224604193438985,IT,ITC1,ITC11,001236,San Benigno Canavese,6024,22.233663,2020,IT_001236,geo,TRUE
IT_001237,7.607911535749038,45.24487468747,IT,ITC1,ITC11,001237,San Carlo Canavese,4012,20.91342786,2020,IT_001237,geo,TRUE
IT_001238,7.621931037011337,45.38297585372615,IT,ITC1,ITC11,001238,San Colombano Belmonte,348,3.38447764,2020,IT_001238,geo,TRUE
IT_001239,7.214719563891529,45.136080118850586,IT,ITC1,ITC11,001239,San Didero,524,3.3060814,2020,IT_001239,geo,TRUE
IT_001240,7.652150365405993,45.22877072847941,IT,ITC1,ITC11,001240,San Francesco al Campo,4882,14.98667213,2020,IT_001240,geo,TRUE
IT_001241,7.44899208402709,45.026033485483374,IT,ITC1,ITC11,001241,Sangano,3729,6.65610367,2020,IT_001241,geo,TRUE
IT_001242,7.239715627391664,44.89888517423747,IT,ITC1,ITC11,001242,San Germano Chisone,1747,15.87019668,2020,IT_001242,geo,TRUE
IT_001243,7.532349404552852,45.13835897429805,IT,ITC1,ITC11,001243,San Gillio,3148,8.88476696,2020,IT_001243,geo,TRUE
IT_001244,7.796494685230058,45.33190282403032,IT,ITC1,ITC11,001244,San Giorgio Canavese,2565,20.41852183,2020,IT_001244,geo,TRUE
IT_001245,7.175785226782481,45.127927868665836,IT,ITC1,ITC11,001245,San Giorio di Susa,971,19.74166959,2020,IT_001245,geo,TRUE
IT_001246,7.809848034944147,45.313648579266236,IT,ITC1,ITC11,001246,San Giusto Canavese,3312,9.61287267,2020,IT_001246,geo,TRUE
IT_001247,7.814763076938857,45.39682913460733,IT,ITC1,ITC11,001247,San Martino Canavese,807,9.8008359,2020,IT_001247,geo,TRUE
IT_001248,7.628518613172161,45.213119200528325,IT,ITC1,ITC11,001248,San Maurizio Canavese,10335,17.34995675,2020,IT_001248,geo,TRUE
IT_001249,7.760340461584363,45.10524420185491,IT,ITC1,ITC11,001249,San Mauro Torinese,18908,12.56098281,2020,IT_001249,geo,TRUE
IT_001250,7.309649294499709,44.90751743870219,IT,ITC1,ITC11,001250,San Pietro Val Lemina,1426,12.44270722,2020,IT_001250,geo,TRUE
IT_001251,7.666644267208792,45.34715610251961,IT,ITC1,ITC11,001251,San Ponso,263,2.12927587,2020,IT_001251,geo,TRUE
IT_001252,7.849666878012231,45.146657427410545,IT,ITC1,ITC11,001252,San Raffaele Cimena,3107,11.16286237,2020,IT_001252,geo,TRUE
IT_001253,7.940453101304844,45.160085725070985,IT,ITC1,ITC11,001253,San Sebastiano da Po,1895,16.57983374,2020,IT_001253,geo,TRUE
IT_001254,7.303737637338882,44.8674217231676,IT,ITC1,ITC11,001254,San Secondo di Pinerolo,3645,12.57461763,2020,IT_001254,geo,TRUE
IT_001255,7.362173553727656,45.09738286462884,IT,ITC1,ITC11,001255,Sant'Ambrogio di Torino,4711,8.37270683,2020,IT_001255,geo,TRUE
IT_001256,7.2734255405015675,45.10447527305659,IT,ITC1,ITC11,001256,Sant'Antonino di Susa,4197,9.80780857,2020,IT_001256,geo,TRUE
IT_001257,7.774002485392986,44.94942035620224,IT,ITC1,ITC11,001257,Santena,10736,16.20265406,2020,IT_001257,geo,TRUE
IT_001258,6.85067290536884,44.93885363040169,IT,ITC1,ITC11,001258,Sauze di Cesana,245,78.35083749,2020,IT_001258,geo,TRUE
IT_001259,6.858858648612635,45.02862496319024,IT,ITC1,ITC11,001259,Sauze d'Oulx,1090,17.30025344,2020,IT_001259,geo,TRUE
IT_001260,7.471781590694257,44.89377190740926,IT,ITC1,ITC11,001260,Scalenghe,3267,31.69456003,2020,IT_001260,geo,TRUE
IT_001261,7.840865671072597,45.382901355795795,IT,ITC1,ITC11,001261,Scarmagno,826,8.03788323,2020,IT_001261,geo,TRUE
IT_001262,7.875542252286484,45.09898337212302,IT,ITC1,ITC11,001262,Sciolze,1455,11.36457577,2020,IT_001262,geo,TRUE
IT_001263,6.878270233930688,44.95778600041601,IT,ITC1,ITC11,001263,Sestriere,922,25.91743633,2020,IT_001263,geo,TRUE
IT_001264,7.990734700102349,45.40887806862289,IT,ITC1,ITC11,001264,Settimo Rottaro,468,6.06155734,2020,IT_001264,geo,TRUE
IT_001265,7.765621429089897,45.13743902590143,IT,ITC1,ITC11,001265,Settimo Torinese,46925,30.9979568,2020,IT_001265,geo,TRUE
IT_001266,7.831936371962441,45.550592945062625,IT,ITC1,ITC11,001266,Settimo Vittone,1542,23.27409974,2020,IT_001266,geo,TRUE
IT_001267,7.543464494695154,45.414831723639004,IT,ITC1,ITC11,001267,Sparone,962,29.68088765,2020,IT_001267,geo,TRUE
IT_001268,7.771873389753866,45.42209071233765,IT,ITC1,ITC11,001268,Strambinello,270,2.21722728,2020,IT_001268,geo,TRUE
IT_001269,7.886277144579798,45.38203342854459,IT,ITC1,ITC11,001269,Strambino,6198,22.47612992,2020,IT_001269,geo,TRUE
IT_001270,7.052274333839165,45.13450276719096,IT,ITC1,ITC11,001270,Susa,6173,10.99236525,2020,IT_001270,geo,TRUE
IT_001271,7.821545009249634,45.54329885479853,IT,ITC1,ITC11,001271,Tavagnasco,774,8.67732876,2020,IT_001271,geo,TRUE
IT_001272,7.661483710328605,45.06948028329864,IT,ITC1,ITC11,001272,Torino,870952,130.07754743,2020,IT_001272,geo,TRUE
IT_001273,7.9744426764738625,45.218500692920244,IT,ITC1,ITC11,001273,Torrazza Piemonte,2974,9.82957001,2020,IT_001273,geo,TRUE
IT_001274,7.76153605322541,45.39451330140843,IT,ITC1,ITC11,001274,Torre Canavese,604,5.46084423,2020,IT_001274,geo,TRUE
IT_001275,7.217626017164778,44.822748876754886,IT,ITC1,ITC11,001275,Torre Pellice,4543,21.10450117,2020,IT_001275,geo,TRUE
IT_001276,7.416001339752309,45.03487179557236,IT,ITC1,ITC11,001276,Trana,3814,16.40838686,2020,IT_001276,geo,TRUE
IT_001278,7.745279345660088,45.51191639864876,IT,ITC1,ITC11,001278,Traversella,322,39.4024562,2020,IT_001278,geo,TRUE
IT_001279,7.433935341104392,45.2686777087093,IT,ITC1,ITC11,001279,Traves,524,10.45694979,2020,IT_001279,geo,TRUE
IT_001280,7.742884381173236,44.98194158014249,IT,ITC1,ITC11,001280,Trofarello,10860,12.35207251,2020,IT_001280,geo,TRUE
IT_001281,7.013145585868661,45.04933153023751,IT,ITC1,ITC11,001281,Usseaux,189,37.97462025,2020,IT_001281,geo,TRUE
IT_001282,7.218374152619322,45.228406961560644,IT,ITC1,ITC11,001282,Usseglio,200,98.40035062,2020,IT_001282,geo,TRUE
IT_001283,7.289809047194342,45.10449467854347,IT,ITC1,ITC11,001283,Vaie,1418,7.22684324,2020,IT_001283,geo,TRUE
IT_001284,7.452316389368146,45.14917469396695,IT,ITC1,ITC11,001284,Val della Torre,3960,36.54779661,2020,IT_001284,geo,TRUE
IT_001285,7.345760811727409,45.070730150784044,IT,ITC1,ITC11,001285,Valgioie,928,9.12597011,2020,IT_001285,geo,TRUE
IT_001286,7.4956287236203005,45.225761665924956,IT,ITC1,ITC11,001286,Vallo Torinese,792,6.07862082,2020,IT_001286,geo,TRUE
IT_001287,7.661281788772803,45.37221819262059,IT,ITC1,ITC11,001287,Valperga,3026,11.91537456,2020,IT_001287,geo,TRUE
IT_001288,7.552770259337147,45.52948126621696,IT,ITC1,ITC11,001288,Valprato Soana,95,71.89128193,2020,IT_001288,geo,TRUE
IT_001289,7.4891882772846,45.208744189269,IT,ITC1,ITC11,001289,Varisella,851,22.57352621,2020,IT_001289,geo,TRUE
IT_001290,7.629932148084836,45.27618426109259,IT,ITC1,ITC11,001290,Vauda Canavese,1452,7.10261262,2020,IT_001290,geo,TRUE
IT_001291,7.009064235855719,45.158178406380664,IT,ITC1,ITC11,001291,Venaus,880,19.21894691,2020,IT_001291,geo,TRUE
IT_001292,7.633798287152591,45.12645953049104,IT,ITC1,ITC11,001292,Venaria Reale,33249,20.44629631,2020,IT_001292,geo,TRUE
IT_001293,7.974435383875632,45.1941223754784,IT,ITC1,ITC11,001293,Verolengo,4846,29.50312522,2020,IT_001293,geo,TRUE
IT_001294,8.098847224358511,45.16978814434602,IT,ITC1,ITC11,001294,Verrua Savoia,1389,31.96565156,2020,IT_001294,geo,TRUE
IT_001295,7.953334319835864,45.38819425668503,IT,ITC1,ITC11,001295,Vestignè,802,12.07355831,2020,IT_001295,geo,TRUE
IT_001296,7.814175365226304,45.378179254161054,IT,ITC1,ITC11,001296,Vialfrè,248,4.64727108,2020,IT_001296,geo,TRUE
IT_001298,7.759324097624125,45.430702745886165,IT,ITC1,ITC11,001298,Vidracco,513,2.96963398,2020,IT_001298,geo,TRUE
IT_001299,7.49504290457968,44.84385594719545,IT,ITC1,ITC11,001299,Vigone,5131,41.16971198,2020,IT_001299,geo,TRUE
IT_001300,7.504149185570349,44.783880473202615,IT,ITC1,ITC11,001300,Villafranca Piemonte,4602,50.81962377,2020,IT_001300,geo,TRUE
IT_001301,7.5544533315550115,45.24540573922118,IT,ITC1,ITC11,001301,Villanova Canavese,1214,4.02977986,2020,IT_001301,geo,TRUE
IT_001302,7.471628162915933,45.04524496138277,IT,ITC1,ITC11,001302,Villarbasse,3482,10.41678015,2020,IT_001302,geo,TRUE
IT_001303,7.381160862105038,45.116236607733015,IT,ITC1,ITC11,001303,Villar Dora,2847,5.71023447,2020,IT_001303,geo,TRUE
IT_001304,7.981273671119024,45.30854699176799,IT,ITC1,ITC11,001304,Villareggia,1010,11.41696903,2020,IT_001304,geo,TRUE
IT_001305,7.232680132867128,45.11252070932835,IT,ITC1,ITC11,001305,Villar Focchiardo,1940,25.6927387,2020,IT_001305,geo,TRUE
IT_001306,7.1560737189927774,44.809244713749116,IT,ITC1,ITC11,001306,Villar Pellice,1056,60.29721519,2020,IT_001306,geo,TRUE
IT_001307,7.24950607601437,44.9181854290953,IT,ITC1,ITC11,001307,Villar Perosa,3990,11.42918098,2020,IT_001307,geo,TRUE
IT_001308,7.743249190665757,44.92268886151354,IT,ITC1,ITC11,001308,Villastellone,4624,19.88816764,2020,IT_001308,geo,TRUE
IT_001309,7.634417801051914,44.95140975934496,IT,ITC1,ITC11,001309,Vinovo,15245,17.69375481,2020,IT_001309,geo,TRUE
IT_001310,7.568959152923865,44.865527446616156,IT,ITC1,ITC11,001310,Virle Piemonte,1152,14.06386731,2020,IT_001310,geo,TRUE
IT_001311,7.947563471362652,45.33582579271479,IT,ITC1,ITC11,001311,Vische,1226,17.09155292,2020,IT_001311,geo,TRUE
IT_001312,7.768289856733221,45.43739350952265,IT,ITC1,ITC11,001312,Vistrorio,519,4.65823307,2020,IT_001312,geo,TRUE
IT_001313,7.375797178318836,45.23891103217823,IT,ITC1,ITC11,001313,Viù,1021,84.15147501,2020,IT_001313,geo,TRUE
IT_001314,7.77739749840819,45.199383527274904,IT,ITC1,ITC11,001314,Volpiano,15453,32.48447238,2020,IT_001314,geo,TRUE
IT_001315,7.514733223081163,44.95997373139393,IT,ITC1,ITC11,001315,Volvera,8520,21.00073664,2020,IT_001315,geo,TRUE
IT_001316,7.705420907618051,45.14885660196151,IT,ITC1,ITC11,001316,Mappano,7457,10.34944432,2020,IT_001316,geo,TRUE
IT_001317,7.77409772727404,45.45429581326284,IT,ITC1,ITC11,001317,Val di Chy,1276,13.8453967,2020,IT_001317,geo,TRUE
IT_001318,7.778052408085456,45.49436223502136,IT,ITC1,ITC11,001318,Valchiusa,1026,49.63156596,2020,IT_001318,geo,TRUE
IT_002002,7.938041379888215,45.84952800704885,IT,ITC1,ITC12,002002,Alagna Valsesia,727,133.22176956,2020,IT_002002,geo,TRUE
IT_002003,8.384320784846196,45.42434187737172,IT,ITC1,ITC12,002003,Albano Vercellese,309,13.79808227,2020,IT_002003,geo,TRUE
IT_002004,8.07528247639751,45.36642008898246,IT,ITC1,ITC12,002004,Alice Castello,2544,24.58394525,2020,IT_002004,geo,TRUE
IT_002006,8.384134167864596,45.49662770184518,IT,ITC1,ITC12,002006,Arborio,863,23.32891443,2020,IT_002006,geo,TRUE
IT_002007,8.406913284988262,45.26169662741252,IT,ITC1,ITC12,002007,Asigliano Vercellese,1420,26.33558549,2020,IT_002007,geo,TRUE
IT_002008,8.141960102241336,45.81756999892797,IT,ITC1,ITC12,002008,Balmuccia,115,9.7858822,2020,IT_002008,geo,TRUE
IT_002009,8.278941839218223,45.460842045770164,IT,ITC1,ITC12,002009,Balocco,217,16.8125619,2020,IT_002009,geo,TRUE
IT_002011,8.121640766752302,45.30810532325151,IT,ITC1,ITC12,002011,Bianzè,1876,41.82544789,2020,IT_002011,geo,TRUE
IT_002014,8.109770309097346,45.83581670330916,IT,ITC1,ITC12,002014,Boccioleto,170,33.89035562,2020,IT_002014,geo,TRUE
IT_002015,8.054503618161585,45.348126252027186,IT,ITC1,ITC12,002015,Borgo d'Ale,2320,39.60699243,2020,IT_002015,geo,TRUE
IT_002016,8.277828452560277,45.71759392148649,IT,ITC1,ITC12,002016,Borgosesia,12502,41.12005814,2020,IT_002016,geo,TRUE
IT_002017,8.464509527916995,45.35692196019231,IT,ITC1,ITC12,002017,Borgo Vercelli,2211,19.3126748,2020,IT_002017,geo,TRUE
IT_002021,8.26894695303293,45.479923065967235,IT,ITC1,ITC12,002021,Buronzo,849,25.0925196,2020,IT_002021,geo,TRUE
IT_002025,8.02848105995626,45.79829358059822,IT,ITC1,ITC12,002025,Campertogno,230,34.16696703,2020,IT_002025,geo,TRUE
IT_002029,8.049829073688976,45.90569221047581,IT,ITC1,ITC12,002029,Carcoforo,74,22.81662365,2020,IT_002029,geo,TRUE
IT_002030,8.506339548659886,45.219137284289616,IT,ITC1,ITC12,002030,Caresana,1038,24.13858163,2020,IT_002030,geo,TRUE
IT_002031,8.388045858231646,45.359272662566454,IT,ITC1,ITC12,002031,Caresanablot,1109,11.05164018,2020,IT_002031,geo,TRUE
IT_002032,8.198352742245246,45.4133545768948,IT,ITC1,ITC12,002032,Carisio,775,30.117438,2020,IT_002032,geo,TRUE
IT_002033,8.296934021499839,45.39865163769018,IT,ITC1,ITC12,002033,Casanova Elvo,210,16.20473242,2020,IT_002033,geo,TRUE
IT_002035,8.326306134944641,45.495534370913454,IT,ITC1,ITC12,002035,San Giacomo Vercellese,290,9.61694956,2020,IT_002035,geo,TRUE
IT_002041,8.154536235231573,45.88053684256842,IT,ITC1,ITC12,002041,Cervatto,58,9.54565708,2020,IT_002041,geo,TRUE
IT_002042,8.020630797688938,45.30978351137776,IT,ITC1,ITC12,002042,Cigliano,4371,25.32046254,2020,IT_002042,geo,TRUE
IT_002043,8.297102001570613,45.81052614528783,IT,ITC1,ITC12,002043,Civiasco,253,7.39447013,2020,IT_002043,geo,TRUE
IT_002045,8.348796106543373,45.39698910717559,IT,ITC1,ITC12,002045,Collobiano,88,9.23802645,2020,IT_002045,geo,TRUE
IT_002047,8.366405701537678,45.233344532118814,IT,ITC1,ITC12,002047,Costanzana,744,20.98971702,2020,IT_002047,geo,TRUE
IT_002048,8.21294897726808,45.851934328555316,IT,ITC1,ITC12,002048,Cravagliana,254,34.87465935,2020,IT_002048,geo,TRUE
IT_002049,8.100857850235677,45.19448018236827,IT,ITC1,ITC12,002049,Crescentino,7777,48.24496541,2020,IT_002049,geo,TRUE
IT_002052,8.213042515385817,45.33090177482122,IT,ITC1,ITC12,002052,Crova,408,14.02071414,2020,IT_002052,geo,TRUE
IT_002054,8.357369778148275,45.270135729415465,IT,ITC1,ITC12,002054,Desana,1066,16.48710349,2020,IT_002054,geo,TRUE
IT_002057,8.15511724453761,45.89697562784445,IT,ITC1,ITC12,002057,Fobello,186,28.15869311,2020,IT_002057,geo,TRUE
IT_002058,8.189293037349996,45.19586402992521,IT,ITC1,ITC12,002058,Fontanetto Po,1091,23.27007069,2020,IT_002058,geo,TRUE
IT_002059,8.291974786793686,45.43233578012272,IT,ITC1,ITC12,002059,Formigliana,487,16.77884121,2020,IT_002059,geo,TRUE
IT_002061,8.366652028724811,45.61409493985605,IT,ITC1,ITC12,002061,Gattinara,7771,33.69965336,2020,IT_002061,geo,TRUE
IT_002062,8.382874229385287,45.530078539446926,IT,ITC1,ITC12,002062,Ghislarengo,826,12.50940175,2020,IT_002062,geo,TRUE
IT_002065,8.385118040469347,45.451591327300434,IT,ITC1,ITC12,002065,Greggio,346,11.87456569,2020,IT_002065,geo,TRUE
IT_002066,8.251242408178248,45.69981611398652,IT,ITC1,ITC12,002066,Guardabosone,340,6.09497233,2020,IT_002066,geo,TRUE
IT_002067,8.097699752864267,45.23037386387681,IT,ITC1,ITC12,002067,Lamporo,521,9.65368228,2020,IT_002067,geo,TRUE
IT_002068,8.382065418844444,45.55676605790304,IT,ITC1,ITC12,002068,Lenta,813,18.98164057,2020,IT_002068,geo,TRUE
IT_002070,8.341677281166152,45.288591864822855,IT,ITC1,ITC12,002070,Lignana,545,22.595835,2020,IT_002070,geo,TRUE
IT_002071,8.080130722511253,45.28338978500311,IT,ITC1,ITC12,002071,Livorno Ferraris,4306,58.06018994,2020,IT_002071,geo,TRUE
IT_002072,8.321302607349319,45.62076267854797,IT,ITC1,ITC12,002072,Lozzolo,820,6.66676801,2020,IT_002072,geo,TRUE
IT_002078,8.027844884606367,45.81528836862983,IT,ITC1,ITC12,002078,Mollia,96,13.9294204,2020,IT_002078,geo,TRUE
IT_002079,7.995440125439997,45.32817247086317,IT,ITC1,ITC12,002079,Moncrivello,1385,20.19322318,2020,IT_002079,geo,TRUE
IT_002082,8.519995926161016,45.19207683690474,IT,ITC1,ITC12,002082,Motta de' Conti,746,11.7221907,2020,IT_002082,geo,TRUE
IT_002088,8.311331753441333,45.36055504891519,IT,ITC1,ITC12,002088,Olcenengo,797,16.51480922,2020,IT_002088,geo,TRUE
IT_002089,8.38400011059418,45.4053666467795,IT,ITC1,ITC12,002089,Oldenico,211,6.5334413,2020,IT_002089,geo,TRUE
IT_002090,8.230426753664869,45.18583822792863,IT,ITC1,ITC12,002090,Palazzolo Vercellese,1147,13.94778309,2020,IT_002090,geo,TRUE
IT_002091,8.416917281609514,45.23563075784307,IT,ITC1,ITC12,002091,Pertengo,289,8.30193258,2020,IT_002091,geo,TRUE
IT_002093,8.485379744269142,45.262938949900956,IT,ITC1,ITC12,002093,Pezzana,1291,17.37417237,2020,IT_002093,geo,TRUE
IT_002096,8.076754010321391,45.7707828886469,IT,ITC1,ITC12,002096,Pila,139,8.69145078,2020,IT_002096,geo,TRUE
IT_002097,8.053119070608144,45.771209584127135,IT,ITC1,ITC12,002097,Piode,183,13.61201244,2020,IT_002097,geo,TRUE
IT_002102,8.22675358469376,45.71536691318355,IT,ITC1,ITC12,002102,Postua,561,16.1964491,2020,IT_002102,geo,TRUE
IT_002104,8.476587230685768,45.28173592891595,IT,ITC1,ITC12,002104,Prarolo,712,11.54747307,2020,IT_002104,geo,TRUE
IT_002107,8.270779537766353,45.761485060284706,IT,ITC1,ITC12,002107,Quarona,3951,16.16812574,2020,IT_002107,geo,TRUE
IT_002108,8.361871118683242,45.37896179623132,IT,ITC1,ITC12,002108,Quinto Vercellese,382,10.89196292,2020,IT_002108,geo,TRUE
IT_002110,8.015841635349306,45.76962853699895,IT,ITC1,ITC12,002110,Rassa,62,43.29336764,2020,IT_002110,geo,TRUE
IT_002113,8.183281212375544,45.908175641173294,IT,ITC1,ITC12,002113,Rimella,132,26.29370816,2020,IT_002113,geo,TRUE
IT_002115,8.417499897162214,45.21459481052252,IT,ITC1,ITC12,002115,Rive,451,9.41120455,2020,IT_002115,geo,TRUE
IT_002116,8.288975818151046,45.60375799524057,IT,ITC1,ITC12,002116,Roasio,2347,27.94106456,2020,IT_002116,geo,TRUE
IT_002118,8.276484676747378,45.25153866831716,IT,ITC1,ITC12,002118,Ronsecco,551,24.47994604,2020,IT_002118,geo,TRUE
IT_002121,8.126691169864333,45.834696410326906,IT,ITC1,ITC12,002121,Rossa,175,11.85030198,2020,IT_002121,geo,TRUE
IT_002122,8.318067342224891,45.54027067647372,IT,ITC1,ITC12,002122,Rovasenda,928,29.29116213,2020,IT_002122,geo,TRUE
IT_002126,8.266031600208173,45.32340857327819,IT,ITC1,ITC12,002126,Salasco,220,12.1969434,2020,IT_002126,geo,TRUE
IT_002127,8.3256391427755,45.30636290816546,IT,ITC1,ITC12,002127,Sali Vercellese,102,8.78249948,2020,IT_002127,geo,TRUE
IT_002128,8.012682883757956,45.23830007094188,IT,ITC1,ITC12,002128,Saluggia,3883,31.62895797,2020,IT_002128,geo,TRUE
IT_002131,8.247914285536863,45.3501723047859,IT,ITC1,ITC12,002131,San Germano Vercellese,1522,30.63518201,2020,IT_002131,geo,TRUE
IT_002133,8.169900954142326,45.36708227729833,IT,ITC1,ITC12,002133,Santhià,8379,53.18120205,2020,IT_002133,geo,TRUE
IT_002134,8.113421510451897,45.79097833640514,IT,ITC1,ITC12,002134,Scopa,372,22.55237334,2020,IT_002134,geo,TRUE
IT_002135,8.093339782560191,45.77304597169174,IT,ITC1,ITC12,002135,Scopello,365,18.26356015,2020,IT_002135,geo,TRUE
IT_002137,8.310412197264192,45.68427253525911,IT,ITC1,ITC12,002137,Serravalle Sesia,4870,20.91936244,2020,IT_002137,geo,TRUE
IT_002142,8.455204532517113,45.22881882854666,IT,ITC1,ITC12,002142,Stroppiana,1180,18.32271203,2020,IT_002142,geo,TRUE
IT_002147,8.327827669147002,45.23428206070049,IT,ITC1,ITC12,002147,Tricerro,697,12.25557017,2020,IT_002147,geo,TRUE
IT_002148,8.29447614192994,45.1964067050113,IT,ITC1,ITC12,002148,Trino,6984,70.66806071,2020,IT_002148,geo,TRUE
IT_002150,8.172616737291916,45.340099493272724,IT,ITC1,ITC12,002150,Tronzano Vercellese,3430,44.79467709,2020,IT_002150,geo,TRUE
IT_002152,8.328460285480762,45.7293993822593,IT,ITC1,ITC12,002152,Valduggia,1933,28.44139632,2020,IT_002152,geo,TRUE
IT_002156,8.257660032277483,45.815312932428704,IT,ITC1,ITC12,002156,Varallo,7101,103.05358219,2020,IT_002156,geo,TRUE
IT_002158,8.420344994904319,45.32170650507775,IT,ITC1,ITC12,002158,Vercelli,46558,79.82141767,2020,IT_002158,geo,TRUE
IT_002163,8.33451964095872,45.442557317701926,IT,ITC1,ITC12,002163,Villarboit,410,25.54136327,2020,IT_002163,geo,TRUE
IT_002164,8.434868556517117,45.388566226451104,IT,ITC1,ITC12,002164,Villata,1554,14.59335395,2020,IT_002164,geo,TRUE
IT_002166,8.189264191687052,45.83420003086588,IT,ITC1,ITC12,002166,Vocca,160,20.26494585,2020,IT_002166,geo,TRUE
IT_002170,8.049670755249188,45.86865659699283,IT,ITC1,ITC12,002170,Alto Sermenza,151,60.36800668,2020,IT_002170,geo,TRUE
IT_002171,8.310985784187526,45.75411297545168,IT,ITC1,ITC12,002171,Cellio con Breia,969,17.28435481,2020,IT_002171,geo,TRUE
IT_003001,8.560520999787956,45.67710281874098,IT,ITC1,ITC15,003001,Agrate Conturbia,1572,14.54581661,2020,IT_003001,geo,TRUE
IT_003002,8.43854270699264,45.78623293166575,IT,ITC1,ITC15,003002,Ameno,958,10.00076876,2020,IT_003002,geo,TRUE
IT_003006,8.442195323446203,45.821784120189115,IT,ITC1,ITC15,003006,Armeno,2162,31.53611686,2020,IT_003006,geo,TRUE
IT_003008,8.555176489748943,45.75658771102984,IT,ITC1,ITC15,003008,Arona,13976,15.17940494,2020,IT_003008,geo,TRUE
IT_003012,8.51011879612239,45.552482709446956,IT,ITC1,ITC15,003012,Barengo,760,19.50612376,2020,IT_003012,geo,TRUE
IT_003016,8.642136553942047,45.57175403087759,IT,ITC1,ITC15,003016,Bellinzago Novarese,9545,39.21231057,2020,IT_003016,geo,TRUE
IT_003018,8.461768290641855,45.45254034964269,IT,ITC1,ITC15,003018,Biandrate,1296,12.46545582,2020,IT_003018,geo,TRUE
IT_003019,8.412904315550596,45.679399081349985,IT,ITC1,ITC15,003019,Boca,1152,9.62603981,2020,IT_003019,geo,TRUE
IT_003021,8.533625950530928,45.666860872001514,IT,ITC1,ITC15,003021,Bogogno,1275,8.5140007,2020,IT_003021,geo,TRUE
IT_003022,8.441033857585118,45.759826829104796,IT,ITC1,ITC15,003022,Bolzano Novarese,1170,3.30205442,2020,IT_003022,geo,TRUE
IT_003023,8.69592200419411,45.32055938906467,IT,ITC1,ITC15,003023,Borgolavezzaro,2009,21.10212992,2020,IT_003023,geo,TRUE
IT_003024,8.461590191208868,45.70004713479145,IT,ITC1,ITC15,003024,Borgomanero,21715,32.28924522,2020,IT_003024,geo,TRUE
IT_003025,8.602138527680523,45.68833083098023,IT,ITC1,ITC15,003025,Borgo Ticino,5222,13.37965915,2020,IT_003025,geo,TRUE
IT_003026,8.454033834090843,45.731758470707184,IT,ITC1,ITC15,003026,Briga Novarese,2818,4.74236865,2020,IT_003026,geo,TRUE
IT_003027,8.477435132449411,45.54273836824162,IT,ITC1,ITC15,003027,Briona,1121,24.77067309,2020,IT_003027,geo,TRUE
IT_003030,8.585233781525657,45.52084495608075,IT,ITC1,ITC15,003030,Caltignaga,2504,22.33718486,2020,IT_003030,geo,TRUE
IT_003032,8.663017952849252,45.50071952796289,IT,ITC1,ITC15,003032,Cameri,10868,40.00470244,2020,IT_003032,geo,TRUE
IT_003036,8.420929330546064,45.533195001348034,IT,ITC1,ITC15,003036,Carpignano Sesia,2510,14.6596018,2020,IT_003036,geo,TRUE
IT_003037,8.464070932637616,45.435629351394944,IT,ITC1,ITC15,003037,Casalbeltrame,974,16.044008,2020,IT_003037,geo,TRUE
IT_003039,8.491487380585303,45.489043999765265,IT,ITC1,ITC15,003039,Casaleggio Novara,911,10.53579231,2020,IT_003039,geo,TRUE
IT_003040,8.537795191054125,45.39436092917223,IT,ITC1,ITC15,003040,Casalino,1531,39.52983963,2020,IT_003040,geo,TRUE
IT_003041,8.46327122451606,45.398628391811684,IT,ITC1,ITC15,003041,Casalvolone,888,17.49926631,2020,IT_003041,geo,TRUE
IT_003042,8.485538224327598,45.51401294063232,IT,ITC1,ITC15,003042,Castellazzo Novarese,324,10.79251541,2020,IT_003042,geo,TRUE
IT_003043,8.633393295670784,45.71292446270493,IT,ITC1,ITC15,003043,Castelletto sopra Ticino,9902,14.65617009,2020,IT_003043,geo,TRUE
IT_003044,8.498505353790327,45.60520719153368,IT,ITC1,ITC15,003044,Cavaglietto,389,6.49542104,2020,IT_003044,geo,TRUE
IT_003045,8.483020394132488,45.612829520226605,IT,ITC1,ITC15,003045,Cavaglio d'Agogna,1185,9.83399068,2020,IT_003045,geo,TRUE
IT_003047,8.398705979008922,45.6630453219429,IT,ITC1,ITC15,003047,Cavallirio,1314,8.33229048,2020,IT_003047,geo,TRUE
IT_003049,8.781497505615164,45.411417556979366,IT,ITC1,ITC15,003049,Cerano,6785,32.65179009,2020,IT_003049,geo,TRUE
IT_003051,8.497444726001941,45.787349383591426,IT,ITC1,ITC15,003051,Colazza,467,3.16422518,2020,IT_003051,geo,TRUE
IT_003052,8.565386069378834,45.71541956787956,IT,ITC1,ITC15,003052,Comignago,1245,4.45404236,2020,IT_003052,geo,TRUE
IT_003055,8.506318614682442,45.64797393365667,IT,ITC1,ITC15,003055,Cressa,1608,7.11269228,2020,IT_003055,geo,TRUE
IT_003058,8.45578267537331,45.67453895472415,IT,ITC1,ITC15,003058,Cureggio,2594,8.51025489,2020,IT_003058,geo,TRUE
IT_003060,8.596910019451693,45.661798086599866,IT,ITC1,ITC15,003060,Divignano,1402,5.10629522,2020,IT_003060,geo,TRUE
IT_003062,8.57101092530601,45.73388895992728,IT,ITC1,ITC15,003062,Dormelletto,2573,7.2562387,2020,IT_003062,geo,TRUE
IT_003065,8.458860421311982,45.552202719765425,IT,ITC1,ITC15,003065,Fara Novarese,2027,9.22732183,2020,IT_003065,geo,TRUE
IT_003066,8.483237659726395,45.64267303092694,IT,ITC1,ITC15,003066,Fontaneto d'Agogna,2620,21.18845147,2020,IT_003066,geo,TRUE
IT_003068,8.696349783903345,45.47772619113958,IT,ITC1,ITC15,003068,Galliate,15722,29.39677342,2020,IT_003068,geo,TRUE
IT_003069,8.657513247311115,45.388685781759015,IT,ITC1,ITC15,003069,Garbagna Novarese,1424,10.06502359,2020,IT_003069,geo,TRUE
IT_003070,8.428353132514975,45.724942814752275,IT,ITC1,ITC15,003070,Gargallo,1775,3.75432859,2020,IT_003070,geo,TRUE
IT_003073,8.419404282034035,45.59737567722524,IT,ITC1,ITC15,003073,Ghemme,3467,20.65744415,2020,IT_003073,geo,TRUE
IT_003076,8.434337507076009,45.74690233148354,IT,ITC1,ITC15,003076,Gozzano,5541,12.59690985,2020,IT_003076,geo,TRUE
IT_003077,8.580341662107815,45.36434540365175,IT,ITC1,ITC15,003077,Granozzo con Monticello,1345,19.54720339,2020,IT_003077,geo,TRUE
IT_003079,8.341897053154359,45.68486788487786,IT,ITC1,ITC15,003079,Grignasco,4379,14.33954679,2020,IT_003079,geo,TRUE
IT_003082,8.489092669208786,45.75713473681125,IT,ITC1,ITC15,003082,Invorio,4328,17.38862871,2020,IT_003082,geo,TRUE
IT_003083,8.42215858506529,45.497137673067186,IT,ITC1,ITC15,003083,Landiona,547,7.28798629,2020,IT_003083,geo,TRUE
IT_003084,8.557682117011664,45.82349013943256,IT,ITC1,ITC15,003084,Lesa,2212,13.59099967,2020,IT_003084,geo,TRUE
IT_003088,8.42208550564007,45.687787852460346,IT,ITC1,ITC15,003088,Maggiora,1639,10.66349415,2020,IT_003088,geo,TRUE
IT_003090,8.460649412699961,45.4978496413844,IT,ITC1,ITC15,003090,Mandello Vitta,227,5.86471627,2020,IT_003090,geo,TRUE
IT_003091,8.635086596522676,45.62687309055965,IT,ITC1,ITC15,003091,Marano Ticino,1639,7.80009914,2020,IT_003091,geo,TRUE
IT_003093,8.540889319813514,45.82367630109575,IT,ITC1,ITC15,003093,Massino Visconti,1107,6.87233285,2020,IT_003093,geo,TRUE
IT_003095,8.533831016103756,45.78778117587834,IT,ITC1,ITC15,003095,Meina,2441,7.54689002,2020,IT_003095,geo,TRUE
IT_003097,8.604761717349893,45.61782789444529,IT,ITC1,ITC15,003097,Mezzomerico,1237,7.72323301,2020,IT_003097,geo,TRUE
IT_003098,8.425185466570339,45.8060902664875,IT,ITC1,ITC15,003098,Miasino,787,5.52312757,2020,IT_003098,geo,TRUE
IT_003100,8.554154102885084,45.57249758353318,IT,ITC1,ITC15,003100,Momo,2481,23.61174367,2020,IT_003100,geo,TRUE
IT_003103,8.519326933629104,45.80319784743506,IT,ITC1,ITC15,003103,Nebbiuno,1797,8.26098765,2020,IT_003103,geo,TRUE
IT_003104,8.655845036471048,45.37365867604296,IT,ITC1,ITC15,003104,Nibbiola,814,11.34275708,2020,IT_003104,geo,TRUE
IT_003106,8.618720510220395,45.44304301529476,IT,ITC1,ITC15,003106,Novara,103985,103.12020481,2020,IT_003106,geo,TRUE
IT_003108,8.639080958950178,45.5972404355943,IT,ITC1,ITC15,003108,Oleggio,14238,37.81546713,2020,IT_003108,geo,TRUE
IT_003109,8.530278130618273,45.74793129014015,IT,ITC1,ITC15,003109,Oleggio Castello,2174,5.92895386,2020,IT_003109,geo,TRUE
IT_003112,8.417070451088417,45.79230618291198,IT,ITC1,ITC15,003112,Orta San Giulio,1341,6.66529264,2020,IT_003112,geo,TRUE
IT_003114,8.516214460039828,45.748889869251386,IT,ITC1,ITC15,003114,Paruzzaro,2173,5.23612118,2020,IT_003114,geo,TRUE
IT_003115,8.385052284270468,45.79978866722851,IT,ITC1,ITC15,003115,Pella,928,8.11317748,2020,IT_003115,geo,TRUE
IT_003116,8.409895789912008,45.822006779902914,IT,ITC1,ITC15,003116,Pettenasco,1350,7.07476592,2020,IT_003116,geo,TRUE
IT_003119,8.511302496938322,45.79378176537327,IT,ITC1,ITC15,003119,Pisano,814,2.7728281,2020,IT_003119,geo,TRUE
IT_003120,8.386952627079458,45.75847319780778,IT,ITC1,ITC15,003120,Pogno,1381,9.87185255,2020,IT_003120,geo,TRUE
IT_003121,8.633481286830465,45.65340559284068,IT,ITC1,ITC15,003121,Pombia,2140,12.30595609,2020,IT_003121,geo,TRUE
IT_003122,8.372496665679888,45.65096461272548,IT,ITC1,ITC15,003122,Prato Sesia,1868,12.1340761,2020,IT_003122,geo,TRUE
IT_003129,8.435831687527681,45.46106209474033,IT,ITC1,ITC15,003129,Recetto,945,8.85826349,2020,IT_003129,geo,TRUE
IT_003130,8.387522809213454,45.63193100267142,IT,ITC1,ITC15,003130,Romagnano Sesia,3860,18.00062902,2020,IT_003130,geo,TRUE
IT_003131,8.717388015391952,45.46459813319516,IT,ITC1,ITC15,003131,Romentino,5598,17.69591562,2020,IT_003131,geo,TRUE
IT_003133,8.39400413519457,45.775529767092436,IT,ITC1,ITC15,003133,San Maurizio d'Opaglio,3039,8.54406613,2020,IT_003133,geo,TRUE
IT_003134,8.423779854813134,45.440376338072454,IT,ITC1,ITC15,003134,San Nazzaro Sesia,740,11.46202435,2020,IT_003134,geo,TRUE
IT_003135,8.548169435235769,45.46656593495122,IT,ITC1,ITC15,003135,San Pietro Mosezzo,1958,34.92469791,2020,IT_003135,geo,TRUE
IT_003138,8.439148810794011,45.52119516163954,IT,ITC1,ITC15,003138,Sillavengo,554,9.54929067,2020,IT_003138,geo,TRUE
IT_003139,8.432722586030788,45.57785635477639,IT,ITC1,ITC15,003139,Sizzano,1407,10.7570867,2020,IT_003139,geo,TRUE
IT_003140,8.41097497449852,45.74019412992051,IT,ITC1,ITC15,003140,Soriso,747,6.38297565,2020,IT_003140,geo,TRUE
IT_003141,8.718965295959617,45.3991510373311,IT,ITC1,ITC15,003141,Sozzago,1078,12.92404658,2020,IT_003141,geo,TRUE
IT_003143,8.538055468785739,45.62901981746249,IT,ITC1,ITC15,003143,Suno,2731,21.33410013,2020,IT_003143,geo,TRUE
IT_003144,8.693392956135288,45.37467100213229,IT,ITC1,ITC15,003144,Terdobbiate,467,8.46273784,2020,IT_003144,geo,TRUE
IT_003146,8.71948435536589,45.35685994988014,IT,ITC1,ITC15,003146,Tornaco,921,13.25455747,2020,IT_003146,geo,TRUE
IT_003149,8.738761192064095,45.43315444297677,IT,ITC1,ITC15,003149,Trecate,20712,38.27114817,2020,IT_003149,geo,TRUE
IT_003153,8.555963298252745,45.60415850121926,IT,ITC1,ITC15,003153,Vaprio d'Agogna,976,10.03582254,2020,IT_003153,geo,TRUE
IT_003154,8.630817594430354,45.66711488630566,IT,ITC1,ITC15,003154,Varallo Pombia,4922,13.61860845,2020,IT_003154,geo,TRUE
IT_003158,8.668522575346273,45.347942553639434,IT,ITC1,ITC15,003158,Vespolate,2028,17.79561485,2020,IT_003158,geo,TRUE
IT_003159,8.460800999258726,45.47931515075158,IT,ITC1,ITC15,003159,Vicolungo,867,13.30928298,2020,IT_003159,geo,TRUE
IT_003164,8.49790491895964,45.32605960644808,IT,ITC1,ITC15,003164,Vinzaglio,546,15.46908194,2020,IT_003164,geo,TRUE
IT_003166,8.51762892311176,45.702682825960565,IT,ITC1,ITC15,003166,Gattico-Veruno,5271,26.1825169,2020,IT_003166,geo,TRUE
IT_004001,6.9903551267056185,44.474204279356066,IT,ITC1,ITC16,004001,Acceglio,156,151.25496817,2020,IT_004001,geo,TRUE
IT_004002,7.216739540926975,44.31150150019797,IT,ITC1,ITC16,004002,Aisone,216,36.93919384,2020,IT_004002,geo,TRUE
IT_004003,8.027416287838916,44.693174807741904,IT,ITC1,ITC16,004003,Alba,31609,53.62213007,2020,IT_004003,geo,TRUE
IT_004004,8.061988281801687,44.5974227181385,IT,ITC1,ITC16,004004,Albaretto della Torre,231,4.59306067,2020,IT_004004,geo,TRUE
IT_004005,7.999609545912379,44.11026366979037,IT,ITC1,ITC16,004005,Alto,137,7.46260034,2020,IT_004005,geo,TRUE
IT_004006,6.969923749427611,44.3797938397861,IT,ITC1,ITC16,004006,Argentera,76,76.42859014,2020,IT_004006,geo,TRUE
IT_004007,8.097454220991958,44.58769578192427,IT,ITC1,ITC16,004007,Arguello,200,4.92027371,2020,IT_004007,geo,TRUE
IT_004008,8.041299090536965,44.30011450483115,IT,ITC1,ITC16,004008,Bagnasco,1017,30.96616199,2020,IT_004008,geo,TRUE
IT_004009,7.312240862716339,44.762193504823465,IT,ITC1,ITC16,004009,Bagnolo Piemonte,5900,63.27977973,2020,IT_004009,geo,TRUE
IT_004010,7.912114561822129,44.7578274385575,IT,ITC1,ITC16,004010,Baldissero d'Alba,1066,15.32967679,2020,IT_004010,geo,TRUE
IT_004011,8.078470338551346,44.71902167095444,IT,ITC1,ITC16,004011,Barbaresco,615,7.76455254,2020,IT_004011,geo,TRUE
IT_004012,7.3312480527400705,44.72863472889001,IT,ITC1,ITC16,004012,Barge,7549,82.02361921,2020,IT_004012,geo,TRUE
IT_004013,7.943209308191777,44.614424287242976,IT,ITC1,ITC16,004013,Barolo,680,5.69463704,2020,IT_004013,geo,TRUE
IT_004014,7.889936382913106,44.44573568840078,IT,ITC1,ITC16,004014,Bastia Mondovì,643,12.00924748,2020,IT_004014,geo,TRUE
IT_004015,8.008432004281623,44.31939216052717,IT,ITC1,ITC16,004015,Battifollo,219,11.12639659,2020,IT_004015,geo,TRUE
IT_004016,7.643460336445422,44.364430154247984,IT,ITC1,ITC16,004016,Beinette,3461,17.69380656,2020,IT_004016,geo,TRUE
IT_004017,7.024089268096808,44.58274607985392,IT,ITC1,ITC16,004017,Bellino,101,62.20680987,2020,IT_004017,geo,TRUE
IT_004018,7.973499000857832,44.49545155983253,IT,ITC1,ITC16,004018,Belvedere Langhe,352,5.00796562,2020,IT_004018,geo,TRUE
IT_004019,7.829348563873991,44.53984351429272,IT,ITC1,ITC16,004019,Bene Vagienna,3663,49.09301391,2020,IT_004019,geo,TRUE
IT_004020,8.105842651376154,44.62964993321078,IT,ITC1,ITC16,004020,Benevello,481,5.43073642,2020,IT_004020,geo,TRUE
IT_004021,8.184797237758804,44.54678830065931,IT,ITC1,ITC16,004021,Bergolo,56,3.11111546,2020,IT_004021,geo,TRUE
IT_004022,7.446330694791535,44.388858207655595,IT,ITC1,ITC16,004022,Bernezzo,4170,25.85880374,2020,IT_004022,geo,TRUE
IT_004023,8.028637390409925,44.507119540372365,IT,ITC1,ITC16,004023,Bonvicino,100,7.24060351,2020,IT_004023,geo,TRUE
IT_004024,8.118348650797955,44.63175139144029,IT,ITC1,ITC16,004024,Borgomale,378,8.48614462,2020,IT_004024,geo,TRUE
IT_004025,7.48948472907903,44.33421044093868,IT,ITC1,ITC16,004025,Borgo San Dalmazzo,12426,22.35570576,2020,IT_004025,geo,TRUE
IT_004026,8.145547312435891,44.599927497350485,IT,ITC1,ITC16,004026,Bosia,174,5.54508058,2020,IT_004026,geo,TRUE
IT_004027,8.048131030982466,44.52797418001256,IT,ITC1,ITC16,004027,Bossolasco,636,14.54972483,2020,IT_004027,geo,TRUE
IT_004028,7.5524856488049465,44.32883801499209,IT,ITC1,ITC16,004028,Boves,9717,50.97529683,2020,IT_004028,geo,TRUE
IT_004029,7.8478038213598635,44.698146297193794,IT,ITC1,ITC16,004029,Bra,29852,59.57096116,2020,IT_004029,geo,TRUE
IT_004030,7.876506006166364,44.39653365566397,IT,ITC1,ITC16,004030,Briaglia,298,6.24178222,2020,IT_004030,geo,TRUE
IT_004031,7.72455748078404,44.13141879653787,IT,ITC1,ITC16,004031,Briga Alta,42,52.42595836,2020,IT_004031,geo,TRUE
IT_004032,7.40329309018559,44.60224883806438,IT,ITC1,ITC16,004032,Brondello,279,10.12719294,2020,IT_004032,geo,TRUE
IT_004033,7.359635865864961,44.56759908888165,IT,ITC1,ITC16,004033,Brossasco,1025,28.06502384,2020,IT_004033,geo,TRUE
IT_004034,7.479484670609044,44.51170506454497,IT,ITC1,ITC16,004034,Busca,10164,76.79515717,2020,IT_004034,geo,TRUE
IT_004035,8.143475895984366,44.440546978783395,IT,ITC1,ITC16,004035,Camerana,591,23.65075111,2020,IT_004035,geo,TRUE
IT_004037,7.993470490313811,44.795801911886514,IT,ITC1,ITC16,004037,Canale,5560,17.87379842,2020,IT_004037,geo,TRUE
IT_004038,7.082324674792226,44.45730608398537,IT,ITC1,ITC16,004038,Canosio,78,48.45747904,2020,IT_004038,geo,TRUE
IT_004039,7.9493931097704476,44.11804498334785,IT,ITC1,ITC16,004039,Caprauna,92,11.50801541,2020,IT_004039,geo,TRUE
IT_004040,7.439887483855036,44.4275986786036,IT,ITC1,ITC16,004040,Caraglio,6801,41.6915912,2020,IT_004040,geo,TRUE
IT_004041,7.736238847906977,44.781554157389344,IT,ITC1,ITC16,004041,Caramagna Piemonte,3057,26.33348691,2020,IT_004041,geo,TRUE
IT_004042,7.475348410994537,44.74337515122794,IT,ITC1,ITC16,004042,Cardè,1150,19.30662017,2020,IT_004042,geo,TRUE
IT_004043,7.8724936191521495,44.47828672404058,IT,ITC1,ITC16,004043,Carrù,4345,25.85641396,2020,IT_004043,geo,TRUE
IT_004044,7.283141478777898,44.48017743469809,IT,ITC1,ITC16,004044,Cartignano,174,6.42541298,2020,IT_004044,geo,TRUE
IT_004045,7.616570930697186,44.820660776435446,IT,ITC1,ITC16,004045,Casalgrasso,1418,17.82185099,2020,IT_004045,geo,TRUE
IT_004046,8.05519041511465,44.74929509836621,IT,ITC1,ITC16,004046,Castagnito,2207,7.11087351,2020,IT_004046,geo,TRUE
IT_004047,7.072913588764224,44.590115830017645,IT,ITC1,ITC16,004047,Casteldelfino,155,33.97141705,2020,IT_004047,geo,TRUE
IT_004049,7.629328848841053,44.42850044913598,IT,ITC1,ITC16,004049,Castelletto Stura,1374,17.12922326,2020,IT_004049,geo,TRUE
IT_004050,8.190946753322658,44.491690057335,IT,ITC1,ITC16,004050,Castelletto Uzzone,317,14.87369881,2020,IT_004050,geo,TRUE
IT_004051,8.028165931306722,44.77410483266694,IT,ITC1,ITC16,004051,Castellinaldo d'Alba,904,7.81274082,2020,IT_004051,geo,TRUE
IT_004052,7.976116230133422,44.4168320220852,IT,ITC1,ITC16,004052,Castellino Tanaro,296,11.52528642,2020,IT_004052,geo,TRUE
IT_004053,7.190720296270379,44.402681157498236,IT,ITC1,ITC16,004053,Castelmagno,59,49.33513768,2020,IT_004053,geo,TRUE
IT_004054,8.1284745735605,44.35625066634234,IT,ITC1,ITC16,004054,Castelnuovo di Ceva,107,6.26636444,2020,IT_004054,geo,TRUE
IT_004055,7.97985474893427,44.62667226046693,IT,ITC1,ITC16,004055,Castiglione Falletto,698,4.72046134,2020,IT_004055,geo,TRUE
IT_004056,8.19192511998018,44.729929501923024,IT,ITC1,ITC16,004056,Castiglione Tinella,839,11.64897736,2020,IT_004056,geo,TRUE
IT_004057,8.180742889375324,44.618844701969444,IT,ITC1,ITC16,004057,Castino,477,15.53219414,2020,IT_004057,geo,TRUE
IT_004058,7.660689883794851,44.738294678699766,IT,ITC1,ITC16,004058,Cavallerleone,665,16.44157129,2020,IT_004058,geo,TRUE
IT_004059,7.688679630132371,44.707923656582246,IT,ITC1,ITC16,004059,Cavallermaggiore,5431,51.622459,2020,IT_004059,geo,TRUE
IT_004060,7.1816345843920395,44.479431039926226,IT,ITC1,ITC16,004060,Celle di Macra,86,31.12172333,2020,IT_004060,geo,TRUE
IT_004061,7.584562303950694,44.49602424175365,IT,ITC1,ITC16,004061,Centallo,6957,42.52071702,2020,IT_004061,geo,TRUE
IT_004062,7.820764857952298,44.80177222090519,IT,ITC1,ITC16,004062,Ceresole Alba,2031,37.07216655,2020,IT_004062,geo,TRUE
IT_004063,8.077307108663103,44.57725255228547,IT,ITC1,ITC16,004063,Cerretto Langhe,420,10.15347609,2020,IT_004063,geo,TRUE
IT_004064,7.483396021771393,44.387524047942755,IT,ITC1,ITC16,004064,Cervasca,5136,18.25698368,2020,IT_004064,geo,TRUE
IT_004065,7.790067656768143,44.63684104242063,IT,ITC1,ITC16,004065,Cervere,2240,18.60604942,2020,IT_004065,geo,TRUE
IT_004066,8.031097980560629,44.384658397900196,IT,ITC1,ITC16,004066,Ceva,5677,43.18384688,2020,IT_004066,geo,TRUE
IT_004067,7.845021911865309,44.653119140319916,IT,ITC1,ITC16,004067,Cherasco,9368,81.59687089,2020,IT_004067,geo,TRUE
IT_004068,7.677833319557914,44.32322826462331,IT,ITC1,ITC16,004068,Chiusa di Pesio,3622,95.0551865,2020,IT_004068,geo,TRUE
IT_004069,7.925129945634885,44.43478796753417,IT,ITC1,ITC16,004069,Cigliè,181,6.12752272,2020,IT_004069,geo,TRUE
IT_004070,8.02851257168389,44.567092895901574,IT,ITC1,ITC16,004070,Cissone,86,5.90874099,2020,IT_004070,geo,TRUE
IT_004071,7.915568176847506,44.48249001701689,IT,ITC1,ITC16,004071,Clavesana,809,17.15745317,2020,IT_004071,geo,TRUE
IT_004072,7.961469874124072,44.73265692700588,IT,ITC1,ITC16,004072,Corneliano d'Alba,2166,10.08945316,2020,IT_004072,geo,TRUE
IT_004073,8.19538314651519,44.579592454313364,IT,ITC1,ITC16,004073,Cortemilia,2269,25.00026007,2020,IT_004073,geo,TRUE
IT_004074,8.194191679656287,44.665456197249426,IT,ITC1,ITC16,004074,Cossano Belbo,940,20.55694309,2020,IT_004074,geo,TRUE
IT_004075,7.483070067964969,44.56615468045037,IT,ITC1,ITC16,004075,Costigliole Saluzzo,3318,15.3453048,2020,IT_004075,geo,TRUE
IT_004076,8.123515899591357,44.57304693302766,IT,ITC1,ITC16,004076,Cravanzana,373,8.12162628,2020,IT_004076,geo,TRUE
IT_004077,7.159188982837658,44.69762348083305,IT,ITC1,ITC16,004077,Crissolo,158,52.0173475,2020,IT_004077,geo,TRUE
IT_004078,7.5412818456125335,44.38399292360571,IT,ITC1,ITC16,004078,Cuneo,56203,119.70538144,2020,IT_004078,geo,TRUE
IT_004079,7.301297617205165,44.317102279009326,IT,ITC1,ITC16,004079,Demonte,1914,127.33793095,2020,IT_004079,geo,TRUE
IT_004080,8.029335593370302,44.65242536601211,IT,ITC1,ITC16,004080,Diano d'Alba,3638,17.56217878,2020,IT_004080,geo,TRUE
IT_004081,7.947936930544,44.533137705774095,IT,ITC1,ITC16,004081,Dogliani,4677,35.70510382,2020,IT_004081,geo,TRUE
IT_004082,7.365587192677028,44.46417491300826,IT,ITC1,ITC16,004082,Dronero,7044,58.98965835,2020,IT_004082,geo,TRUE
IT_004083,7.085703793369568,44.54331359364131,IT,ITC1,ITC16,004083,Elva,89,26.2187386,2020,IT_004083,geo,TRUE
IT_004084,7.395101052725297,44.24126525275387,IT,ITC1,ITC16,004084,Entracque,847,160.8266067,2020,IT_004084,geo,TRUE
IT_004085,7.373605444823652,44.683454916836475,IT,ITC1,ITC16,004085,Envie,1967,24.9384028,2020,IT_004085,geo,TRUE
IT_004086,7.912467455272865,44.51391715193021,IT,ITC1,ITC16,004086,Farigliano,1734,16.4545533,2020,IT_004086,geo,TRUE
IT_004087,7.583036441422806,44.80477151673921,IT,ITC1,ITC16,004087,Faule,475,7.03373298,2020,IT_004087,geo,TRUE
IT_004088,8.109580883733196,44.5453205673113,IT,ITC1,ITC16,004088,Feisoglio,298,7.67231503,2020,IT_004088,geo,TRUE
IT_004089,7.718053206020291,44.549368180021396,IT,ITC1,ITC16,004089,Fossano,24477,130.31884132,2020,IT_004089,geo,TRUE
IT_004090,7.805927068815552,44.28806604586716,IT,ITC1,ITC16,004090,Frabosa Soprana,745,47.16638512,2020,IT_004090,geo,TRUE
IT_004091,7.784129038522021,44.33147753235832,IT,ITC1,ITC16,004091,Frabosa Sottana,1564,37.66642745,2020,IT_004091,geo,TRUE
IT_004092,7.279550888019732,44.57054254786215,IT,ITC1,ITC16,004092,Frassino,269,17.01813621,2020,IT_004092,geo,TRUE
IT_004093,7.406431350794546,44.33193693908756,IT,ITC1,ITC16,004093,Gaiola,576,4.96588848,2020,IT_004093,geo,TRUE
IT_004094,7.344343832906496,44.6308856102619,IT,ITC1,ITC16,004094,Gambasca,341,5.74767099,2020,IT_004094,geo,TRUE
IT_004095,8.01802896092037,44.20541307250997,IT,ITC1,ITC16,004095,Garessio,2987,131.35818964,2020,IT_004095,geo,TRUE
IT_004096,7.66516561962352,44.588979007952815,IT,ITC1,ITC16,004096,Genola,2609,13.72924283,2020,IT_004096,geo,TRUE
IT_004097,8.13450784391786,44.51106843055937,IT,ITC1,ITC16,004097,Gorzegno,264,13.98565918,2020,IT_004097,geo,TRUE
IT_004098,8.170066472958444,44.45907424413756,IT,ITC1,ITC16,004098,Gottasecca,129,13.69272062,2020,IT_004098,geo,TRUE
IT_004099,8.094427130707462,44.7938431452363,IT,ITC1,ITC16,004099,Govone,2294,18.91930195,2020,IT_004099,geo,TRUE
IT_004100,7.9816154772473835,44.659105977201634,IT,ITC1,ITC16,004100,Grinzane Cavour,2017,3.81000894,2020,IT_004100,geo,TRUE
IT_004101,8.035285835818765,44.73182782292698,IT,ITC1,ITC16,004101,Guarene,3589,13.45484514,2020,IT_004101,geo,TRUE
IT_004102,8.012784516443688,44.442068989058335,IT,ITC1,ITC16,004102,Igliano,66,3.40597586,2020,IT_004102,geo,TRUE
IT_004103,7.3787995714359464,44.584043100834926,IT,ITC1,ITC16,004103,Isasca,78,5.07969366,2020,IT_004103,geo,TRUE
IT_004104,7.553318737831226,44.624803206535645,IT,ITC1,ITC16,004104,Lagnasco,1428,17.72377813,2020,IT_004104,geo,TRUE
IT_004105,7.931895875703613,44.64148956403068,IT,ITC1,ITC16,004105,La Morra,2738,24.16402914,2020,IT_004105,geo,TRUE
IT_004106,8.094211582704423,44.60543395984591,IT,ITC1,ITC16,004106,Lequio Berria,451,11.84516803,2020,IT_004106,geo,TRUE
IT_004107,7.8809193889980325,44.55536601712533,IT,ITC1,ITC16,004107,Lequio Tanaro,762,12.20265629,2020,IT_004107,geo,TRUE
IT_004108,7.969598439935483,44.39863331202144,IT,ITC1,ITC16,004108,Lesegno,834,14.24913673,2020,IT_004108,geo,TRUE
IT_004109,8.155368737208635,44.53302651531077,IT,ITC1,ITC16,004109,Levice,196,15.75240256,2020,IT_004109,geo,TRUE
IT_004110,7.574650962687177,44.19966705379997,IT,ITC1,ITC16,004110,Limone Piemonte,1456,71.0799301,2020,IT_004110,geo,TRUE
IT_004111,7.9798770517736966,44.30934115720885,IT,ITC1,ITC16,004111,Lisio,189,8.24272045,2020,IT_004111,geo,TRUE
IT_004112,7.180571035972155,44.49678940264374,IT,ITC1,ITC16,004112,Macra,49,24.66164826,2020,IT_004112,geo,TRUE
IT_004113,8.069980158355154,44.763682049476834,IT,ITC1,ITC16,004113,Magliano Alfieri,2220,9.51441994,2020,IT_004113,geo,TRUE
IT_004114,7.805904227726357,44.45744124342274,IT,ITC1,ITC16,004114,Magliano Alpi,2210,33.23998111,2020,IT_004114,geo,TRUE
IT_004115,8.153060411126276,44.683137960316365,IT,ITC1,ITC16,004115,Mango,1313,20.04158896,2020,IT_004115,geo,TRUE
IT_004116,7.489891123690566,44.61475181099299,IT,ITC1,ITC16,004116,Manta,3820,11.7255043,2020,IT_004116,geo,TRUE
IT_004117,7.7289541096423715,44.66204699426596,IT,ITC1,ITC16,004117,Marene,3290,29.00569753,2020,IT_004117,geo,TRUE
IT_004118,7.679584005685702,44.39936449170546,IT,ITC1,ITC16,004118,Margarita,1421,11.3730507,2020,IT_004118,geo,TRUE
IT_004119,7.102425536200669,44.45269638589755,IT,ITC1,ITC16,004119,Marmora,60,41.13798962,2020,IT_004119,geo,TRUE
IT_004120,7.98974054017531,44.45376811314115,IT,ITC1,ITC16,004120,Marsaglia,221,13.03465325,2020,IT_004120,geo,TRUE
IT_004121,7.364201391998695,44.62844595227933,IT,ITC1,ITC16,004121,Martiniana Po,738,13.27730848,2020,IT_004121,geo,TRUE
IT_004122,7.317122980000338,44.563900413850156,IT,ITC1,ITC16,004122,Melle,284,27.91827993,2020,IT_004122,geo,TRUE
IT_004123,7.39096350993926,44.32225212127035,IT,ITC1,ITC16,004123,Moiola,223,15.07305739,2020,IT_004123,geo,TRUE
IT_004124,8.086091513147055,44.464968828504034,IT,ITC1,ITC16,004124,Mombarcaro,262,20.53130951,2020,IT_004124,geo,TRUE
IT_004125,7.966217377059379,44.36404335345162,IT,ITC1,ITC16,004125,Mombasiglio,604,17.36123324,2020,IT_004125,geo,TRUE
IT_004126,7.825215971203801,44.34812815171406,IT,ITC1,ITC16,004126,Monastero di Vasco,1288,17.46011049,2020,IT_004126,geo,TRUE
IT_004127,7.941749461301438,44.32566975494813,IT,ITC1,ITC16,004127,Monasterolo Casotto,82,7.68307075,2020,IT_004127,geo,TRUE
IT_004128,7.617729647378766,44.68788024581697,IT,ITC1,ITC16,004128,Monasterolo di Savigliano,1379,14.9263136,2020,IT_004128,geo,TRUE
IT_004129,7.920314898927991,44.568733077175715,IT,ITC1,ITC16,004129,Monchiero,572,5.000309,2020,IT_004129,geo,TRUE
IT_004130,7.816135194295441,44.39182050156093,IT,ITC1,ITC16,004130,Mondovì,22360,87.02911773,2020,IT_004130,geo,TRUE
IT_004131,8.113997429484263,44.46406843668044,IT,ITC1,ITC16,004131,Monesiglio,610,12.94320675,2020,IT_004131,geo,TRUE
IT_004132,7.970441398668107,44.583311600036524,IT,ITC1,ITC16,004132,Monforte d'Alba,1979,25.29339555,2020,IT_004132,geo,TRUE
IT_004133,7.958747920817855,44.81445989116135,IT,ITC1,ITC16,004133,Montà,4687,26.84044053,2020,IT_004133,geo,TRUE
IT_004134,7.855745311071356,44.302893102807815,IT,ITC1,ITC16,004134,Montaldo di Mondovì,544,23.59137347,2020,IT_004134,geo,TRUE
IT_004135,7.932198322197303,44.763660389127985,IT,ITC1,ITC16,004135,Montaldo Roero,851,11.85780316,2020,IT_004135,geo,TRUE
IT_004136,7.66875919786229,44.46137532098374,IT,ITC1,ITC16,004136,Montanera,741,11.6394515,2020,IT_004136,geo,TRUE
IT_004137,8.043354749237766,44.62327099629487,IT,ITC1,ITC16,004137,Montelupo Albese,478,6.43417778,2020,IT_004137,geo,TRUE
IT_004138,7.373235244409353,44.43913066771745,IT,ITC1,ITC16,004138,Montemale di Cuneo,226,11.11123729,2020,IT_004138,geo,TRUE
IT_004139,7.321951908027133,44.4092189334389,IT,ITC1,ITC16,004139,Monterosso Grana,521,42.23393697,2020,IT_004139,geo,TRUE
IT_004140,7.946134625552053,44.77876081319394,IT,ITC1,ITC16,004140,Monteu Roero,1594,24.70667094,2020,IT_004140,geo,TRUE
IT_004141,8.137223672776795,44.378654530464665,IT,ITC1,ITC16,004141,Montezemolo,229,6.94808866,2020,IT_004141,geo,TRUE
IT_004142,7.950079862672147,44.71355315667093,IT,ITC1,ITC16,004142,Monticello d'Alba,2365,10.24395945,2020,IT_004142,geo,TRUE
IT_004143,7.5358722954809325,44.763015932055836,IT,ITC1,ITC16,004143,Moretta,4069,24.00232602,2020,IT_004143,geo,TRUE
IT_004144,7.675297762486298,44.43024464575135,IT,ITC1,ITC16,004144,Morozzo,2021,22.21748378,2020,IT_004144,geo,TRUE
IT_004145,8.022724277634293,44.471901669747766,IT,ITC1,ITC16,004145,Murazzano,851,27.69669248,2020,IT_004145,geo,TRUE
IT_004146,7.598586778327305,44.751242871059134,IT,ITC1,ITC16,004146,Murello,933,17.33640218,2020,IT_004146,geo,TRUE
IT_004147,7.868672895268894,44.58926449326068,IT,ITC1,ITC16,004147,Narzole,3549,26.19937658,2020,IT_004147,geo,TRUE
IT_004148,8.116269322828987,44.72590869723636,IT,ITC1,ITC16,004148,Neive,3363,21.32432038,2020,IT_004148,geo,TRUE
IT_004149,8.116959458589719,44.69521831826369,IT,ITC1,ITC16,004149,Neviglie,363,7.93222525,2020,IT_004149,geo,TRUE
IT_004150,8.077983861292171,44.51203691859843,IT,ITC1,ITC16,004150,Niella Belbo,363,11.52483123,2020,IT_004150,geo,TRUE
IT_004151,7.936117117793775,44.40812908339544,IT,ITC1,ITC16,004151,Niella Tanaro,1000,15.71980425,2020,IT_004151,geo,TRUE
IT_004152,7.919953460429749,44.602437804794064,IT,ITC1,ITC16,004152,Novello,972,11.70664043,2020,IT_004152,geo,TRUE
IT_004153,8.060839680902454,44.337333965027234,IT,ITC1,ITC16,004153,Nucetto,397,7.82079648,2020,IT_004153,geo,TRUE
IT_004154,7.184188176718075,44.673708554828174,IT,ITC1,ITC16,004154,Oncino,82,47.37306927,2020,IT_004154,geo,TRUE
IT_004155,7.909736290382592,44.14832475863602,IT,ITC1,ITC16,004155,Ormea,1557,124.56498171,2020,IT_004155,geo,TRUE
IT_004156,7.189493679859911,44.69592919602164,IT,ITC1,ITC16,004156,Ostana,89,14.09350495,2020,IT_004156,geo,TRUE
IT_004157,7.2739372164909115,44.68389716787042,IT,ITC1,ITC16,004157,Paesana,2682,58.28907588,2020,IT_004157,geo,TRUE
IT_004158,7.428496647181075,44.612202060158815,IT,ITC1,ITC16,004158,Pagno,568,8.6831029,2020,IT_004158,geo,TRUE
IT_004159,7.914826293567766,44.278507373828006,IT,ITC1,ITC16,004159,Pamparato,283,34.53943549,2020,IT_004159,geo,TRUE
IT_004160,8.065889314348086,44.430570993908205,IT,ITC1,ITC16,004160,Paroldo,204,12.43021078,2020,IT_004160,geo,TRUE
IT_004161,8.208711640743607,44.60074600360917,IT,ITC1,ITC16,004161,Perletto,268,9.90062117,2020,IT_004161,geo,TRUE
IT_004162,8.087164545347742,44.32862077988592,IT,ITC1,ITC16,004162,Perlo,112,10.22018021,2020,IT_004162,geo,TRUE
IT_004163,7.615800617416315,44.33173127277402,IT,ITC1,ITC16,004163,Peveragno,5598,67.95345096,2020,IT_004163,geo,TRUE
IT_004164,8.210489807905553,44.537877218831646,IT,ITC1,ITC16,004164,Pezzolo Valle Uzzone,329,26.59510229,2020,IT_004164,geo,TRUE
IT_004165,7.711536257463289,44.37150898451566,IT,ITC1,ITC16,004165,Pianfei,2101,15.32197634,2020,IT_004165,geo,TRUE
IT_004166,7.454417383019945,44.566581688924195,IT,ITC1,ITC16,004166,Piasco,2750,10.62031091,2020,IT_004166,geo,TRUE
IT_004167,7.025405524212831,44.340872057647886,IT,ITC1,ITC16,004167,Pietraporzio,76,55.35561522,2020,IT_004167,geo,TRUE
IT_004168,7.977471369339658,44.73222301935262,IT,ITC1,ITC16,004168,Piobesi d'Alba,1395,4.03496998,2020,IT_004168,geo,TRUE
IT_004169,7.881185051540464,44.51522032451096,IT,ITC1,ITC16,004169,Piozzo,982,14.31846639,2020,IT_004169,geo,TRUE
IT_004170,7.884531350017658,44.7114080214406,IT,ITC1,ITC16,004170,Pocapaglia,3333,17.49307902,2020,IT_004170,geo,TRUE
IT_004171,7.595955186947871,44.80439075824148,IT,ITC1,ITC16,004171,Polonghera,1108,10.31714475,2020,IT_004171,geo,TRUE
IT_004172,7.018687709195883,44.62885866899223,IT,ITC1,ITC16,004172,Pontechianale,166,94.88537813,2020,IT_004172,geo,TRUE
IT_004173,7.280513844810192,44.41869587241164,IT,ITC1,ITC16,004173,Pradleves,235,19.29546031,2020,IT_004173,geo,TRUE
IT_004174,7.059440405224171,44.48844121890563,IT,ITC1,ITC16,004174,Prazzo,172,52.40306683,2020,IT_004174,geo,TRUE
IT_004175,8.090520936480964,44.373538729520185,IT,ITC1,ITC16,004175,Priero,490,20.01710352,2020,IT_004175,geo,TRUE
IT_004176,8.063981481921504,44.78872459171934,IT,ITC1,ITC16,004176,Priocca,2019,9.03497317,2020,IT_004176,geo,TRUE
IT_004177,8.021435642745624,44.25296450091238,IT,ITC1,ITC16,004177,Priola,681,27.39535888,2020,IT_004177,geo,TRUE
IT_004178,8.143633371321048,44.49416942973941,IT,ITC1,ITC16,004178,Prunetto,424,14.36593943,2020,IT_004178,geo,TRUE
IT_004179,7.680885391082919,44.769343781719584,IT,ITC1,ITC16,004179,Racconigi,9908,48.09271093,2020,IT_004179,geo,TRUE
IT_004180,7.391792713529823,44.65440426335157,IT,ITC1,ITC16,004180,Revello,4253,52.49034549,2020,IT_004180,geo,TRUE
IT_004181,7.350425285005904,44.64880326598708,IT,ITC1,ITC16,004181,Rifreddo,1056,6.84746374,2020,IT_004181,geo,TRUE
IT_004182,7.402620729922258,44.34944061431693,IT,ITC1,ITC16,004182,Rittana,109,11.35736328,2020,IT_004182,geo,TRUE
IT_004183,7.45615113915019,44.26980939385996,IT,ITC1,ITC16,004183,Roaschia,98,23.84509507,2020,IT_004183,geo,TRUE
IT_004184,8.030839002381084,44.418080691992884,IT,ITC1,ITC16,004184,Roascio,94,6.4262637,2020,IT_004184,geo,TRUE
IT_004185,7.516023434043037,44.29281822158378,IT,ITC1,ITC16,004185,Robilante,2223,25.01354882,2020,IT_004185,geo,TRUE
IT_004186,7.88604144692389,44.30110256289921,IT,ITC1,ITC16,004186,Roburent,474,29.84179181,2020,IT_004186,geo,TRUE
IT_004187,7.342367487517742,44.473614953561075,IT,ITC1,ITC16,004187,Roccabruna,1535,24.30932546,2020,IT_004187,geo,TRUE
IT_004188,7.950073230967961,44.442946808735,IT,ITC1,ITC16,004188,Rocca Cigliè,130,7.01925649,2020,IT_004188,geo,TRUE
IT_004189,7.753309659054608,44.43157043475511,IT,ITC1,ITC16,004189,Rocca de' Baldi,1608,26.41473581,2020,IT_004189,geo,TRUE
IT_004190,7.739123305431855,44.31540809494173,IT,ITC1,ITC16,004190,Roccaforte Mondovì,2121,84.65570859,2020,IT_004190,geo,TRUE
IT_004191,7.440259707529516,44.34068488047783,IT,ITC1,ITC16,004191,Roccasparvera,743,11.24838405,2020,IT_004191,geo,TRUE
IT_004192,7.47886729452155,44.315227601310426,IT,ITC1,ITC16,004192,Roccavione,2668,19.15684462,2020,IT_004192,geo,TRUE
IT_004193,8.177547514572176,44.636957520788826,IT,ITC1,ITC16,004193,Rocchetta Belbo,156,4.51256306,2020,IT_004193,geo,TRUE
IT_004194,7.978147769131168,44.67794959433965,IT,ITC1,ITC16,004194,Roddi,1607,9.35547129,2020,IT_004194,geo,TRUE
IT_004195,8.019572939898781,44.57767990798864,IT,ITC1,ITC16,004195,Roddino,420,10.58716067,2020,IT_004195,geo,TRUE
IT_004196,8.056778439142393,44.62800190393178,IT,ITC1,ITC16,004196,Rodello,958,8.90310361,2020,IT_004196,geo,TRUE
IT_004197,7.431552149680664,44.544314023185635,IT,ITC1,ITC16,004197,Rossana,831,19.9373021,2020,IT_004197,geo,TRUE
IT_004198,7.600456598583294,44.70629302315437,IT,ITC1,ITC16,004198,Ruffia,354,7.51576887,2020,IT_004198,geo,TRUE
IT_004199,8.087134364477345,44.39872263285309,IT,ITC1,ITC16,004199,Sale delle Langhe,475,10.52852928,2020,IT_004199,geo,TRUE
IT_004200,8.076384963376952,44.40020166132297,IT,ITC1,ITC16,004200,Sale San Giovanni,162,8.0799347,2020,IT_004200,geo,TRUE
IT_004201,8.166879675187298,44.41125644957104,IT,ITC1,ITC16,004201,Saliceto,1245,24.3362045,2020,IT_004201,geo,TRUE
IT_004202,7.802356975396669,44.57869171112949,IT,ITC1,ITC16,004202,Salmour,718,12.70061913,2020,IT_004202,geo,TRUE
IT_004203,7.492001363164323,44.64580823322996,IT,ITC1,ITC16,004203,Saluzzo,17526,79.97766956,2020,IT_004203,geo,TRUE
IT_004204,7.077449546527409,44.336084475190326,IT,ITC1,ITC16,004204,Sambuco,85,46.14995026,2020,IT_004204,geo,TRUE
IT_004205,7.194632192823519,44.5790587020183,IT,ITC1,ITC16,004205,Sampeyre,998,98.93232353,2020,IT_004205,geo,TRUE
IT_004206,8.06119687017549,44.490313601185214,IT,ITC1,ITC16,004206,San Benedetto Belbo,163,4.85111748,2020,IT_004206,geo,TRUE
IT_004207,7.257987584617994,44.49021987784875,IT,ITC1,ITC16,004207,San Damiano Macra,407,54.26115608,2020,IT_004207,geo,TRUE
IT_004208,7.800259768008357,44.75245642002373,IT,ITC1,ITC16,004208,Sanfrè,3014,15.51525181,2020,IT_004208,geo,TRUE
IT_004209,7.317125585978403,44.65037146822577,IT,ITC1,ITC16,004209,Sanfront,2340,39.7237204,2020,IT_004209,geo,TRUE
IT_004210,7.909280777815082,44.3759535868879,IT,ITC1,ITC16,004210,San Michele Mondovì,1887,18.11856326,2020,IT_004210,geo,TRUE
IT_004211,7.7222843360853375,44.5051560183535,IT,ITC1,ITC16,004211,Sant'Albano Stura,2359,27.46735796,2020,IT_004211,geo,TRUE
IT_004212,7.92760859064442,44.695861241436006,IT,ITC1,ITC16,004212,Santa Vittoria d'Alba,2861,10.08224904,2020,IT_004212,geo,TRUE
IT_004213,8.231018233044193,44.709766991593675,IT,ITC1,ITC16,004213,Santo Stefano Belbo,3959,27.19841432,2020,IT_004213,geo,TRUE
IT_004214,7.9346658310171865,44.79814072549278,IT,ITC1,ITC16,004214,Santo Stefano Roero,1374,13.12744136,2020,IT_004214,geo,TRUE
IT_004215,7.655943458105465,44.64785137487851,IT,ITC1,ITC16,004215,Savigliano,21665,110.84647638,2020,IT_004215,geo,TRUE
IT_004216,7.986760133464111,44.331823418552865,IT,ITC1,ITC16,004216,Scagnello,182,9.38809509,2020,IT_004216,geo,TRUE
IT_004217,7.564113032322528,44.67859097923069,IT,ITC1,ITC16,004217,Scarnafigi,2133,30.50242272,2020,IT_004217,geo,TRUE
IT_004218,7.9903953431799835,44.62777444687191,IT,ITC1,ITC16,004218,Serralunga d'Alba,561,8.39328997,2020,IT_004218,geo,TRUE
IT_004219,8.05927549619796,44.56055319633697,IT,ITC1,ITC16,004219,Serravalle Langhe,300,8.90481314,2020,IT_004219,geo,TRUE
IT_004220,8.020016298440003,44.59895923107938,IT,ITC1,ITC16,004220,Sinio,493,8.61588976,2020,IT_004220,geo,TRUE
IT_004221,8.009658871769515,44.53379380077233,IT,ITC1,ITC16,004221,Somano,323,11.69011555,2020,IT_004221,geo,TRUE
IT_004222,7.781501277405204,44.77159306131859,IT,ITC1,ITC16,004222,Sommariva del Bosco,6345,35.432933,2020,IT_004222,geo,TRUE
IT_004223,7.90375104916687,44.74452075327136,IT,ITC1,ITC16,004223,Sommariva Perno,2723,17.10255932,2020,IT_004223,geo,TRUE
IT_004224,7.129876495808656,44.507866810438884,IT,ITC1,ITC16,004224,Stroppo,101,28.09808994,2020,IT_004224,geo,TRUE
IT_004225,7.530310383991343,44.49872592412389,IT,ITC1,ITC16,004225,Tarantasca,2153,12.20649185,2020,IT_004225,geo,TRUE
IT_004226,8.157851756783595,44.564421802482286,IT,ITC1,ITC16,004226,Torre Bormida,165,7.18209689,2020,IT_004226,geo,TRUE
IT_004227,7.905812177221098,44.349936820986585,IT,ITC1,ITC16,004227,Torre Mondovì,490,18.55066532,2020,IT_004227,geo,TRUE
IT_004228,7.5247352252776665,44.73565490900479,IT,ITC1,ITC16,004228,Torre San Giorgio,731,5.39089737,2020,IT_004228,geo,TRUE
IT_004229,8.037971604988442,44.435484216783834,IT,ITC1,ITC16,004229,Torresina,46,3.82762535,2020,IT_004229,geo,TRUE
IT_004230,8.086156114758817,44.691479847576765,IT,ITC1,ITC16,004230,Treiso,773,9.60267331,2020,IT_004230,geo,TRUE
IT_004231,8.114248009953794,44.664955069245075,IT,ITC1,ITC16,004231,Trezzo Tinella,312,10.53199333,2020,IT_004231,geo,TRUE
IT_004232,7.757842627594932,44.510541438055164,IT,ITC1,ITC16,004232,Trinità,2235,28.15559625,2020,IT_004232,geo,TRUE
IT_004233,7.405599731108848,44.28347706322048,IT,ITC1,ITC16,004233,Valdieri,908,153.26963668,2020,IT_004233,geo,TRUE
IT_004234,7.372619119378465,44.41285867542323,IT,ITC1,ITC16,004234,Valgrana,774,23.11337222,2020,IT_004234,geo,TRUE
IT_004235,7.374764257470129,44.339909624274945,IT,ITC1,ITC16,004235,Valloriate,104,16.96444213,2020,IT_004235,geo,TRUE
IT_004237,7.398147122150128,44.56576509632585,IT,ITC1,ITC16,004237,Venasca,1384,20.40908858,2020,IT_004237,geo,TRUE
IT_004238,7.930465550698959,44.668052693070386,IT,ITC1,ITC16,004238,Verduno,528,7.16744532,2020,IT_004238,geo,TRUE
IT_004239,7.532200526547818,44.24452244564533,IT,ITC1,ITC16,004239,Vernante,1155,62.0759091,2020,IT_004239,geo,TRUE
IT_004240,7.482954689921337,44.594549729836004,IT,ITC1,ITC16,004240,Verzuolo,6421,26.15708536,2020,IT_004240,geo,TRUE
IT_004241,8.003862982242902,44.759857398313706,IT,ITC1,ITC16,004241,Vezza d'Alba,2313,14.078795,2020,IT_004241,geo,TRUE
IT_004242,7.857967151523449,44.36659576659534,IT,ITC1,ITC16,004242,Vicoforte,3162,25.75391055,2020,IT_004242,geo,TRUE
IT_004243,7.478231171058421,44.361184894181505,IT,ITC1,ITC16,004243,Vignolo,2605,7.93455385,2020,IT_004243,geo,TRUE
IT_004244,7.554141979952074,44.56839493170447,IT,ITC1,ITC16,004244,Villafalletto,2936,29.74384638,2020,IT_004244,geo,TRUE
IT_004245,7.765136199300997,44.34984672361213,IT,ITC1,ITC16,004245,Villanova Mondovì,5802,28.36533822,2020,IT_004245,geo,TRUE
IT_004246,7.573479760153115,44.73226140864278,IT,ITC1,ITC16,004246,Villanova Solaro,745,14.79754187,2020,IT_004246,geo,TRUE
IT_004247,7.392054045563938,44.48283944437826,IT,ITC1,ITC16,004247,Villar San Costanzo,1537,19.49313883,2020,IT_004247,geo,TRUE
IT_004248,7.17399678609492,44.30604174196994,IT,ITC1,ITC16,004248,Vinadio,607,183.16838255,2020,IT_004248,geo,TRUE
IT_004249,7.968136076196821,44.289710828885624,IT,ITC1,ITC16,004249,Viola,364,21.07216163,2020,IT_004249,geo,TRUE
IT_004250,7.579241937346888,44.562027023142434,IT,ITC1,ITC16,004250,Vottignasco,501,8.09341125,2020,IT_004250,geo,TRUE
IT_005001,8.252748465578023,44.790369750913634,IT,ITC1,ITC17,005001,Agliano Terme,1578,15.45955178,2020,IT_005001,geo,TRUE
IT_005002,7.968685407141934,45.075738394271205,IT,ITC1,ITC17,005002,Albugnano,500,9.54727652,2020,IT_005002,geo,TRUE
IT_005003,8.134793017492665,44.841590217035616,IT,ITC1,ITC17,005003,Antignano,962,10.86674685,2020,IT_005003,geo,TRUE
IT_005004,7.997173068821472,45.0975620265651,IT,ITC1,ITC17,005004,Aramengo,567,11.42091114,2020,IT_005004,geo,TRUE
IT_005005,8.205641687220535,44.902420638662,IT,ITC1,ITC17,005005,Asti,75528,151.42964505,2020,IT_005005,geo,TRUE
IT_005006,8.265415547070713,44.87414491089547,IT,ITC1,ITC17,005006,Azzano d'Asti,381,6.43479088,2020,IT_005006,geo,TRUE
IT_005007,8.091823676062205,44.90568461415027,IT,ITC1,ITC17,005007,Baldichieri d'Asti,1157,5.06848287,2020,IT_005007,geo,TRUE
IT_005008,8.33293220170669,44.835471269270535,IT,ITC1,ITC17,005008,Belveglio,328,5.29083277,2020,IT_005008,geo,TRUE
IT_005009,7.951591865546723,45.09276552379114,IT,ITC1,ITC17,005009,Berzano di San Pietro,409,7.34261196,2020,IT_005009,geo,TRUE
IT_005010,8.442100185089938,44.794296804744775,IT,ITC1,ITC17,005010,Bruno,309,8.90402665,2020,IT_005010,geo,TRUE
IT_005011,8.29451521348548,44.66555464636247,IT,ITC1,ITC17,005011,Bubbio,805,15.78226995,2020,IT_005011,geo,TRUE
IT_005012,7.954151795100664,45.01957676063834,IT,ITC1,ITC17,005012,Buttigliera d'Asti,2527,19.16873103,2020,IT_005012,geo,TRUE
IT_005013,8.335712518681794,44.73809053265023,IT,ITC1,ITC17,005013,Calamandrana,1702,12.79687331,2020,IT_005013,geo,TRUE
IT_005014,8.258902290262755,45.006924416992426,IT,ITC1,ITC17,005014,Calliano,1287,17.30543687,2020,IT_005014,geo,TRUE
IT_005015,8.230263911497895,44.74376719804063,IT,ITC1,ITC17,005015,Calosso,1212,15.7235992,2020,IT_005015,geo,TRUE
IT_005016,8.090600972831522,44.98522666788431,IT,ITC1,ITC17,005016,Camerano Casasco,414,6.9063773,2020,IT_005016,geo,TRUE
IT_005017,8.288034323950898,44.71980404298315,IT,ITC1,ITC17,005017,Canelli,10392,23.44284574,2020,IT_005017,geo,TRUE
IT_005018,8.0313098288351,44.90431448068245,IT,ITC1,ITC17,005018,Cantarana,999,9.72448532,2020,IT_005018,geo,TRUE
IT_005019,8.005371754614465,45.002044559409846,IT,ITC1,ITC17,005019,Capriglio,316,5.05769383,2020,IT_005019,geo,TRUE
IT_005020,8.334762900129524,45.02239097600416,IT,ITC1,ITC17,005020,Casorzo,601,12.65840635,2020,IT_005020,geo,TRUE
IT_005021,8.306640594153562,44.69207607600357,IT,ITC1,ITC17,005021,Cassinasco,599,11.85243831,2020,IT_005021,geo,TRUE
IT_005022,8.149803968661255,44.752070694485724,IT,ITC1,ITC17,005022,Castagnole delle Lanze,3704,21.57754551,2020,IT_005022,geo,TRUE
IT_005023,8.301445548635026,44.953749845210204,IT,ITC1,ITC17,005023,Castagnole Monferrato,1171,17.34782407,2020,IT_005023,geo,TRUE
IT_005024,8.381295628293653,44.72328243050384,IT,ITC1,ITC17,005024,Castel Boglione,594,11.86158339,2020,IT_005024,geo,TRUE
IT_005025,8.209325998496277,44.97555210269129,IT,ITC1,ITC17,005025,Castell'Alfero,2678,20.10978986,2020,IT_005025,geo,TRUE
IT_005026,8.072269253706928,44.92434212276716,IT,ITC1,ITC17,005026,Castellero,305,4.29391025,2020,IT_005026,geo,TRUE
IT_005027,8.431050790398345,44.74910037213353,IT,ITC1,ITC17,005027,Castelletto Molina,140,3.06858644,2020,IT_005027,geo,TRUE
IT_005028,8.31501498429087,44.88319303723835,IT,ITC1,ITC17,005028,Castello di Annone,1871,23.19101625,2020,IT_005028,geo,TRUE
IT_005029,8.416171453786449,44.80301863309173,IT,ITC1,ITC17,005029,Castelnuovo Belbo,826,9.5584805,2020,IT_005029,geo,TRUE
IT_005030,8.28549211166406,44.78853590785424,IT,ITC1,ITC17,005030,Castelnuovo Calcea,726,8.21333895,2020,IT_005030,geo,TRUE
IT_005031,7.966474779552205,45.039630876214,IT,ITC1,ITC17,005031,Castelnuovo Don Bosco,3126,21.62784896,2020,IT_005031,geo,TRUE
IT_005032,8.418741814598338,44.72175196385823,IT,ITC1,ITC17,005032,Castel Rocchero,400,5.62461379,2020,IT_005032,geo,TRUE
IT_005033,7.945891920807603,44.8671657957237,IT,ITC1,ITC17,005033,Cellarengo,709,10.86168722,2020,IT_005033,geo,TRUE
IT_005034,8.123186965809397,44.85896398415,IT,ITC1,ITC17,005034,Celle Enomondo,470,5.60484448,2020,IT_005034,geo,TRUE
IT_005035,8.037156004463299,45.04865828439297,IT,ITC1,ITC17,005035,Cerreto d'Asti,221,4.81327421,2020,IT_005035,geo,TRUE
IT_005036,8.363087604221253,44.8742359064672,IT,ITC1,ITC17,005036,Cerro Tanaro,594,4.65387931,2020,IT_005036,geo,TRUE
IT_005037,8.244654553223635,44.6468912073443,IT,ITC1,ITC17,005037,Cessole,368,11.79333082,2020,IT_005037,geo,TRUE
IT_005038,8.120073288244688,44.98735266417241,IT,ITC1,ITC17,005038,Chiusano d'Asti,229,2.38998446,2020,IT_005038,geo,TRUE
IT_005039,8.095374702575024,44.97528591770668,IT,ITC1,ITC17,005039,Cinaglio,450,5.52001638,2020,IT_005039,geo,TRUE
IT_005040,8.00557133829384,44.82398430182705,IT,ITC1,ITC17,005040,Cisterna d'Asti,1222,10.73795521,2020,IT_005040,geo,TRUE
IT_005041,8.147059261227309,44.72869604217071,IT,ITC1,ITC17,005041,Coazzolo,292,4.04946405,2020,IT_005041,geo,TRUE
IT_005042,8.040870760498219,45.08598402253074,IT,ITC1,ITC17,005042,Cocconato,1454,16.53429599,2020,IT_005042,geo,TRUE
IT_005044,8.152715389517828,45.00293570265447,IT,ITC1,ITC17,005044,Corsione,203,5.03855662,2020,IT_005044,geo,TRUE
IT_005045,8.058299528081028,44.955276201807585,IT,ITC1,ITC17,005045,Cortandone,308,5.02341959,2020,IT_005045,geo,TRUE
IT_005046,8.093306636108549,45.01396091542903,IT,ITC1,ITC17,005046,Cortanze,274,4.47710542,2020,IT_005046,geo,TRUE
IT_005047,8.051451873009212,44.9773266949095,IT,ITC1,ITC17,005047,Cortazzone,593,10.34234679,2020,IT_005047,geo,TRUE
IT_005048,8.358353325862689,44.82437251582654,IT,ITC1,ITC17,005048,Cortiglione,536,8.42319311,2020,IT_005048,geo,TRUE
IT_005049,8.13875689211,44.988326346115194,IT,ITC1,ITC17,005049,Cossombrato,521,5.39150349,2020,IT_005049,geo,TRUE
IT_005050,8.184667446456595,44.7812852422191,IT,ITC1,ITC17,005050,Costigliole d'Asti,5755,36.97440541,2020,IT_005050,geo,TRUE
IT_005051,8.092877178325901,45.040989624980284,IT,ITC1,ITC17,005051,Cunico,452,6.71315885,2020,IT_005051,geo,TRUE
IT_005052,7.971381866752703,44.917761094131805,IT,ITC1,ITC17,005052,Dusino San Michele,1072,11.93315109,2020,IT_005052,geo,TRUE
IT_005053,7.996278467008799,44.87578746645455,IT,ITC1,ITC17,005053,Ferrere,1533,13.93768041,2020,IT_005053,geo,TRUE
IT_005054,8.418303136969946,44.75148691670786,IT,ITC1,ITC17,005054,Fontanile,551,8.15164578,2020,IT_005054,geo,TRUE
IT_005055,8.172308858772277,45.00330942785345,IT,ITC1,ITC17,005055,Frinco,731,7.26936171,2020,IT_005055,geo,TRUE
IT_005056,8.296979732536961,44.99939752112063,IT,ITC1,ITC17,005056,Grana,587,5.89432622,2020,IT_005056,geo,TRUE
IT_005057,8.308120991561271,45.03937575487632,IT,ITC1,ITC17,005057,Grazzano Badoglio,608,10.47892289,2020,IT_005057,geo,TRUE
IT_005058,8.379488453939196,44.80987990171511,IT,ITC1,ITC17,005058,Incisa Scapaccino,2138,20.72227288,2020,IT_005058,geo,TRUE
IT_005059,8.179978037135426,44.82926901904453,IT,ITC1,ITC17,005059,Isola d'Asti,2023,13.50724774,2020,IT_005059,geo,TRUE
IT_005060,8.261321380405562,44.66420579653275,IT,ITC1,ITC17,005060,Loazzolo,321,14.82829306,2020,IT_005060,geo,TRUE
IT_005061,8.480782137604322,44.75879535023128,IT,ITC1,ITC17,005061,Maranzana,244,4.37902001,2020,IT_005061,geo,TRUE
IT_005062,8.033474442429116,44.94203830273939,IT,ITC1,ITC17,005062,Maretto,383,4.92164432,2020,IT_005062,geo,TRUE
IT_005063,8.276422557737263,44.76303415057911,IT,ITC1,ITC17,005063,Moasca,502,4.15407354,2020,IT_005063,geo,TRUE
IT_005064,8.334963242675839,44.567419988507865,IT,ITC1,ITC17,005064,Mombaldone,202,12.43956691,2020,IT_005064,geo,TRUE
IT_005065,8.444879688169003,44.77063998847449,IT,ITC1,ITC17,005065,Mombaruzzo,1028,22.40897531,2020,IT_005065,geo,TRUE
IT_005066,8.290797782480682,44.82098617731637,IT,ITC1,ITC17,005066,Mombercelli,2126,14.23922182,2020,IT_005066,geo,TRUE
IT_005067,8.074660374280914,44.93923270292273,IT,ITC1,ITC17,005067,Monale,1001,9.12119656,2020,IT_005067,geo,TRUE
IT_005068,8.331274590883634,44.64587536858285,IT,ITC1,ITC17,005068,Monastero Bormida,912,14.20770286,2020,IT_005068,geo,TRUE
IT_005069,8.265197791673,45.05155661217207,IT,ITC1,ITC17,005069,Moncalvo,2833,17.43602636,2020,IT_005069,geo,TRUE
IT_005070,7.925733790095293,45.06521077660031,IT,ITC1,ITC17,005070,Moncucco Torinese,883,14.33326606,2020,IT_005070,geo,TRUE
IT_005071,8.215394168375925,44.84662453145426,IT,ITC1,ITC17,005071,Mongardino,874,6.85298447,2020,IT_005071,geo,TRUE
IT_005072,8.389525655301712,44.69633897555485,IT,ITC1,ITC17,005072,Montabone,321,8.55434036,2020,IT_005072,geo,TRUE
IT_005073,8.020992880041783,44.98654377165452,IT,ITC1,ITC17,005073,Montafia,935,14.50646271,2020,IT_005073,geo,TRUE
IT_005074,8.256605830344554,44.82440853854404,IT,ITC1,ITC17,005074,Montaldo Scarampi,740,6.63822594,2020,IT_005074,geo,TRUE
IT_005075,8.110574641771645,45.005200031127785,IT,ITC1,ITC17,005075,Montechiaro d'Asti,1276,10.21008623,2020,IT_005075,geo,TRUE
IT_005076,8.237557895069635,44.81824857565563,IT,ITC1,ITC17,005076,Montegrosso d'Asti,2320,15.42348159,2020,IT_005076,geo,TRUE
IT_005077,8.323088281257638,44.98131710092369,IT,ITC1,ITC17,005077,Montemagno,1080,16.11089586,2020,IT_005077,geo,TRUE
IT_005079,8.028845577998432,45.11488845106968,IT,ITC1,ITC17,005079,Moransengo,186,5.40596988,2020,IT_005079,geo,TRUE
IT_005080,8.35467356652404,44.774758520252604,IT,ITC1,ITC17,005080,Nizza Monferrato,10328,30.38137169,2020,IT_005080,geo,TRUE
IT_005081,8.247468212116987,44.582704226936826,IT,ITC1,ITC17,005081,Olmo Gentile,71,5.62727749,2020,IT_005081,geo,TRUE
IT_005082,8.008640154554078,45.05647083971981,IT,ITC1,ITC17,005082,Passerano Marmorito,420,12.03368523,2020,IT_005082,geo,TRUE
IT_005083,8.252443557164101,45.031344343915315,IT,ITC1,ITC17,005083,Penango,460,9.56750074,2020,IT_005083,geo,TRUE
IT_005084,8.06469959764949,45.0231086714777,IT,ITC1,ITC17,005084,Piea,559,9.00862587,2020,IT_005084,geo,TRUE
IT_005085,7.989992206961996,45.05714994404053,IT,ITC1,ITC17,005085,Pino d'Asti,216,4.08335799,2020,IT_005085,geo,TRUE
IT_005086,8.053614734496353,45.051380178155625,IT,ITC1,ITC17,005086,Piovà Massaia,588,10.20453593,2020,IT_005086,geo,TRUE
IT_005087,8.259249074816342,44.953533798282706,IT,ITC1,ITC17,005087,Portacomaro,2021,11.00467181,2020,IT_005087,geo,TRUE
IT_005088,8.446728257470435,44.75263410685896,IT,ITC1,ITC17,005088,Quaranti,166,2.85480636,2020,IT_005088,geo,TRUE
IT_005089,8.3402993662896,44.93559359578399,IT,ITC1,ITC17,005089,Refrancore,1562,13.20811958,2020,IT_005089,geo,TRUE
IT_005090,8.161796173834317,44.86007959441219,IT,ITC1,ITC17,005090,Revigliasco d'Asti,779,8.84633648,2020,IT_005090,geo,TRUE
IT_005091,8.019910246743311,44.949779644618026,IT,ITC1,ITC17,005091,Roatto,374,6.41845983,2020,IT_005091,geo,TRUE
IT_005092,8.09981096639024,45.10406657518288,IT,ITC1,ITC17,005092,Robella,473,12.183501,2020,IT_005092,geo,TRUE
IT_005093,8.286468309059398,44.868751697316355,IT,ITC1,ITC17,005093,Rocca d'Arazzo,901,12.57428363,2020,IT_005093,geo,TRUE
IT_005094,8.274170424062815,44.59516212125299,IT,ITC1,ITC17,005094,Roccaverano,382,29.51858194,2020,IT_005094,geo,TRUE
IT_005095,8.340352289056405,44.704459744336525,IT,ITC1,ITC17,005095,Rocchetta Palafea,347,7.84322179,2020,IT_005095,geo,TRUE
IT_005096,8.348224749450276,44.85710640169022,IT,ITC1,ITC17,005096,Rocchetta Tanaro,1416,15.92310297,2020,IT_005096,geo,TRUE
IT_005097,8.061581277897917,44.833674005381276,IT,ITC1,ITC17,005097,San Damiano d'Asti,8221,47.89614381,2020,IT_005097,geo,TRUE
IT_005098,8.235188599788591,44.60910657257567,IT,ITC1,ITC17,005098,San Giorgio Scarampi,106,6.15209203,2020,IT_005098,geo,TRUE
IT_005099,8.114026298189078,44.820316640025396,IT,ITC1,ITC17,005099,San Martino Alfieri,683,7.21175224,2020,IT_005099,geo,TRUE
IT_005100,8.291275235598176,44.754659021063716,IT,ITC1,ITC17,005100,San Marzano Oliveto,1017,9.69343271,2020,IT_005100,geo,TRUE
IT_005101,7.969986636785875,44.949068888370824,IT,ITC1,ITC17,005101,San Paolo Solbrito,1209,11.87415369,2020,IT_005101,geo,TRUE
IT_005103,8.272871193263216,44.96508819885319,IT,ITC1,ITC17,005103,Scurzolengo,539,5.35000876,2020,IT_005103,geo,TRUE
IT_005104,8.260042239101447,44.55680439971828,IT,ITC1,ITC17,005104,Serole,113,12.33761092,2020,IT_005104,geo,TRUE
IT_005105,8.339221821851007,44.67316212555651,IT,ITC1,ITC17,005105,Sessame,251,8.45702257,2020,IT_005105,geo,TRUE
IT_005106,8.108338080788325,44.96010253924031,IT,ITC1,ITC17,005106,Settime,530,6.68035197,2020,IT_005106,geo,TRUE
IT_005107,8.081507087925893,44.99568172895779,IT,ITC1,ITC17,005107,Soglio,152,3.23782284,2020,IT_005107,geo,TRUE
IT_005108,8.083719880435252,44.88169844792452,IT,ITC1,ITC17,005108,Tigliole,1713,16.12842447,2020,IT_005108,geo,TRUE
IT_005109,8.18782020238313,45.02463245474186,IT,ITC1,ITC17,005109,Tonco,796,11.79501802,2020,IT_005109,geo,TRUE
IT_005110,8.004059439803592,45.1178746435864,IT,ITC1,ITC17,005110,Tonengo,246,5.5969025,2020,IT_005110,geo,TRUE
IT_005111,8.341560740621095,44.798772342358404,IT,ITC1,ITC17,005111,Vaglio Serra,281,4.76868144,2020,IT_005111,geo,TRUE
IT_005112,7.963511750270941,44.89779920614691,IT,ITC1,ITC17,005112,Valfenera,2418,22.05617203,2020,IT_005112,geo,TRUE
IT_005113,8.226318065169899,44.63248894587094,IT,ITC1,ITC17,005113,Vesime,609,13.17404327,2020,IT_005113,geo,TRUE
IT_005114,8.052096463017268,44.99953951004717,IT,ITC1,ITC17,005114,Viale,241,3.97612005,2020,IT_005114,geo,TRUE
IT_005115,8.362283055732092,44.976192572451666,IT,ITC1,ITC17,005115,Viarigi,861,13.63641226,2020,IT_005115,geo,TRUE
IT_005116,8.222143159891626,44.83030166833086,IT,ITC1,ITC17,005116,Vigliano d'Asti,821,6.66501564,2020,IT_005116,geo,TRUE
