gisco_id,longitude,latitude,country,nuts_2,nuts_3,lau_id,lau_name,population,area_km2,year,fid,concordance,pop_weighted
RO_100004,27.59447385058473,47.29675774375805,RO,RO21,RO213,100004,Victoria,4432,61.34902309,2020,RO_100004,official,TRUE
RO_10006,22.18533011311869,45.96895404126847,RO,RO42,RO421,10006,Birchis,1791,103.91075282,2020,RO_10006,official,TRUE
RO_100086,26.756720969797502,47.328018600134484,RO,RO21,RO213,100086,Vânători,4643,51.71832697,2020,RO_100086,official,TRUE
RO_100148,27.328088742553277,47.422375816218064,RO,RO21,RO213,100148,Vlădeni,4242,79.31825287,2020,RO_100148,official,TRUE
RO_100219,27.419220309342677,47.06829382847379,RO,RO21,RO213,100219,Voineşti,8372,62.88322494,2020,RO_100219,official,TRUE
RO_100273,26.976777664105704,47.28183280681298,RO,RO21,RO213,100273,Balş,3653,31.64873799,2020,RO_100273,official,TRUE
RO_100282,26.926192479925884,47.23633063377858,RO,RO21,RO213,100282,Costeşti,1803,26.2549183,2020,RO_100282,official,TRUE
RO_100308,27.493578728455546,46.89615532352329,RO,RO21,RO213,100308,Draguşeni,1468,22.47785747,2020,RO_100308,official,TRUE
RO_100317,27.181347697768327,47.41137182596362,RO,RO21,RO213,100317,Fântânele,2077,33.1822386,2020,RO_100317,official,TRUE
RO_100326,26.803830020168565,47.26811237374049,RO,RO21,RO213,100326,Hărmăneşti,2569,27.81855614,2020,RO_100326,official,TRUE
RO_100335,26.911608667809812,47.05247645662298,RO,RO21,RO213,100335,Rachiţeni,3296,16.50434356,2020,RO_100335,official,TRUE
RO_100344,27.42243974834289,47.4361947944313,RO,RO21,RO213,100344,Roşcani,1568,37.89901182,2020,RO_100344,official,TRUE
RO_100353,27.51058960194295,47.182691507901446,RO,RO21,RO213,100353,Valea Lupului,10086,10.62663797,2020,RO_100353,official,TRUE
RO_100362,26.688056088381835,47.136809775360824,RO,RO21,RO213,100362,Ciohorani,1954,16.47048056,2020,RO_100362,official,TRUE
RO_10051,22.055020701328875,46.38512828285263,RO,RO42,RO421,10051,Bârsa,1807,50.76834934,2020,RO_10051,official,TRUE
RO_100521,25.969298328528023,43.90266618769305,RO,RO31,RO314,100521,Municipiul Giurgiu,66303,53.41120544,2020,RO_100521,official,TRUE
RO_100549,25.939964520811294,43.85570848009143,RO,RO31,RO314,100549,Slobozia,2288,58.34428253,2020,RO_100549,official,TRUE
RO_100576,25.9439710098525,44.564702022567936,RO,RO32,RO322,100576,Oraş Buftea,22718,54.81294431,2020,RO_100576,official,TRUE
RO_100610,26.64021985434981,44.0887131325672,RO,RO31,RO312,100610,Municipiul Olteniţa,26922,100.64663252,2020,RO_100610,official,TRUE
RO_100638,26.623670510897394,44.174658553938976,RO,RO31,RO312,100638,Mitreni,3992,52.18508512,2020,RO_100638,official,TRUE
RO_100683,26.642372568661138,44.71490775452162,RO,RO31,RO315,100683,Municipiul Urziceni,16656,54.04614395,2020,RO_100683,official,TRUE
RO_100709,26.671979412590773,44.79238866150416,RO,RO31,RO315,100709,Ciocârlia,742,15.50729418,2020,RO_100709,official,TRUE
RO_100736,26.66893065441002,44.70676664986802,RO,RO31,RO315,100736,Manasia,4572,33.59405288,2020,RO_100736,official,TRUE
RO_100754,26.44286021820523,44.762641081966926,RO,RO31,RO315,100754,Adâncata,2325,46.95461896,2020,RO_100754,official,TRUE
RO_100781,26.04491561804809,44.263392603015646,RO,RO31,RO314,100781,Adunaţii-Copăceni,6183,77.93179734,2020,RO_100781,official,TRUE
RO_100834,26.25001759934556,44.524899126492834,RO,RO32,RO322,100834,Afumaţi,8187,60.40683531,2020,RO_100834,official,TRUE
RO_100852,26.71208162012637,44.679430301117236,RO,RO31,RO315,100852,Alexeni,2343,43.61031547,2020,RO_100852,official,TRUE
RO_100870,26.581393697139955,44.77147983656917,RO,RO31,RO315,100870,Armăşeşti,2127,47.4213069,2020,RO_100870,official,TRUE
RO_100923,26.771546163477115,44.590738778874936,RO,RO31,RO315,100923,Axintele,2269,121.87631465,2020,RO_100923,official,TRUE
RO_100969,26.09233369211074,44.619296492779526,RO,RO32,RO322,100969,Baloteşti,8970,51.07404041,2020,RO_100969,official,TRUE
RO_101001,26.069903384689557,44.04668384353332,RO,RO31,RO314,101001,Băneasa,4714,112.51555627,2020,RO_101001,official,TRUE
RO_10104,22.02389957381996,46.105583654758824,RO,RO42,RO421,10104,Bârzava,2440,256.32502974,2020,RO_10104,official,TRUE
RO_101056,26.66572294478382,44.63478684002859,RO,RO31,RO315,101056,Bărcăneşti,3516,112.11562857,2020,RO_101056,official,TRUE
RO_101083,26.43816090747896,44.49270528135346,RO,RO31,RO312,101083,Belciugatele,2037,78.94822877,2020,RO_101083,official,TRUE
RO_101145,26.18551425176572,44.314252901514536,RO,RO32,RO322,101145,Berceni,7943,27.30977329,2020,RO_101145,official,TRUE
RO_101163,25.822438557953888,44.45211683534783,RO,RO31,RO314,101163,Bolintin-Deal,6187,28.48069553,2020,RO_101163,official,TRUE
RO_101190,25.75684347508268,44.44857758831971,RO,RO31,RO314,101190,Oraş Bolintin-Vale,13849,37.50272005,2020,RO_101190,official,TRUE
RO_101243,26.355100639775802,44.765028905589176,RO,RO31,RO315,101243,Radulesti,1128,22.46702122,2020,RO_101243,official,TRUE
RO_101298,26.338072738713425,44.459676957098175,RO,RO32,RO322,101298,Brăneşti,9499,53.30134424,2020,RO_101298,official,TRUE
RO_101341,25.761323147306747,44.566598715741115,RO,RO31,RO313,101341,Brezoaele,3477,36.65003292,2020,RO_101341,official,TRUE
RO_101378,25.66287868099594,44.365715186852114,RO,RO31,RO314,101378,Bucşani,3506,87.10637938,2020,RO_101378,official,TRUE
RO_101458,26.464828996356797,44.23822757877452,RO,RO31,RO312,101458,Oraş Budeşti,7572,79.23683899,2020,RO_101458,official,TRUE
RO_101519,25.82056930794093,44.28282287117836,RO,RO31,RO314,101519,Bulbucata,1392,27.9871363,2020,RO_101519,official,TRUE
RO_101564,25.88475529951156,44.69078363119525,RO,RO31,RO313,101564,Butimanu,2286,46.97007722,2020,RO_101564,official,TRUE
RO_101617,25.82319889210805,44.34989623362475,RO,RO31,RO314,101617,Buturugeni,3950,44.65315607,2020,RO_101617,official,TRUE
RO_101662,25.975007539770328,44.16646282770812,RO,RO31,RO314,101662,Calugăreni,5459,122.58761437,2020,RO_101662,official,TRUE
RO_1017,23.5632639856278,46.07438467874279,RO,RO12,RO121,1017,Municipiul Alba Iulia,74885,102.51494587,2020,RO_1017,official,TRUE
RO_101724,26.46714552984953,44.127106157583484,RO,RO31,RO312,101724,Căscioarele,1675,26.40522718,2020,RO_101724,official,TRUE
RO_101742,26.28590823791846,44.38960561875344,RO,RO32,RO322,101742,Cernica,10819,38.76675112,2020,RO_101742,official,TRUE
RO_101804,26.578623721898136,44.10869386165684,RO,RO31,RO312,101804,Chirnogi,7118,195.57117439,2020,RO_101804,official,TRUE
RO_101822,26.856249731531786,44.17031536129679,RO,RO31,RO312,101822,Chiselet,3176,84.32042396,2020,RO_101822,official,TRUE
RO_101840,25.8503201670412,44.61519456214236,RO,RO31,RO313,101840,Ciocăneşti,5202,46.18146797,2020,RO_101840,official,TRUE
RO_101902,26.095666227513977,44.724427662088566,RO,RO32,RO322,101902,Ciolpani,5253,41.87038383,2020,RO_101902,official,TRUE
RO_10195,21.954237700480967,46.422512496087215,RO,RO42,RO421,10195,Bocsig,3421,81.38188892,2020,RO_10195,official,TRUE
RO_101957,25.881204335621092,44.435828091536706,RO,RO32,RO322,101957,Ciorogârla,6210,30.35948363,2020,RO_101957,official,TRUE
RO_101984,25.71331801190028,44.31573866933959,RO,RO31,RO314,101984,Clejani,3540,77.03467801,2020,RO_101984,official,TRUE
RO_102035,25.943124659947298,44.38332863521149,RO,RO32,RO322,102035,Clinceni,7100,23.2651898,2020,RO_102035,official,TRUE
RO_102071,26.194661005058062,44.224282549206,RO,RO31,RO314,102071,Colibaşi,3130,28.45836488,2020,RO_102071,official,TRUE
RO_102106,26.143045201405847,44.16958135530042,RO,RO31,RO314,102106,Comana,6477,104.73074832,2020,RO_102106,official,TRUE
RO_102160,26.025438355526685,44.59321311153154,RO,RO32,RO322,102160,Corbeanca,8362,30.06935697,2020,RO_102160,official,TRUE
RO_102213,25.93238511609721,44.34612967658304,RO,RO32,RO322,102213,Cornetu,6229,16.68876093,2020,RO_102213,official,TRUE
RO_102240,26.56091184659314,44.68500829634448,RO,RO31,RO315,102240,Coşereni,4339,44.30111071,2020,RO_102240,official,TRUE
RO_102286,25.929600544156294,44.588453727630615,RO,RO31,RO313,102286,Crevedia,5983,55.80015907,2020,RO_102286,official,TRUE
RO_102348,25.621443344759577,44.42902799643472,RO,RO31,RO314,102348,Crevedia Mare,4767,63.62087054,2020,RO_102348,official,TRUE
RO_10239,22.313951558548695,46.22227484770687,RO,RO42,RO421,10239,Brazii,1203,118.75327352,2020,RO_10239,official,TRUE
RO_102419,26.58805196234243,44.19936239484368,RO,RO31,RO312,102419,Curcani,5396,53.60448569,2020,RO_102419,official,TRUE
RO_102446,25.991386816473117,44.005225525552525,RO,RO31,RO314,102446,Daia,2472,59.36161861,2020,RO_102446,official,TRUE
RO_102473,26.23278104689089,44.60297551469912,RO,RO32,RO322,102473,Dascălu,2937,38.89455982,2020,RO_102473,official,TRUE
RO_102525,26.016928002242715,44.308317829987864,RO,RO32,RO322,102525,Dărăşti-Ilfov,2666,14.77822433,2020,RO_102525,official,TRUE
RO_102543,26.054847373992878,44.28891473210941,RO,RO32,RO322,102543,1 Decembrie,8318,17.0468409,2020,RO_102543,official,TRUE
RO_102570,25.913770645565215,44.40280242369324,RO,RO32,RO322,102570,Domneşti,10015,37.4041004,2020,RO_102570,official,TRUE
RO_102605,25.938186557093527,44.46850485614633,RO,RO32,RO322,102605,Dragomireşti-Vale,5474,31.3889757,2020,RO_102605,official,TRUE
RO_102641,26.537102338013515,44.5658815161324,RO,RO31,RO315,102641,Drăgoeşti,924,47.38428056,2020,RO_102641,official,TRUE
RO_102703,26.450691370261417,44.69446464630439,RO,RO31,RO315,102703,Dridu,3131,56.74143338,2020,RO_102703,official,TRUE
RO_102749,26.38914434833128,44.68270147264748,RO,RO31,RO315,102749,Oraş Fierbinţi-Târg,4484,57.64983048,2020,RO_102749,official,TRUE
RO_102794,25.705799797819708,44.4951929837592,RO,RO31,RO314,102794,Floreşti-Stoeneşti,8604,41.08876353,2020,RO_102794,official,TRUE
RO_102838,26.818936612271788,44.31322725735755,RO,RO31,RO312,102838,Frăsinet,1623,86.81177859,2020,RO_102838,official,TRUE
RO_102909,25.971163213889493,43.95770116933925,RO,RO31,RO314,102909,Frăteşti,5097,91.37632937,2020,RO_102909,official,TRUE
RO_10293,22.113691595547674,46.33001638915544,RO,RO42,RO421,10293,Buteni,3339,95.74518312,2020,RO_10293,official,TRUE
RO_102945,26.31522482943803,44.301578306893546,RO,RO31,RO312,102945,Frumuşani,5052,72.35535845,2020,RO_102945,official,TRUE
RO_103014,26.342271399617296,44.38472239637131,RO,RO31,RO312,103014,Fundeni,4646,69.83471398,2020,RO_103014,official,TRUE
RO_103032,26.505188787355607,44.464836693909284,RO,RO31,RO312,103032,Oraş Fundulea,6619,106.76341694,2020,RO_103032,official,TRUE
RO_103087,25.637384777113414,44.50655234917313,RO,RO31,RO314,103087,Găiseni,5388,53.48039936,2020,RO_103087,official,TRUE
RO_103130,26.31286923285191,44.501627873210666,RO,RO32,RO322,103130,Găneasa,5266,46.41492239,2020,RO_103130,official,TRUE
RO_103194,25.699234883602767,43.73305492859069,RO,RO31,RO314,103194,Găujani,2276,84.64867661,2020,RO_103194,official,TRUE
RO_103238,25.776814955583173,44.18837920264173,RO,RO31,RO314,103238,Ghimpaţi,5551,123.25387388,2020,RO_103238,official,TRUE
RO_103283,26.768309240800768,44.786373748651016,RO,RO31,RO315,103283,Gârbovi,3610,78.31672151,2020,RO_103283,official,TRUE
RO_103309,25.686611049204885,43.868571393544734,RO,RO31,RO314,103309,Gogoşari,1696,121.78889941,2020,RO_103309,official,TRUE
RO_103354,26.117515657123388,43.99581520871401,RO,RO31,RO314,103354,Gostinu,1751,50.20596945,2020,RO_103354,official,TRUE
RO_103372,26.22752919750035,44.186286787676366,RO,RO31,RO314,103372,Gostinari,2328,34.08750196,2020,RO_103372,official,TRUE
RO_103407,25.818505793066546,44.3984358743149,RO,RO31,RO314,103407,Grădinari,3226,32.30817164,2020,RO_103407,official,TRUE
RO_103443,26.308046042639074,44.66471175831006,RO,RO32,RO322,103443,Grădiştea,3143,28.8250324,2020,RO_103443,official,TRUE
RO_10346,22.06533789017709,46.45225712022257,RO,RO42,RO421,10346,Cărand,1075,38.18867026,2020,RO_10346,official,TRUE
RO_103470,26.33946716084633,44.11446670252279,RO,RO31,RO314,103470,Greaca,2176,32.38194065,2020,RO_103470,official,TRUE
RO_103513,26.220110460045444,44.72486701201355,RO,RO32,RO322,103513,Gruiu,6932,65.53087949,2020,RO_103513,official,TRUE
RO_103568,26.698335205132782,44.37742176651802,RO,RO31,RO312,103568,Gurbănesti,1086,75.129351260000007,2020,RO_103568,official,TRUE
RO_103639,26.372001884480433,44.17455883283718,RO,RO31,RO314,103639,Hotarele,3303,47.6217688,2020,RO_103639,official,TRUE
RO_103693,25.873567291430554,44.26612782842516,RO,RO31,RO314,103693,Iepureşti,1871,54.46999896,2020,RO_103693,official,TRUE
RO_10373,21.846354053882415,46.554406926923804,RO,RO42,RO421,10373,Cermei,2671,115.39743926,2020,RO_10373,official,TRUE
RO_103764,26.67032704053826,44.52074979669761,RO,RO31,RO312,103764,Ileana,3039,140.40938115,2020,RO_103764,official,TRUE
RO_103862,26.76332268198621,44.66360885454585,RO,RO31,RO315,103862,Ion Roată,3631,43.8225026,2020,RO_103862,official,TRUE
RO_103899,25.78103436930684,44.04438778449607,RO,RO31,RO314,103899,Izvoarele,3215,136.65233241,2020,RO_103899,official,TRUE
RO_103960,26.528253670556502,44.76776008226536,RO,RO31,RO315,103960,Jilavele,3317,52.34962888,2020,RO_103960,official,TRUE
RO_103997,25.87093561004397,44.48856469026282,RO,RO31,RO314,103997,Joiţa,3718,24.13348941,2020,RO_103997,official,TRUE
RO_104047,25.71044798753795,44.23990096752261,RO,RO31,RO314,104047,Letca Nouă,3425,86.67602146,2020,RO_104047,official,TRUE
RO_104083,26.588724773194464,44.23414241482327,RO,RO31,RO312,104083,Luica,2052,37.96298136,2020,RO_104083,official,TRUE
RO_104118,26.056944891746664,44.14130512035722,RO,RO31,RO314,104118,Mihai Bravu,2324,65.47162882,2020,RO_104118,official,TRUE
RO_104136,25.920992550186583,44.317163874059986,RO,RO31,RO314,104136,Oraş Mihăileşti,7479,68.48265182,2020,RO_104136,official,TRUE
RO_10417,22.096673076856888,46.287276760713425,RO,RO42,RO421,10417,Chisindia,1247,128.68432947,2020,RO_10417,official,TRUE
RO_104181,26.89330616002461,44.221480994823956,RO,RO31,RO312,104181,Mânăstirea,5260,121.80093478,2020,RO_104181,official,TRUE
RO_104225,25.558395028312063,44.37461325127703,RO,RO31,RO314,104225,Mârşa,2751,70.03968416,2020,RO_104225,official,TRUE
RO_104243,26.203749368476057,44.63913876390829,RO,RO32,RO322,104243,Moara Vlăsiei,6342,62.25333008,2020,RO_104243,official,TRUE
RO_104270,26.483765919438934,44.63761659073962,RO,RO31,RO315,104270,Moviliţa,2461,37.90663702,2020,RO_104270,official,TRUE
RO_104323,26.591338925566046,44.26678113847297,RO,RO31,RO312,104323,Nana,2301,77.33503516,2020,RO_104323,official,TRUE
RO_104341,26.74785942296958,44.44375279469308,RO,RO31,RO312,104341,Nicolae Bălcescu,1563,34.83398187,2020,RO_104341,official,TRUE
RO_104387,25.96303371056228,44.69186275308601,RO,RO31,RO313,104387,Niculeşti,4237,27.24791314,2020,RO_104387,official,TRUE
RO_104421,26.318279459404636,44.7170000745475,RO,RO32,RO322,104421,Nuci,2748,52.37639916,2020,RO_104421,official,TRUE
RO_104485,25.773407916389306,44.40853217540561,RO,RO31,RO314,104485,Ogrezeni,4650,37.66885583,2020,RO_104485,official,TRUE
RO_104519,26.0224061037902,43.95627555935294,RO,RO31,RO314,104519,Oinacu,3157,50.80642964,2020,RO_104519,official,TRUE
RO_10453,21.860150696411182,46.09976442686091,RO,RO42,RO421,10453,Conop,2199,191.41783115,2020,RO_10453,official,TRUE
RO_104546,26.0063852098675,44.68607943156522,RO,RO32,RO322,104546,Periş,7268,77.59339424,2020,RO_104546,official,TRUE
RO_104582,26.313515908006526,44.577400612228686,RO,RO32,RO322,104582,Petrăchioaia,3464,58.69802322,2020,RO_104582,official,TRUE
RO_104635,26.378736643892598,44.35127178090953,RO,RO31,RO312,104635,Plătăreşti,3360,57.06092323,2020,RO_104635,official,TRUE
RO_104680,26.230219899317223,44.089519622824675,RO,RO31,RO314,104680,Prundu,4068,186.92581056,2020,RO_104680,official,TRUE
RO_104715,25.77024887608543,43.90001760581065,RO,RO31,RO314,104715,Putineiu,2215,89.72343715,2020,RO_104715,official,TRUE
RO_104751,26.515732470112628,44.191694387022686,RO,RO31,RO312,104751,Radovanu,3796,59.73802969,2020,RO_104751,official,TRUE
RO_104788,25.695402164496908,44.08633657329496,RO,RO31,RO314,104788,Răsuceni,2159,89.04597282,2020,RO_104788,official,TRUE
RO_104831,25.50751225802701,44.423010644634324,RO,RO31,RO314,104831,Roata de Jos,7913,84.32392202,2020,RO_104831,official,TRUE
RO_104886,26.654288705105227,44.435445640199404,RO,RO31,RO312,104886,Săruleşti,2876,68.35970006,2020,RO_104886,official,TRUE
RO_104975,25.840366718540245,44.14384708472859,RO,RO31,RO314,104975,Schitu,1542,73.67908058,2020,RO_104975,official,TRUE
RO_105026,26.382849863590536,44.56173895320623,RO,RO31,RO315,105026,Sineşti,2787,66.08562637,2020,RO_105026,official,TRUE
RO_105106,25.94961143304058,44.230262107896436,RO,RO31,RO314,105106,Singureni,2902,59.36815853,2020,RO_105106,official,TRUE
RO_10514,21.60870005941314,46.20128594104619,RO,RO42,RO421,10514,Covăsinţ,2703,37.4769248,2020,RO_10514,official,TRUE
RO_105142,25.728222329664778,44.599018444860526,RO,RO31,RO313,105142,Slobozia Moară,1972,16.63519617,2020,RO_105142,official,TRUE
RO_105160,26.138746554887955,44.69082530295916,RO,RO32,RO322,105160,Snagov,7857,90.28611806,2020,RO_105160,official,TRUE
RO_105222,26.48917986870742,44.33516606797326,RO,RO31,RO312,105222,Sohatu,2471,83.11323824,2020,RO_105222,official,TRUE
RO_105259,26.803013791825403,44.13507474980067,RO,RO31,RO312,105259,Spanţov,4712,64.75940428,2020,RO_105259,official,TRUE
RO_105295,25.863615774838266,43.92850921220906,RO,RO31,RO314,105295,Stăneşti,2569,100.31893474,2020,RO_105295,official,TRUE
RO_10532,21.974635075078844,46.57542208690435,RO,RO42,RO421,10532,Craiva,2896,114.65348329,2020,RO_10532,official,TRUE
RO_105348,25.892625184942933,44.147966457484664,RO,RO31,RO314,105348,Stoeneşti,1872,47.38803749,2020,RO_105348,official,TRUE
RO_105384,26.520838634577423,44.224103943130665,RO,RO31,RO312,105384,Şoldanu,3379,42.2251156,2020,RO_105384,official,TRUE
RO_105419,26.19816615075354,44.53377545012235,RO,RO32,RO322,105419,Ştefăneştii de Jos,9073,29.36585631,2020,RO_105419,official,TRUE
RO_105455,26.575384838330834,44.461458344835236,RO,RO31,RO312,105455,Tămădău Mare,2477,41.19173627,2020,RO_105455,official,TRUE
RO_105534,25.823515480527384,44.57549581272899,RO,RO31,RO313,105534,Tărtăşeşti,5186,58.33470153,2020,RO_105534,official,TRUE
RO_105570,26.139003516117185,44.548363053406156,RO,RO32,RO322,105570,Tunari,6583,29.76475244,2020,RO_105570,official,TRUE
RO_105605,26.712663728943774,44.143534397296655,RO,RO31,RO312,105605,Ulmeni,4830,55.52786839,2020,RO_105605,official,TRUE
RO_105623,25.765981246915498,44.49501495530131,RO,RO31,RO314,105623,Ulmi,7429,43.70206083,2020,RO_105623,official,TRUE
RO_105712,26.784590228466282,44.35715237838331,RO,RO31,RO312,105712,Valea Argovei,2339,85.79669312,2020,RO_105712,official,TRUE
RO_105776,26.299119397649296,44.20968029441741,RO,RO31,RO314,105776,Valea Dragului,2754,37.74001124,2020,RO_105776,official,TRUE
RO_105794,26.830758235266664,44.739843816997066,RO,RO31,RO315,105794,Valea Măcrişului,1636,49.89359261,2020,RO_105794,official,TRUE
RO_105829,26.442770519964764,44.289942072229415,RO,RO31,RO312,105829,Vasilaţi,4200,65.19772941,2020,RO_105829,official,TRUE
RO_105874,26.23933951544609,44.24085646510496,RO,RO31,RO314,105874,Vărăşti,5752,47.68165651,2020,RO_105874,official,TRUE
RO_105909,25.78615544472755,43.778969270844705,RO,RO31,RO314,105909,Vedea,2591,82.46217312,2020,RO_105909,official,TRUE
RO_105936,26.148062916719653,44.27840568618809,RO,RO32,RO322,105936,Vidra,8727,66.96985319,2020,RO_105936,official,TRUE
RO_105972,25.548175878215876,44.49580786487363,RO,RO31,RO314,105972,Vânătorii Mici,4541,58.12388709,2020,RO_105972,official,TRUE
RO_106318,23.563559903292695,47.65138731676777,RO,RO11,RO114,106318,Municipiul Baia Mare,144925,233.59108121,2020,RO_106318,official,TRUE
RO_106363,23.57999019415548,47.635151751798155,RO,RO11,RO114,106363,Groşi,3103,22.53281715,2020,RO_106363,official,TRUE
RO_106407,23.4972258450335,47.63158375568686,RO,RO11,RO114,106407,Recea,6520,43.8026473,2020,RO_106407,official,TRUE
RO_106461,23.465236850531912,47.68460363207385,RO,RO11,RO114,106461,Oraş Tăuţii-Măgherăuş,8693,121.18515046,2020,RO_106461,official,TRUE
RO_10649,22.241834078064024,46.405873474024006,RO,RO42,RO421,10649,Dezna,1109,83.07789892,2020,RO_10649,official,TRUE
RO_106559,23.89193338709501,47.92758006096624,RO,RO11,RO114,106559,Municipiul Sighetu Marmaţiei,43094,136.65366861,2020,RO_106559,official,TRUE
RO_106620,23.823728029550566,47.95654641470313,RO,RO11,RO114,106620,Sarasău,2843,19.29798249,2020,RO_106620,official,TRUE
RO_106648,23.935445000264053,47.88440825726204,RO,RO11,RO114,106648,Vadu Izei,2908,16.94229777,2020,RO_106648,official,TRUE
RO_106684,23.687768518913163,47.66052097725066,RO,RO11,RO114,106684,Oraş Baia Sprie,16975,93.08926625,2020,RO_106684,official,TRUE
RO_106746,24.68359019765404,47.65857480130056,RO,RO11,RO114,106746,Oraş Borşa,29798,419.14232244,2020,RO_106746,official,TRUE
RO_106782,23.84821165287139,47.655715035545434,RO,RO11,RO114,106782,Oraş Cavnic,5120,24.39598617,2020,RO_106782,official,TRUE
RO_106817,23.8690512698986,47.45182831701684,RO,RO11,RO114,106817,Oraş Târgu Lăpuş,12940,246.96624604,2020,RO_106817,official,TRUE
RO_106979,24.43235828983303,47.71036190687104,RO,RO11,RO114,106979,Oraş Vişeu de Sus,17746,440.95782959,2020,RO_106979,official,TRUE
RO_107001,23.36074747094369,47.645132124028436,RO,RO11,RO114,107001,Ardusat,2806,31.07786138,2020,RO_107001,official,TRUE
RO_10701,22.244122587099568,46.31834352782899,RO,RO42,RO421,10701,Dieci,1459,83.72461833,2020,RO_10701,official,TRUE
RO_107047,23.226986131330566,47.50239963653563,RO,RO11,RO114,107047,Ariniş,1040,27.03872538,2020,RO_107047,official,TRUE
RO_107083,23.18546651997122,47.564359053527575,RO,RO11,RO114,107083,Asuaju de Sus,1225,59.16759023,2020,RO_107083,official,TRUE
RO_1071,23.628271264617933,46.064968880487626,RO,RO12,RO121,1071,Ciugud,3115,43.92535315,2020,RO_1071,official,TRUE
RO_107118,23.14843634843967,47.525163285149596,RO,RO11,RO114,107118,Băiţa de sub Codru,1880,48.82205542,2020,RO_107118,official,TRUE
RO_107154,23.999054684928897,47.61636144141968,RO,RO11,RO114,107154,Băiuţ,2271,114.32943308,2020,RO_107154,official,TRUE
RO_107190,23.11205794082597,47.49256074652229,RO,RO11,RO114,107190,Băseşti,1353,54.25560971,2020,RO_107190,official,TRUE
RO_107234,23.023987232433203,47.462937930386985,RO,RO11,RO114,107234,Bicaz,989,39.09079004,2020,RO_107234,official,TRUE
RO_107270,24.175530312894818,47.89077736867248,RO,RO11,RO114,107270,Bistra,4271,128.35583529,2020,RO_107270,official,TRUE
RO_107314,24.07013978434022,47.80897252718588,RO,RO11,RO114,107314,Bârsana,4669,72.06089782,2020,RO_107314,official,TRUE
RO_107350,23.97504714942707,47.94876393573261,RO,RO11,RO114,107350,Bocicoiu Mare,4498,27.20521203,2020,RO_107350,official,TRUE
RO_107403,24.27432974315212,47.69360314862371,RO,RO11,RO114,107403,Bogdan Vodă,2971,34.27993931,2020,RO_107403,official,TRUE
RO_107430,23.570468958594294,47.40051201257412,RO,RO11,RO114,107430,Boiu Mare,1117,59.22182593,2020,RO_107430,official,TRUE
RO_107485,24.145611998349402,47.66662211036759,RO,RO11,RO114,107485,Botiza,2512,74.20423396,2020,RO_107485,official,TRUE
RO_107519,23.94441555792061,47.73141986164145,RO,RO11,RO114,107519,Budeşti,2958,85.2690226,2020,RO_107519,official,TRUE
RO_107546,23.986193985452893,47.788450897016375,RO,RO11,RO114,107546,Călineşti,3129,66.09688661,2020,RO_107546,official,TRUE
RO_107582,23.77423830014208,47.54118300672711,RO,RO11,RO114,107582,Cerneşti,3599,95.93904102,2020,RO_107582,official,TRUE
RO_10765,21.82844230255902,46.058499258812965,RO,RO42,RO421,10765,Ususau,1400,135.54342494,2020,RO_10765,official,TRUE
RO_107662,23.384026045077565,47.700853067436206,RO,RO11,RO114,107662,Cicârlău,4325,74.74596749,2020,RO_107662,official,TRUE
RO_107715,23.760950737525228,47.984088427398,RO,RO11,RO114,107715,Câmpulung la Tisa,2496,34.03609357,2020,RO_107715,official,TRUE
RO_107733,23.682161736773125,47.51508858751304,RO,RO11,RO114,107733,Copalnic-Mănăştur,5589,117.4948562,2020,RO_107733,official,TRUE
RO_107868,23.7768469037525,47.38493399931905,RO,RO11,RO114,107868,Coroieni,2506,66.98502513,2020,RO_107868,official,TRUE
RO_107920,23.952752594370534,47.531648469630625,RO,RO11,RO114,107920,Cupşeni,3307,82.10487587,2020,RO_107920,official,TRUE
RO_107975,23.844168609668092,47.76320216501509,RO,RO11,RO114,107975,Deseşti,2312,142.40860098,2020,RO_107975,official,TRUE
RO_108017,24.293865018830942,47.66635669226525,RO,RO11,RO114,108017,Oraş Dragomiresti,3203,100.97933437,2020,RO_108017,official,TRUE
RO_108035,23.64625416650685,47.600507101414415,RO,RO11,RO114,108035,Dumbrăviţa,4331,51.86469876,2020,RO_108035,official,TRUE
RO_108106,23.342557391350592,47.59179880511013,RO,RO11,RO114,108106,Fărcaşa,4014,49.32444283,2020,RO_108106,official,TRUE
RO_108151,23.929992919665512,47.83289496919448,RO,RO11,RO114,108151,Giuleşti,3176,78.37312268,2020,RO_108151,official,TRUE
RO_108204,24.23161964302676,47.67157785747021,RO,RO11,RO114,108204,Ieud,4348,75.79540124,2020,RO_108204,official,TRUE
RO_108222,24.007303152375854,47.4989488061883,RO,RO11,RO114,108222,Lăpuş,3609,94.59569162,2020,RO_108222,official,TRUE
RO_108240,24.257116187306483,47.78425447094586,RO,RO11,RO114,108240,Leordina,2362,29.72332166,2020,RO_108240,official,TRUE
RO_108268,23.35248567641886,47.50423426383361,RO,RO11,RO114,108268,Mireşu Mare,4699,73.27203035,2020,RO_108268,official,TRUE
RO_10827,21.14503955292545,46.118223921996716,RO,RO42,RO421,10827,Felnac,3167,49.97531031,2020,RO_10827,official,TRUE
RO_108348,24.551343186864347,47.6548009382211,RO,RO11,RO114,108348,Moisei,9311,118.3370735,2020,RO_108348,official,TRUE
RO_108366,23.10771084686595,47.46145402976199,RO,RO11,RO114,108366,Oarţa de Jos,1105,31.84717427,2020,RO_108366,official,TRUE
RO_108400,23.918082400337003,47.77635852996333,RO,RO11,RO114,108400,Ocna Şugatag,4141,90.86815471,2020,RO_108400,official,TRUE
RO_108455,24.21064014040133,47.8314081901652,RO,RO11,RO114,108455,Petrova,2425,41.64795405,2020,RO_108455,official,TRUE
RO_108473,24.440089650184497,47.822752383018184,RO,RO11,RO114,108473,Poienile de Sub Munte,10246,289.66164507,2020,RO_108473,official,TRUE
RO_108491,23.531895098086675,47.52316470351392,RO,RO11,RO114,108491,Remetea Chioarului,2873,53.379591,2020,RO_108491,official,TRUE
RO_108552,23.63482157723525,47.98721181681932,RO,RO11,RO114,108552,Remeţi,3208,68.18409101,2020,RO_108552,official,TRUE
RO_108598,24.38645625970368,47.828227565431206,RO,RO11,RO114,108598,Repedea,4991,117.17474675,2020,RO_108598,official,TRUE
RO_108614,24.013604206366708,47.92331629154135,RO,RO11,RO114,108614,Rona de Jos,1992,23.02115967,2020,RO_108614,official,TRUE
RO_108632,24.0398650247667,47.896944069818325,RO,RO11,RO114,108632,Rona de Sus,4469,63.81380252,2020,RO_108632,official,TRUE
RO_108669,24.21090703106015,47.73700497863747,RO,RO11,RO114,108669,Rozavlea,3218,42.77990707,2020,RO_108669,official,TRUE
RO_108696,24.28170775080576,47.79264039444241,RO,RO11,RO114,108696,Ruscova,5634,40.86453431,2020,RO_108696,official,TRUE
RO_108712,23.413396773258654,47.57051829474101,RO,RO11,RO114,108712,Satulung,6303,68.9436734,2020,RO_108712,official,TRUE
RO_10872,21.59433812449116,46.15376043989002,RO,RO42,RO421,10872,Ghioroc,4019,48.59635921,2020,RO_10872,official,TRUE
RO_108794,23.57495510225982,47.573700856452774,RO,RO11,RO114,108794,Săcălăşeni,2393,28.74064733,2020,RO_108794,official,TRUE
RO_108874,24.43964990723348,47.63533853901818,RO,RO11,RO114,108874,Săcel,3347,83.22059191,2020,RO_108874,official,TRUE
RO_108892,24.351647768134015,47.65777654904413,RO,RO11,RO114,108892,Oraş Săliştea de Sus,5004,68.60716256,2020,RO_108892,official,TRUE
RO_108918,23.2970704455379,47.52121965338441,RO,RO11,RO114,108918,Sălsig,1669,20.35833456,2020,RO_108918,official,TRUE
RO_108945,23.695103912845035,47.970211847536014,RO,RO11,RO114,108945,Săpânţa,3170,139.37249789,2020,RO_108945,official,TRUE
RO_108963,23.287879512274714,47.74966643550289,RO,RO11,RO114,108963,Oraş Seini,9627,58.57810293,2020,RO_108963,official,TRUE
RO_109005,24.12579962822101,47.76779035744697,RO,RO11,RO114,109005,Strâmtura,3515,91.64896504,2020,RO_109005,official,TRUE
RO_109041,24.03070508445032,47.43530500890418,RO,RO11,RO114,109041,Suciu de Sus,3873,111.66522963,2020,RO_109041,official,TRUE
RO_109096,23.7376936735451,47.62370255615029,RO,RO11,RO114,109096,Şişeşti,5347,90.45103885,2020,RO_109096,official,TRUE
RO_10916,21.331128367727988,46.50847448171733,RO,RO42,RO421,10916,Grăniceri,2495,78.40920849,2020,RO_10916,official,TRUE
RO_109176,23.468015830969414,47.497153745425734,RO,RO11,RO114,109176,Oraş Şomcuţa Mare,8065,118.29220384,2020,RO_109176,official,TRUE
RO_109265,23.29220650641381,47.45771424920451,RO,RO11,RO114,109265,Oraş Ulmeni,7497,80.50176437,2020,RO_109265,official,TRUE
RO_109354,23.44644589230727,47.41071319475203,RO,RO11,RO114,109354,Valea Chioarului,1999,79.01552153,2020,RO_109354,official,TRUE
RO_109425,23.703549156484296,47.40607029493579,RO,RO11,RO114,109425,Vima Mică,1391,76.34620077,2020,RO_109425,official,TRUE
RO_10943,22.33686185119727,46.27580326901176,RO,RO42,RO421,10943,Gurahonţ,3766,170.8050562,2020,RO_10943,official,TRUE
RO_109504,24.365113134618763,47.72688155444736,RO,RO11,RO114,109504,Vişeu de Jos,5022,55.89550751,2020,RO_109504,official,TRUE
RO_109773,22.657188377597475,44.63692195470458,RO,RO41,RO413,109773,Municipiul Drobeta-Turnu Severin,105651,59.44763333,2020,RO_109773,official,TRUE
RO_109826,22.717792255706573,44.622673947153416,RO,RO41,RO413,109826,Şimian,10478,64.62766917,2020,RO_109826,official,TRUE
RO_109924,22.805990858944277,45.001592241156885,RO,RO41,RO413,109924,Oraş Baia de Aramă,5529,87.3068597,2020,RO_109924,official,TRUE
RO_110027,22.684084891398044,45.022571613743,RO,RO41,RO413,110027,Obârşia-Cloşani,1017,66.49814536,2020,RO_110027,official,TRUE
RO_110063,22.396902087372375,44.7257834913033,RO,RO41,RO413,110063,Municipiul Orşova,12233,49.16403745,2020,RO_110063,official,TRUE
RO_110116,23.188441853362104,44.62276183623529,RO,RO41,RO413,110116,Oraş Strehaia,10993,108.66049656,2020,RO_110116,official,TRUE
RO_110232,22.87481558547474,44.42589921034546,RO,RO41,RO413,110232,Oraş Vânju Mare,5821,97.09435581,2020,RO_110232,official,TRUE
RO_110296,22.818576659262884,44.88944332091144,RO,RO41,RO413,110296,Bala,3564,114.52056432,2020,RO_110296,official,TRUE
RO_110456,22.606361962622564,44.91423148885571,RO,RO41,RO413,110456,Balta,955,106.80219885,2020,RO_110456,official,TRUE
RO_110535,23.129410430375028,44.388011719058575,RO,RO41,RO413,110535,Bălăciţa,2559,98.16785765,2020,RO_110535,official,TRUE
RO_110571,23.135889100167905,44.473630030039594,RO,RO41,RO413,110571,Bâcleş,1696,99.71378595,2020,RO_110571,official,TRUE
RO_11058,22.57428469106115,46.26507133157309,RO,RO42,RO421,11058,Hălmagiu,2490,97.09471272,2020,RO_11058,official,TRUE
RO_110688,22.682912853799678,44.78536085731229,RO,RO41,RO413,110688,Bâlvăneşti,895,49.32607107,2020,RO_110688,official,TRUE
RO_110740,23.222681772335573,44.56636984192571,RO,RO41,RO413,110740,Brezniţa-Motru,1303,51.71542851,2020,RO_110740,official,TRUE
RO_110820,22.615194697910418,44.67531073846426,RO,RO41,RO413,110820,Brezniţa-Ocol,3980,81.57582639,2020,RO_110820,official,TRUE
RO_110875,22.984831224295025,44.752612709332006,RO,RO41,RO413,110875,Broşteni,2740,45.82988886,2020,RO_110875,official,TRUE
RO_110946,22.56394534976084,44.47184013739386,RO,RO41,RO413,110946,Burila Mare,1988,122.94474829,2020,RO_110946,official,TRUE
RO_111006,23.378731812954637,44.56522386161046,RO,RO41,RO413,111006,Butoieşti,3202,68.09288509,2020,RO_111006,official,TRUE
RO_111097,22.92418282269024,44.69937851705836,RO,RO41,RO413,111097,Căzăneşti,2029,83.11891042,2020,RO_111097,official,TRUE
RO_111220,22.537464731075215,44.8204044306563,RO,RO41,RO413,111220,Cireşu,464,51.75229494,2020,RO_111220,official,TRUE
RO_111275,23.062254349569518,44.68519253561471,RO,RO41,RO413,111275,Corcova,5966,76.69701603,2020,RO_111275,official,TRUE
RO_111417,22.929471886215158,44.385068897421455,RO,RO41,RO413,111417,Corlăţel,1236,44.13115486,2020,RO_111417,official,TRUE
RO_111444,22.926151203808434,44.205187587642385,RO,RO41,RO413,111444,Cujmir,3233,44.05938294,2020,RO_111444,official,TRUE
RO_111480,22.671384292487698,44.46943065625781,RO,RO41,RO413,111480,Devesel,2941,103.8960935,2020,RO_111480,official,TRUE
RO_111550,23.065112630333658,44.18192679979871,RO,RO41,RO413,111550,Dârvari,2501,64.11349249,2020,RO_111550,official,TRUE
RO_111587,23.177919761033873,44.51680449340281,RO,RO41,RO413,111587,Dumbrava,1285,81.13242482,2020,RO_111587,official,TRUE
RO_111685,22.91336617161506,44.778865875925774,RO,RO41,RO413,111685,Floreşti,2542,50.95326035,2020,RO_111685,official,TRUE
RO_11174,22.625294537653968,46.27553622103011,RO,RO42,RO421,11174,Hălmăgel,1090,83.70586517,2020,RO_11174,official,TRUE
RO_111783,22.77384412368895,44.212702434807,RO,RO41,RO413,111783,Gârla Mare,3620,65.49154992,2020,RO_111783,official,TRUE
RO_111818,22.615612687542708,44.80909646766177,RO,RO41,RO413,111818,Godeanu,527,47.58147203,2020,RO_111818,official,TRUE
RO_111863,22.57824414740046,44.37673457366379,RO,RO41,RO413,111863,Gogoşu,4252,121.20594227,2020,RO_111863,official,TRUE
RO_111916,23.133158601811758,44.574291168857705,RO,RO41,RO413,111916,Greci,1148,38.89901701,2020,RO_111916,official,TRUE
RO_111989,23.289781212731384,44.65111579389251,RO,RO41,RO413,111989,Grozeşti,1944,43.30411996,2020,RO_111989,official,TRUE
RO_112030,22.695595165183516,44.27757683641186,RO,RO41,RO413,112030,Gruia,2944,69.23623938,2020,RO_112030,official,TRUE
RO_112076,22.778645538927577,44.565293237974586,RO,RO41,RO413,112076,Hinova,2867,70.69541985,2020,RO_112076,official,TRUE
RO_112129,22.86186677813427,44.66338544034564,RO,RO41,RO413,112129,Husnicioara,1158,74.13270558,2020,RO_112129,official,TRUE
RO_112245,22.36205137051385,44.7020926061637,RO,RO41,RO413,112245,Eşelniţa,2862,180.56580191,2020,RO_112245,official,TRUE
RO_112263,22.75535951621836,44.816119978658264,RO,RO41,RO413,112263,Ilovăţ,1153,77.24073369,2020,RO_112263,official,TRUE
RO_112334,22.481421043770386,44.76223695897682,RO,RO41,RO413,112334,Iloviţa,1276,73.49047534,2020,RO_112334,official,TRUE
RO_11236,22.071350146088992,46.52065354676018,RO,RO42,RO421,11236,Hăşmaş,1205,88.34240999,2020,RO_11236,official,TRUE
RO_112370,22.659678096016407,44.962072249591195,RO,RO41,RO413,112370,Isverna,2051,132.53825643,2020,RO_112370,official,TRUE
RO_112469,22.673218023998356,44.69747659005043,RO,RO41,RO413,112469,Izvoru Bârzii,2733,68.83667185,2020,RO_112469,official,TRUE
RO_112548,22.7066268879614,44.38559557819146,RO,RO41,RO413,112548,Jiana,4628,100.70807959,2020,RO_112548,official,TRUE
RO_112600,22.861095577360775,44.52266630404883,RO,RO41,RO413,112600,Livezile,1358,67.18510762,2020,RO_112600,official,TRUE
RO_112664,22.73464814476863,44.71462521039661,RO,RO41,RO413,112664,Malovăţ,2554,78.39666425,2020,RO_112664,official,TRUE
RO_112744,22.96542941300587,44.17659264172183,RO,RO41,RO413,112744,Obârşia de Câmp,1658,39.81079486,2020,RO_112744,official,TRUE
RO_112771,23.07615015387002,44.28878832852452,RO,RO41,RO413,112771,Oprişor,1980,74.93468826,2020,RO_112771,official,TRUE
RO_112806,23.024433082644695,44.432852819055036,RO,RO41,RO413,112806,Pădina,1146,80.31136227,2020,RO_112806,official,TRUE
RO_112879,22.78230007211817,44.345909446953755,RO,RO41,RO413,112879,Pătulele,3517,105.82461173,2020,RO_112879,official,TRUE
RO_112904,22.228218013777358,44.600231987514675,RO,RO41,RO413,112904,Dubova,937,181.44254207,2020,RO_112904,official,TRUE
RO_112959,22.540879731539516,44.88719852837062,RO,RO41,RO413,112959,Podeni,780,83.55871922,2020,RO_112959,official,TRUE
RO_112995,22.74895131230872,44.979990289463,RO,RO41,RO413,112995,Ponoarele,2347,60.46504109,2020,RO_112995,official,TRUE
RO_11307,22.171376998744083,46.43405593915004,RO,RO42,RO421,11307,Igneşti,672,51.68727142,2020,RO_11307,official,TRUE
RO_113153,22.97415065041229,44.49111743000131,RO,RO41,RO413,113153,Poroina Mare,914,55.28724556,2020,RO_113153,official,TRUE
RO_113206,22.709840855009492,44.22358335913565,RO,RO41,RO413,113206,Pristol,1345,31.86447902,2020,RO_113206,official,TRUE
RO_113233,22.90839640562303,44.6112997367639,RO,RO41,RO413,113233,Prunişor,1801,122.52626461,2020,RO_113233,official,TRUE
RO_113395,22.92516842402091,44.306031936369436,RO,RO41,RO413,113395,Punghina,3131,77.80319097,2020,RO_113395,official,TRUE
RO_113466,22.8083677276902,44.46961418510961,RO,RO41,RO413,113466,Rogova,1405,33.16829223,2020,RO_113466,official,TRUE
RO_113493,22.92670502360998,44.1429623629772,RO,RO41,RO413,113493,Salcia,2641,60.42428366,2020,RO_113493,official,TRUE
RO_113518,23.297014385859605,44.600866956503666,RO,RO41,RO413,113518,Stângăceaua,1210,39.92268211,2020,RO_113518,official,TRUE
RO_11352,21.202401796660627,46.308116318374104,RO,RO42,RO421,11352,Iratoşu,2521,46.36852442,2020,RO_11352,official,TRUE
RO_113607,22.101725341131136,44.50028924764051,RO,RO41,RO413,113607,Sviniţa,879,105.5662189,2020,RO_113607,official,TRUE
RO_113625,22.83296633663164,44.769484495524146,RO,RO41,RO413,113625,Şişeşti,2490,76.353965,2020,RO_113625,official,TRUE
RO_113698,22.806194868940942,44.85234882935116,RO,RO41,RO413,113698,Şovarna,1063,37.33520956,2020,RO_113698,official,TRUE
RO_113732,23.02051965952882,44.5654055963062,RO,RO41,RO413,113732,Tâmna,3235,95.81504985,2020,RO_113732,official,TRUE
RO_113849,22.92714302298441,44.248856919132294,RO,RO41,RO413,113849,Vânători,1885,51.81813151,2020,RO_113849,official,TRUE
RO_113894,22.790894053326355,44.44279541812654,RO,RO41,RO413,113894,Vânjuleţ,1892,39.3129135,2020,RO_113894,official,TRUE
RO_113929,23.029607940785887,44.36795133778926,RO,RO41,RO413,113929,Vlădaia,1559,78.94352604,2020,RO_113929,official,TRUE
RO_113974,23.07140942697528,44.63558162907075,RO,RO41,RO413,113974,Voloiac,1600,48.03175727,2020,RO_113974,official,TRUE
RO_11398,21.32394942097651,46.39118226415358,RO,RO42,RO421,11398,Macea,7233,72.74977282,2020,RO_11398,official,TRUE
RO_114060,22.969649339511637,44.239288721792526,RO,RO41,RO413,114060,Braniştea,1764,33.0675367,2020,RO_114060,official,TRUE
RO_114079,22.848731491003136,44.191818560920574,RO,RO41,RO413,114079,Vrata,1962,50.49565423,2020,RO_114079,official,TRUE
RO_11423,21.65051162214853,46.61676427281982,RO,RO42,RO421,11423,Mişca,3817,104.21483813,2020,RO_11423,official,TRUE
RO_114319,24.56709711239736,46.538344314905494,RO,RO12,RO125,114319,Municipiul Târgu Mureş,146918,49.23763921,2020,RO_114319,official,TRUE
RO_114355,24.49336532484904,46.50482035570073,RO,RO12,RO125,114355,Cristeşti,6330,13.24720425,2020,RO_114355,official,TRUE
RO_114382,24.519715701352197,46.54952047898966,RO,RO12,RO125,114382,Sâncraiu de Mureş,9459,20.57174349,2020,RO_114382,official,TRUE
RO_114417,24.604924438516235,46.574727059007046,RO,RO12,RO125,114417,Sângeorgiu de Mureş,10741,28.67979219,2020,RO_114417,official,TRUE
RO_114453,24.55929034626297,46.57968613043914,RO,RO12,RO125,114453,Sântana de Mureş,6243,25.97628535,2020,RO_114453,official,TRUE
RO_114514,24.807140712951956,46.22668017772927,RO,RO12,RO125,114514,Municipiul Sighişoara,33297,95.9510858,2020,RO_114514,official,TRUE
RO_114603,24.849479055632884,46.24033216257042,RO,RO12,RO125,114603,Albeşti,6293,82.72278791,2020,RO_114603,official,TRUE
RO_114710,24.09544984635629,46.47268432602989,RO,RO12,RO125,114710,Oraş Luduş,17349,64.79501295,2020,RO_114710,official,TRUE
RO_11478,22.258346591675593,46.45419254529995,RO,RO42,RO421,11478,Moneasa,846,68.87679606,2020,RO_11478,official,TRUE
RO_114809,24.70242439486692,46.77647495789917,RO,RO12,RO125,114809,Municipiul Reghin,37593,55.92758061,2020,RO_114809,official,TRUE
RO_114854,25.06681943507978,46.595118006554024,RO,RO12,RO125,114854,Oraş Sovata,10255,159.68211135,2020,RO_114854,official,TRUE
RO_114925,24.29166102301076,46.328952070731894,RO,RO12,RO125,114925,Municipiul Târnăveni,25590,60.64906092,2020,RO_114925,official,TRUE
RO_114970,24.64461098370801,46.466363019529595,RO,RO12,RO125,114970,Acăţari,4773,74.6549805,2020,RO_114970,official,TRUE
RO_11502,21.545107408823586,46.38133167324211,RO,RO42,RO421,11502,Olari,1998,50.11160661,2020,RO_11502,official,TRUE
RO_115076,24.226819280995432,46.30341811623541,RO,RO12,RO125,115076,Adămuş,5421,80.85743477,2020,RO_115076,official,TRUE
RO_1151,23.076271214389614,46.26987163354951,RO,RO12,RO121,1151,Oraş Abrud,5248,39.54982331,2020,RO_1151,official,TRUE
RO_115147,24.818797209246362,46.891076334321525,RO,RO12,RO125,115147,Aluniş,3098,40.61652046,2020,RO_115147,official,TRUE
RO_115183,24.791307755920656,46.15030710601595,RO,RO12,RO125,115183,Apold,3270,125.41840886,2020,RO_115183,official,TRUE
RO_115236,24.085237775924952,46.41540188977424,RO,RO12,RO125,115236,Aţintiş,1504,48.38357174,2020,RO_115236,official,TRUE
RO_115307,24.486475987921516,46.35727431861541,RO,RO12,RO125,115307,Bahnea,3669,91.67020608,2020,RO_115307,official,TRUE
RO_115389,24.367465891900622,46.57936895988734,RO,RO12,RO125,115389,Band,6646,89.94506146,2020,RO_115389,official,TRUE
RO_11539,21.553529817690315,46.131504937986456,RO,RO42,RO421,11539,Păuliş,4317,130.24112707,2020,RO_11539,official,TRUE
RO_115520,24.651595630532032,46.864632754240255,RO,RO12,RO125,115520,Batoş,4224,82.34228359,2020,RO_115520,official,TRUE
RO_115575,24.357800541978992,46.26597417901543,RO,RO12,RO125,115575,Băgaciu,2642,37.27958221,2020,RO_115575,official,TRUE
RO_115600,24.498635577915024,46.716195669008094,RO,RO12,RO125,115600,Băla,655,28.17920626,2020,RO_115600,official,TRUE
RO_115637,24.700918627525088,46.3880623365009,RO,RO12,RO125,115637,Bălăuşeri,4966,78.06294522,2020,RO_115637,official,TRUE
RO_115708,24.814621993697315,46.728875058468,RO,RO12,RO125,115708,Beica de Jos,2213,45.49039487,2020,RO_115708,official,TRUE
RO_115771,24.098428458253743,46.36117954450756,RO,RO12,RO125,115771,Bichiş,786,46.29484628,2020,RO_115771,official,TRUE
RO_115824,24.11966284926151,46.45432461579118,RO,RO12,RO125,115824,Bogata,1816,30.53188346,2020,RO_115824,official,TRUE
RO_11584,21.07352309435714,46.171819949328004,RO,RO42,RO421,11584,Oraş Pecica,14092,235.65178809,2020,RO_11584,official,TRUE
RO_115851,24.61466416023986,46.76465391441599,RO,RO12,RO125,115851,Breaza,2443,41.49989971,2020,RO_115851,official,TRUE
RO_115897,24.766882080127047,46.867883203301005,RO,RO12,RO125,115897,Brâncoveneşti,3893,87.26194706,2020,RO_115897,official,TRUE
RO_115959,24.504132661704496,46.63683824871299,RO,RO12,RO125,115959,Ceuaşu de Câmpie,6181,83.45665846,2020,RO_115959,official,TRUE
RO_116046,24.005419703460575,46.469907307670965,RO,RO12,RO125,116046,Cheţani,2513,57.85373721,2020,RO_116046,official,TRUE
RO_116126,24.897532383417044,46.695700021419036,RO,RO12,RO125,116126,Chiheru de Jos,1538,115.22965143,2020,RO_116126,official,TRUE
RO_116171,24.58692934799947,46.402432752642184,RO,RO12,RO125,116171,Coroisânmărtin,1518,27.41850081,2020,RO_116171,official,TRUE
RO_116224,24.513880426563915,46.80945375860146,RO,RO12,RO125,116224,Cozma,516,29.61042633,2020,RO_116224,official,TRUE
RO_116288,24.57156723978734,46.474342483969714,RO,RO12,RO125,116288,Crăciuneşti,4391,48.39996323,2020,RO_116288,official,TRUE
RO_116340,24.43123997112017,46.75504054595805,RO,RO12,RO125,116340,Crăieşti,855,23.48515662,2020,RO_116340,official,TRUE
RO_11637,20.928849728447187,46.24294335991064,RO,RO42,RO421,11637,Peregu Mare,1804,33.02839056,2020,RO_11637,official,TRUE
RO_116395,24.25862698165613,46.40633587122603,RO,RO12,RO125,116395,Cucerdea,1292,35.97790742,2020,RO_116395,official,TRUE
RO_116439,24.157373517681417,46.447611024160345,RO,RO12,RO125,116439,Cuci,1855,42.16437244,2020,RO_116439,official,TRUE
RO_116493,24.69630988601433,46.225658919627094,RO,RO12,RO125,116493,Daneş,5912,114.75083563,2020,RO_116493,official,TRUE
RO_116545,24.875025728137597,46.949888513485384,RO,RO12,RO125,116545,Deda,4199,77.48202751,2020,RO_116545,official,TRUE
RO_116590,24.917262244521755,46.65319757619335,RO,RO12,RO125,116590,Eremitu,4038,82.94650256,2020,RO_116590,official,TRUE
RO_11664,22.38883473794675,46.050273450828755,RO,RO42,RO421,11664,Petriş,1325,129.84534148,2020,RO_11664,official,TRUE
RO_116652,24.645477590276037,46.619509392374866,RO,RO12,RO125,116652,Ernei,6138,67.31919955,2020,RO_116652,official,TRUE
RO_116723,24.551146773208096,46.77551645235135,RO,RO12,RO125,116723,Fărăgău,1763,39.90053196,2020,RO_116723,official,TRUE
RO_116796,24.76850788842231,46.42126828748075,RO,RO12,RO125,116796,Fântânele,4919,64.29475734,2020,RO_116796,official,TRUE
RO_116867,24.751270306876755,46.50473160701367,RO,RO12,RO125,116867,Găleşti,2489,57.29387251,2020,RO_116867,official,TRUE
RO_116938,24.35674787299837,46.33090270453097,RO,RO12,RO125,116938,Găneşti,3551,49.65947724,2020,RO_116938,official,TRUE
RO_116983,24.500830318367026,46.45752836847061,RO,RO12,RO125,116983,Gheorghe Doja,2981,37.46510882,2020,RO_116983,official,TRUE
RO_117042,24.91548309153561,46.49047783431294,RO,RO12,RO125,117042,Ghindari,3314,80.27957707,2020,RO_117042,official,TRUE
RO_117113,24.60097355948506,46.65585395868784,RO,RO12,RO125,117113,Glodeni,3706,54.3753086,2020,RO_117113,official,TRUE
RO_117177,24.668778180624805,46.68072030274751,RO,RO12,RO125,117177,Gorneşti,5572,85.26537969,2020,RO_117177,official,TRUE
RO_117275,24.2954932524755,46.608653522809675,RO,RO12,RO125,117275,Grebenişu de Câmpie,1773,28.01533106,2020,RO_117275,official,TRUE
RO_117319,24.893878135279,46.796944194922474,RO,RO12,RO125,117319,Gurghiu,6095,126.46560636,2020,RO_117319,official,TRUE
RO_11735,21.343837954540202,46.5917229337929,RO,RO42,RO421,11735,Pilu,2177,71.83713388,2020,RO_11735,official,TRUE
RO_117426,24.94124129894436,46.78308964831378,RO,RO12,RO125,117426,Hodac,5079,97.78415719,2020,RO_117426,official,TRUE
RO_117505,24.820618031082713,46.65159182992709,RO,RO12,RO125,117505,Hodoşa,1223,39.78287673,2020,RO_117505,official,TRUE
RO_117550,24.961630624879916,46.76924899565249,RO,RO12,RO125,117550,Ibăneşti,4211,312.92937166,2020,RO_117550,official,TRUE
RO_11762,22.44774789872542,46.28909900244438,RO,RO42,RO421,11762,Pleşcuţa,1074,75.42891529,2020,RO_11762,official,TRUE
RO_117667,24.281218811333147,46.5283824644824,RO,RO12,RO125,117667,Iclănzel,2033,61.60095641,2020,RO_117667,official,TRUE
RO_117783,24.76737362542281,46.83206526264684,RO,RO12,RO125,117783,Ideciu de Jos,2153,42.49956837,2020,RO_117783,official,TRUE
RO_117827,24.23390737279374,46.44910776533153,RO,RO12,RO125,117827,Oraş Iernut,9703,106.27804439,2020,RO_117827,official,TRUE
RO_117925,24.640832405381882,46.549085583819874,RO,RO12,RO125,117925,Livezeni,3770,24.85659238,2020,RO_117925,official,TRUE
RO_117998,24.56616246654713,46.83554881584376,RO,RO12,RO125,117998,Lunca,2360,82.30657852,2020,RO_117998,official,TRUE
RO_118058,25.117484450537834,46.958781133750065,RO,RO12,RO125,118058,Lunca Bradului,1961,310.25961888,2020,RO_118058,official,TRUE
RO_118094,24.91086638559271,46.5780601048376,RO,RO12,RO125,118094,Măgherani,1363,58.07440272,2020,RO_118094,official,TRUE
RO_118209,24.415308633715554,46.343755252153834,RO,RO12,RO125,118209,Mica,4841,63.87420579,2020,RO_118209,official,TRUE
RO_118281,24.79789360455395,46.53508156372367,RO,RO12,RO125,118281,Oraş Miercurea Nirajului,6083,55.83447631,2020,RO_118281,official,TRUE
RO_118370,24.158592524675374,46.67642444824141,RO,RO12,RO125,118370,Miheşu de Câmpie,2403,53.40238944,2020,RO_118370,official,TRUE
RO_11842,22.243219043084853,46.01389506951703,RO,RO42,RO421,11842,Săvârşin,2871,206.85849547,2020,RO_11842,official,TRUE
RO_118469,24.72216701234688,46.33742505145468,RO,RO12,RO125,118469,Nadeş,2991,68.75804972,2020,RO_118469,official,TRUE
RO_118511,24.837696736213797,46.48478697415204,RO,RO12,RO125,118511,Neaua,1330,39.99901226,2020,RO_118511,official,TRUE
RO_118575,24.316992193891576,46.44329086542268,RO,RO12,RO125,118575,Ogra,2612,50.38435282,2020,RO_118575,official,TRUE
RO_118637,24.197927633416132,46.55753499639026,RO,RO12,RO125,118637,Papiu Ilarian,837,26.10512402,2020,RO_118637,official,TRUE
RO_118691,24.460328127782414,46.55126317918184,RO,RO12,RO125,118691,Pănet,6137,72.39743191,2020,RO_118691,official,TRUE
RO_118753,24.703059387214402,46.48365746074117,RO,RO12,RO125,118753,Păsăreni,1744,30.30489365,2020,RO_118753,official,TRUE
RO_118799,24.71156385554378,46.7264184200122,RO,RO12,RO125,118799,Petelea,3082,43.73747389,2020,RO_118799,official,TRUE
RO_118824,24.306016572735967,46.673872301640756,RO,RO12,RO125,118824,Pogăceaua,1994,37.98211008,2020,RO_118824,official,TRUE
RO_118931,24.99203030690113,46.97672816138146,RO,RO12,RO125,118931,Răstoliţa,1774,265.90030396,2020,RO_118931,official,TRUE
RO_118995,24.39371623722519,46.70722412828881,RO,RO12,RO125,118995,Rîciu,3552,73.53078879,2020,RO_118995,official,TRUE
RO_119153,24.834088840419845,46.916229480185294,RO,RO12,RO125,119153,Ruşii-Munţi,2131,42.77372022,2020,RO_119153,official,TRUE
RO_119206,24.969744278505086,46.192257564458025,RO,RO12,RO125,119206,Saschiz,2281,98.21270821,2020,RO_119206,official,TRUE
RO_119242,24.165440222458273,46.75080281901328,RO,RO12,RO125,119242,Oraş Sărmaşu,6850,76.15807985,2020,RO_119242,official,TRUE
RO_119331,24.844034083421143,46.42838965890178,RO,RO12,RO125,119331,Oraş Sângeorgiu de Pădure,5426,71.14174643,2020,RO_119331,official,TRUE
RO_119386,24.14658654385954,46.54773968961679,RO,RO12,RO125,119386,Sânger,2383,51.48046645,2020,RO_119386,official,TRUE
RO_11940,21.00840331824293,46.09867744196751,RO,RO42,RO421,11940,Secusigiu,6228,141.75129396,2020,RO_11940,official,TRUE
RO_119466,24.36135886839648,46.45741451469658,RO,RO12,RO125,119466,Sânpaul,4501,55.40565514,2020,RO_119466,official,TRUE
RO_119527,24.255592250048345,46.725566392988604,RO,RO12,RO125,119527,Sânpetru de Câmpie,2720,63.88892564,2020,RO_119527,official,TRUE
RO_119590,24.777912275917945,46.78030626704063,RO,RO12,RO125,119590,Solovăstru,2997,29.93118641,2020,RO_119590,official,TRUE
RO_119625,25.22292827091988,46.960390943789754,RO,RO12,RO125,119625,Stânceni,1392,124.80751571,2020,RO_119625,official,TRUE
RO_119661,24.507034296214236,46.388843787032094,RO,RO12,RO125,119661,Suplac,2284,48.65944801,2020,RO_119661,official,TRUE
RO_119723,24.726080830335146,46.81852186139277,RO,RO12,RO125,119723,Suseni,2379,30.78196792,2020,RO_119723,official,TRUE
RO_119750,24.211683079790728,46.63869498034856,RO,RO12,RO125,119750,Şăulia,2046,26.28076606,2020,RO_119750,official,TRUE
RO_119803,24.389681108355763,46.65647784426286,RO,RO12,RO125,119803,Şincai,1564,33.78378293,2020,RO_119803,official,TRUE
RO_119858,24.079488177914623,46.5836553794131,RO,RO12,RO125,119858,Tăureni,962,20.71429171,2020,RO_119858,official,TRUE
RO_119894,24.45454438724274,46.48562849856713,RO,RO12,RO125,119894,Oraş Ungheni,7742,63.61401435,2020,RO_119894,official,TRUE
RO_11995,21.72312001089995,46.38114499757151,RO,RO42,RO421,11995,Seleuş,2944,60.17146221,2020,RO_11995,official,TRUE
RO_119974,24.07346074512833,46.6185102884197,RO,RO12,RO125,119974,Valea Largă,2926,33.53442478,2020,RO_119974,official,TRUE
RO_120076,24.800995328032997,46.5744718658406,RO,RO12,RO125,120076,Vărgata,1984,39.82501827,2020,RO_120076,official,TRUE
RO_120138,24.774297312048652,46.95155830937644,RO,RO12,RO125,120138,Vătava,1919,168.8394289,2020,RO_120138,official,TRUE
RO_120174,24.799035362058238,46.34850427662889,RO,RO12,RO125,120174,Veţca,752,37.4625467,2020,RO_120174,official,TRUE
RO_120218,24.571219242841284,46.29814815988482,RO,RO12,RO125,120218,Viişoara,1966,66.85512482,2020,RO_120218,official,TRUE
RO_120254,24.94727990958841,46.23874509447057,RO,RO12,RO125,120254,Vânători,4403,111.88697889,2020,RO_120254,official,TRUE
RO_120316,24.62664937794264,46.705526833479496,RO,RO12,RO125,120316,Voivodeni,1785,34.05480844,2020,RO_120316,official,TRUE
RO_120343,24.607522685838866,46.35402964796302,RO,RO12,RO125,120343,Zagăr,1312,39.00138804,2020,RO_120343,official,TRUE
RO_12037,20.927822929650606,46.11167127858951,RO,RO42,RO421,12037,Semlac,4218,82.06215445,2020,RO_12037,official,TRUE
RO_120370,24.13014350454256,46.6112711668336,RO,RO12,RO125,120370,Zau de Câmpie,3204,50.1657025,2020,RO_120370,official,TRUE
RO_120478,24.96431882587708,46.53172397969134,RO,RO12,RO125,120478,Chibed,1758,37.49343349,2020,RO_120478,official,TRUE
RO_120487,24.617340822350123,46.520881643961225,RO,RO12,RO125,120487,Corunca,3704,17.13898475,2020,RO_120487,official,TRUE
RO_120496,25.017120749852886,46.562169486450536,RO,RO12,RO125,120496,Sărăţeni,1603,37.16755947,2020,RO_120496,official,TRUE
RO_120502,24.420773008038747,46.608917232524355,RO,RO12,RO125,120502,Madaraş,1629,23.05437137,2020,RO_120502,official,TRUE
RO_120511,24.866092268312602,46.56987296916861,RO,RO12,RO125,120511,Bereni,1270,40.48413779,2020,RO_120511,official,TRUE
RO_12055,21.607638687736838,46.512642437737675,RO,RO42,RO421,12055,Sintea Mare,3857,108.8308297,2020,RO_12055,official,TRUE
RO_120726,26.375439536231006,46.931626968928576,RO,RO21,RO214,120726,Municipiul Piatra Neamţ,112186,76.92005008,2020,RO_120726,official,TRUE
RO_120771,26.430925286517006,46.88628627617717,RO,RO21,RO214,120771,Dumbrava Roşie,8685,52.5836727,2020,RO_120771,official,TRUE
RO_120824,26.47188873547393,46.85760371595464,RO,RO21,RO214,120824,Săvineşti,7220,20.1456101,2020,RO_120824,official,TRUE
RO_120860,26.93318147147577,46.92553558163128,RO,RO21,RO214,120860,Municipiul Roman,68929,29.46404494,2020,RO_120860,official,TRUE
RO_120888,26.844997755494383,46.98402123889007,RO,RO21,RO214,120888,Cordun,8108,41.76167452,2020,RO_120888,official,TRUE
RO_12091,21.509757009122836,46.346544799798,RO,RO42,RO421,12091,Oraş Sântana,15633,107.25898748,2020,RO_12091,official,TRUE
RO_120922,26.92419865585334,46.91131016253599,RO,RO21,RO214,120922,Horia,7237,39.75639985,2020,RO_120922,official,TRUE
RO_120968,26.089984047095427,46.9189590128523,RO,RO21,RO214,120968,Oraş Bicaz,8242,133.73906608,2020,RO_120968,official,TRUE
RO_121055,26.364493397106255,47.204962342782,RO,RO21,RO214,121055,Oraş Târgu Neamţ,22199,42.96015468,2020,RO_121055,official,TRUE
RO_121108,26.278370054314777,47.16169578356539,RO,RO21,RO214,121108,Agapia,4204,60.3969916,2020,RO_121108,official,TRUE
RO_121153,26.79465032633178,46.75775890043642,RO,RO21,RO214,121153,Bahna,3384,57.07555529,2020,RO_121153,official,TRUE
RO_121242,26.304095847422218,47.1264670733299,RO,RO21,RO214,121242,Bălţăteşti,4131,35.01949425,2020,RO_121242,official,TRUE
RO_12126,21.435094644628677,46.50966284135137,RO,RO42,RO421,12126,Socodor,2268,119.373558,2020,RO_12126,official,TRUE
RO_121297,25.887933200720266,46.832982097537624,RO,RO21,RO214,121297,Bicaz-Chei,4563,97.73905614,2020,RO_121297,official,TRUE
RO_1213,23.721793156981988,46.307814276010284,RO,RO12,RO121,1213,Municipiul Aiud,25400,138.1639297,2020,RO_1213,official,TRUE
RO_121340,25.90745797986335,46.86633636272356,RO,RO21,RO214,121340,Bicazu Ardelean,3771,112.45335656,2020,RO_121340,official,TRUE
RO_121386,27.031973795952,47.018956421553504,RO,RO21,RO214,121386,Bira,1981,23.98040788,2020,RO_121386,official,TRUE
RO_12144,21.30290367260845,46.05673818700039,RO,RO42,RO421,12144,Şagu,4230,102.73980228,2020,RO_12144,official,TRUE
RO_121466,26.64537020594701,46.98682534971804,RO,RO21,RO214,121466,Bârgăuani,3546,74.53954847,2020,RO_121466,official,TRUE
RO_121607,26.422027527790192,47.03527333268175,RO,RO21,RO214,121607,Bodeşti,4595,63.16473865,2020,RO_121607,official,TRUE
RO_121652,25.782400702195588,47.18613549032516,RO,RO21,RO214,121652,Borca,6539,204.2581809,2020,RO_121652,official,TRUE
RO_121732,26.522018441241638,46.78923685686578,RO,RO21,RO214,121732,Borleşti,9362,107.40589716,2020,RO_121732,official,TRUE
RO_121796,26.757731183008833,47.06956833217325,RO,RO21,RO214,121796,Boteşti,5098,35.28975291,2020,RO_121796,official,TRUE
RO_121876,27.173390701288913,46.83241858578871,RO,RO21,RO214,121876,Bozieni,2874,44.9089705,2020,RO_121876,official,TRUE
RO_121938,26.363437016712556,47.28493415385917,RO,RO21,RO214,121938,Brusturi,3890,50.15044919,2020,RO_121938,official,TRUE
RO_122025,25.93623978027372,47.0400275282739,RO,RO21,RO214,122025,Ceahlău,2371,96.77052441,2020,RO_122025,official,TRUE
RO_12206,20.843376436635626,46.11016808325824,RO,RO42,RO421,12206,Şeitin,3117,65.86523373,2020,RO_12206,official,TRUE
RO_122061,26.579347670052073,46.72229585989664,RO,RO21,RO214,122061,Cândeşti,4090,37.9987276,2020,RO_122061,official,TRUE
RO_122132,26.64344574908784,46.757148178599415,RO,RO21,RO214,122132,Costişa,3472,27.40713937,2020,RO_122132,official,TRUE
RO_122187,26.271604098105435,47.09692185859346,RO,RO21,RO214,122187,Crăcăoani,4301,131.81067094,2020,RO_122187,official,TRUE
RO_12224,21.73706606532225,46.569986753464995,RO,RO42,RO421,12224,Şepreuş,2812,58.01900109,2020,RO_12224,official,TRUE
RO_122249,25.90724672787347,46.78565531187383,RO,RO21,RO214,122249,Dămuc,2995,180.74905556,2020,RO_122249,official,TRUE
RO_122285,26.411850201692822,46.99772512968034,RO,RO21,RO214,122285,Dobreni,1798,24.20109724,2020,RO_122285,official,TRUE
RO_122347,26.97384611759935,47.007391275516845,RO,RO21,RO214,122347,Doljeşti,7567,34.71608478,2020,RO_122347,official,TRUE
RO_122392,26.577108740934605,47.03064718669874,RO,RO21,RO214,122392,Dragomireşti,2176,40.586213,2020,RO_122392,official,TRUE
RO_12242,21.754165056330173,46.450299385819186,RO,RO42,RO421,12242,Şicula,4232,131.13441062,2020,RO_12242,official,TRUE
RO_122463,26.795053595434783,46.97089308802749,RO,RO21,RO214,122463,Dulceşti,2548,50.43856731,2020,RO_122463,official,TRUE
RO_122551,25.843380946429217,47.1553083352187,RO,RO21,RO214,122551,Farcaşa,3098,92.38515147,2020,RO_122551,official,TRUE
RO_122613,26.71220190647604,46.927383296778984,RO,RO21,RO214,122613,Făurei,2089,51.43330609,2020,RO_122613,official,TRUE
RO_122668,26.821903667928158,47.028099098881704,RO,RO21,RO214,122668,Gherăeşti,6699,29.07245948,2020,RO_122668,official,TRUE
RO_122702,26.49075857556428,46.95006733798648,RO,RO21,RO214,122702,Girov,5059,68.73198076,2020,RO_122702,official,TRUE
RO_122828,26.340218314442964,46.980213576049586,RO,RO21,RO214,122828,Gârcina,4888,122.11175566,2020,RO_122828,official,TRUE
RO_122864,25.874237521803114,47.027859518147956,RO,RO21,RO214,122864,Grinţieş,2402,141.58750822,2020,RO_122864,official,TRUE
RO_12288,21.913129135387663,46.34229795908553,RO,RO42,RO421,12288,Şilindia,858,69.33668439,2020,RO_12288,official,TRUE
RO_122908,26.384577774927884,47.14424198547717,RO,RO21,RO214,122908,Grumăzeşti,5220,40.80014108,2020,RO_122908,official,TRUE
RO_122953,26.054611555148572,47.04930423109657,RO,RO21,RO214,122953,Hangu,3730,129.3529413,2020,RO_122953,official,TRUE
RO_123013,26.993069468542235,46.80972673332927,RO,RO21,RO214,123013,Icuşeşti,4798,61.96366343,2020,RO_123013,official,TRUE
RO_123102,26.99606237632192,46.86649084186782,RO,RO21,RO214,123102,Ion Creanga,5734,75.90058584,2020,RO_123102,official,TRUE
RO_123175,26.648125479465655,46.89121852240421,RO,RO21,RO214,123175,Mărgineni,3649,59.83208114,2020,RO_123175,official,TRUE
RO_123228,26.790918504484793,46.82319442046946,RO,RO21,RO214,123228,Moldoveni,2077,40.78272432,2020,RO_123228,official,TRUE
RO_123255,27.158342474672295,46.774895643248435,RO,RO21,RO214,123255,Oniceni,3702,44.87035047,2020,RO_123255,official,TRUE
RO_123371,26.55191430925631,47.15301915503514,RO,RO21,RO214,123371,Păstrăveni,3994,37.59340572,2020,RO_123371,official,TRUE
RO_12340,21.453749055307973,46.425603604860974,RO,RO42,RO421,12340,Şimand,4411,100.61474495,2020,RO_12340,official,TRUE
RO_123424,26.444113652860736,47.15162334488206,RO,RO21,RO214,123424,Petricani,6136,75.5873571,2020,RO_123424,official,TRUE
RO_123479,26.446163957913537,46.82714687871732,RO,RO21,RO214,123479,Piatra Şoimului,8423,147.67865801,2020,RO_123479,official,TRUE
RO_123521,26.081611227310773,47.23300960032568,RO,RO21,RO214,123521,Pipirig,9017,194.54191926,2020,RO_123521,official,TRUE
RO_123601,26.200089808963806,46.92959151952674,RO,RO21,RO214,123601,Pângăraţi,5414,121.69094287,2020,RO_123601,official,TRUE
RO_123674,26.617524295553803,46.79669014092075,RO,RO21,RO214,123674,Podoleni,5561,40.30783353,2020,RO_123674,official,TRUE
RO_12368,21.637289698329766,46.27153139450797,RO,RO42,RO421,12368,Şiria,9033,136.49661265,2020,RO_12368,official,TRUE
RO_123709,27.119079768469536,46.88582956016444,RO,RO21,RO214,123709,Poienari,1569,34.61280631,2020,RO_123709,official,TRUE
RO_123790,25.942823159061664,47.11737445967014,RO,RO21,RO214,123790,Poiana Teiului,4847,165.575775,2020,RO_123790,official,TRUE
RO_123914,26.36472375039508,47.25449636654641,RO,RO21,RO214,123914,Răuceşti,8427,77.68533466,2020,RO_123914,official,TRUE
RO_123969,26.55886375089185,47.08073754835522,RO,RO21,RO214,123969,Războieni,2167,36.04216536,2020,RO_123969,official,TRUE
RO_12402,21.734252802175433,45.999983816027196,RO,RO42,RO421,12402,Şiştarovăţ,346,122.63865652,2020,RO_12402,official,TRUE
RO_124028,26.565041282973922,46.754403356870384,RO,RO21,RO214,124028,Rediu,5312,36.10939387,2020,RO_124028,official,TRUE
RO_124073,26.70666341806357,46.79932226595138,RO,RO21,RO214,124073,Români,4168,53.59211757,2020,RO_124073,official,TRUE
RO_124117,26.512972656291463,46.83887152838986,RO,RO21,RO214,124117,Oraş Roznov,10379,40.39435904,2020,RO_124117,official,TRUE
RO_124153,27.011588067055083,46.96859843166802,RO,RO21,RO214,124153,Sagna,5259,53.21118214,2020,RO_124153,official,TRUE
RO_124206,26.867269567210403,47.009951549855806,RO,RO21,RO214,124206,Săbăoani,11869,33.40053804,2020,RO_124206,official,TRUE
RO_124233,26.84295224049712,46.86419656852417,RO,RO21,RO214,124233,Secuieni,3151,74.03735845,2020,RO_124233,official,TRUE
RO_124331,27.135221596647856,47.01744274992853,RO,RO21,RO214,124331,Stăniţa,2108,87.74301185,2020,RO_124331,official,TRUE
RO_124411,26.51991982355674,46.988337147214196,RO,RO21,RO214,124411,Ştefan cel Mare,3001,50.15805258,2020,RO_124411,official,TRUE
RO_124493,26.139719221067985,46.88326030994558,RO,RO21,RO214,124493,Tarcău,3348,397.56283231,2020,RO_124493,official,TRUE
RO_124563,26.008210772272495,46.887036430602535,RO,RO21,RO214,124563,Taşca,2566,95.77136095,2020,RO_124563,official,TRUE
RO_12457,21.93389131735639,46.25731890665151,RO,RO42,RO421,12457,Tauţ,1510,204.59644472,2020,RO_12457,official,TRUE
RO_124616,26.471740578334103,46.71727461545258,RO,RO21,RO214,124616,Tazlău,2703,161.88835363,2020,RO_124616,official,TRUE
RO_124634,26.94830812585747,47.003740106187216,RO,RO21,RO214,124634,Tămăşeni,9829,23.49650757,2020,RO_124634,official,TRUE
RO_124661,26.503755769061183,47.22873587093423,RO,RO21,RO214,124661,Timişeşti,4041,48.86161209,2020,RO_124661,official,TRUE
RO_124723,26.840478467770648,46.90676075834903,RO,RO21,RO214,124723,Trifeşti,5005,60.25405064,2020,RO_124723,official,TRUE
RO_124750,26.645421710907932,47.07735884047377,RO,RO21,RO214,124750,Tupilaţi,2120,32.47545727,2020,RO_124750,official,TRUE
RO_124803,26.56004361695095,47.115130597910024,RO,RO21,RO214,124803,Tibucani,3982,49.06266257,2020,RO_124803,official,TRUE
RO_124849,26.517769154325148,47.16117413608399,RO,RO21,RO214,124849,Urecheni,3972,30.58064929,2020,RO_124849,official,TRUE
RO_124885,27.06609742477537,46.79889838788411,RO,RO21,RO214,124885,Valea Ursului,4214,64.67194886,2020,RO_124885,official,TRUE
RO_124938,26.27819608510309,46.94109775490525,RO,RO21,RO214,124938,Alexandru cel Bun,6063,84.19229453,2020,RO_124938,official,TRUE
RO_125016,26.305552799980934,47.21651533626277,RO,RO21,RO214,125016,Vânători-Neamţ,8604,166.75417972,2020,RO_125016,official,TRUE
RO_125061,26.551715125147886,46.817915021142475,RO,RO21,RO214,125061,Zăneşti,5984,33.46843658,2020,RO_125061,official,TRUE
RO_12509,21.793489234076503,46.29946514644838,RO,RO42,RO421,12509,Târnova,6156,209.84175303,2020,RO_12509,official,TRUE
RO_125098,26.567685312518613,46.90645188022027,RO,RO21,RO214,125098,Dochia,2520,31.07556715,2020,RO_125098,official,TRUE
RO_125105,26.705926374762686,46.98153508639906,RO,RO21,RO214,125105,Ruginoasa,1807,30.24815408,2020,RO_125105,official,TRUE
RO_125114,26.33747482393611,47.108937151802586,RO,RO21,RO214,125114,Ghindăoani,1914,22.99071368,2020,RO_125114,official,TRUE
RO_125123,26.721458740154528,47.02978623297256,RO,RO21,RO214,125123,Văleni,1522,35.00664624,2020,RO_125123,official,TRUE
RO_125132,26.410076394396892,47.30917715206525,RO,RO21,RO214,125132,Drăgăneşti,1527,26.74234302,2020,RO_125132,official,TRUE
RO_125141,27.157264318437992,46.8995723568335,RO,RO21,RO214,125141,Pânceşti,1491,37.25827495,2020,RO_125141,official,TRUE
RO_125150,27.003732490024916,46.93584901997474,RO,RO21,RO214,125150,Gadinţi,2466,44.31020183,2020,RO_125150,official,TRUE
RO_125169,26.37147366230042,47.03275252052405,RO,RO21,RO214,125169,Negreşti,1806,34.61723626,2020,RO_125169,official,TRUE
RO_125178,27.09292721102167,47.060534974662424,RO,RO21,RO214,125178,Boghicea,2587,39.88789565,2020,RO_125178,official,TRUE
RO_125347,24.3722145396961,44.42768533022594,RO,RO41,RO414,125347,Municipiul Slatina,82466,50.74568519,2020,RO_125347,official,TRUE
RO_125374,24.32333943369888,44.40199003941066,RO,RO41,RO414,125374,Slătioara,2468,21.31648097,2020,RO_125374,official,TRUE
RO_125418,24.114944006162542,44.34550931557336,RO,RO41,RO414,125418,Oraş Balş,20397,41.67952082,2020,RO_125418,official,TRUE
RO_125472,24.351384599613677,44.111201908453026,RO,RO41,RO414,125472,Municipiul Caracal,33715,70.96392227,2020,RO_125472,official,TRUE
RO_125490,24.253238868993087,44.124484485231186,RO,RO41,RO414,125490,Drăghiceni,1783,30.29542916,2020,RO_125490,official,TRUE
RO_125542,24.498003701088425,43.77747679225927,RO,RO41,RO414,125542,Oraş Corabia,17144,127.92263808,2020,RO_125542,official,TRUE
RO_125588,24.627137747673338,43.77494646124226,RO,RO41,RO414,125588,Gârcov,2237,34.52236943,2020,RO_125588,official,TRUE
RO_125622,24.51668890286174,44.171397434601126,RO,RO41,RO414,125622,Oraş Drăgăneşti-Olt,11641,80.03360944,2020,RO_125622,official,TRUE
RO_125659,24.56601220991142,44.02881124839784,RO,RO41,RO414,125659,Băbiciu,2001,38.8727577,2020,RO_125659,official,TRUE
RO_125677,24.045326669531786,44.39277570471479,RO,RO41,RO414,125677,Baldovineşti,1032,21.47619946,2020,RO_125677,official,TRUE
RO_12572,22.143863921449,46.036916415304,RO,RO42,RO421,12572,Vărădia de Mureş,1605,119.43972353,2020,RO_12572,official,TRUE
RO_125757,24.649921701201162,44.7122038508007,RO,RO41,RO414,125757,Bărăşti,1254,57.13013228,2020,RO_125757,official,TRUE
RO_125846,24.168424302760258,44.32640880294307,RO,RO41,RO414,125846,Bârza,2595,23.1624207,2020,RO_125846,official,TRUE
RO_125873,24.147221820880766,44.37351161721351,RO,RO41,RO414,125873,Bobiceşti,3021,51.57292748,2020,RO_125873,official,TRUE
RO_125962,24.40761661452536,43.90969339214613,RO,RO41,RO414,125962,Brastavăţu,4157,70.55968294,2020,RO_125962,official,TRUE
RO_125999,24.443443601848653,44.363769877652345,RO,RO41,RO414,125999,Brebeni,2607,93.49281652,2020,RO_125999,official,TRUE
RO_126022,24.3232015465418,44.31723718669461,RO,RO41,RO414,126022,Brâncoveni,2517,42.54189446,2020,RO_126022,official,TRUE
RO_126077,24.250872749097084,43.94565923955288,RO,RO41,RO414,126077,Bucinişu,1860,27.29536602,2020,RO_126077,official,TRUE
RO_126102,24.266325002134572,44.18509486906116,RO,RO41,RO414,126102,Cezieni,1618,37.98138549,2020,RO_126102,official,TRUE
RO_126148,24.613625244621804,43.90142917986253,RO,RO41,RO414,126148,Cilieni,3042,57.32623404,2020,RO_126148,official,TRUE
RO_126166,24.162429505876133,44.51083474544506,RO,RO41,RO414,126166,Cârlogani,2186,42.11009632,2020,RO_126166,official,TRUE
RO_126228,24.679520480595922,44.61948294710504,RO,RO41,RO414,126228,Coloneşti,1520,49.0331946,2020,RO_126228,official,TRUE
RO_126326,24.71245991745626,44.47286529528228,RO,RO41,RO414,126326,Corbu,2169,49.84323753,2020,RO_126326,official,TRUE
RO_126380,24.458220268401124,44.3003527674403,RO,RO41,RO414,126380,Coteana,2089,44.76508953,2020,RO_126380,official,TRUE
RO_126406,24.738361443565672,44.301875261077406,RO,RO41,RO414,126406,Crâmpoia,3482,38.5590902,2020,RO_126406,official,TRUE
RO_12643,21.196614187435042,46.016487192126725,RO,RO42,RO421,12643,Vinga,7131,141.35501137,2020,RO_12643,official,TRUE
RO_126433,24.33880025665406,44.48584445280088,RO,RO41,RO414,126433,Curtişoara,4245,52.95346715,2020,RO_126433,official,TRUE
RO_126503,24.395975723648895,44.6810892909843,RO,RO41,RO414,126503,Cungrea,1793,66.60016725,2020,RO_126503,official,TRUE
RO_126585,24.55882932771507,44.12287966981326,RO,RO41,RO414,126585,Dăneasa,3478,57.79330448,2020,RO_126585,official,TRUE
RO_126647,24.384027289703237,44.05999103935738,RO,RO41,RO414,126647,Deveselu,3120,55.99762419,2020,RO_126647,official,TRUE
RO_126674,23.953620640233833,44.491520247106614,RO,RO41,RO414,126674,Dobreţu,1190,36.40793143,2020,RO_126674,official,TRUE
RO_126718,24.371667185102627,44.173151297933686,RO,RO41,RO414,126718,Dobrosloveni,3732,56.72018695,2020,RO_126718,official,TRUE
RO_126772,24.32753115703412,44.770259660135395,RO,RO41,RO414,126772,Dobroteasa,1500,37.35422979,2020,RO_126772,official,TRUE
RO_126825,24.230611956483727,44.254630327634075,RO,RO41,RO414,126825,Dobrun,1443,37.96452779,2020,RO_126825,official,TRUE
RO_12689,22.526265419829446,46.324531998572866,RO,RO42,RO421,12689,Vârfurile,2494,134.29970854,2020,RO_12689,official,TRUE
RO_126905,24.53809872911712,44.778287369230675,RO,RO41,RO414,126905,Făgeţelu,781,44.64885478,2020,RO_126905,official,TRUE
RO_126978,24.368294799279237,44.229908850039315,RO,RO41,RO414,126978,Fălcoiu,3693,49.44991436,2020,RO_126978,official,TRUE
RO_127019,24.442365425022455,44.14284779425338,RO,RO41,RO414,127019,Fărcaşele,4742,47.39063067,2020,RO_127019,official,TRUE
RO_127064,24.271591610697033,44.4158211848553,RO,RO41,RO414,127064,Găneasa,3446,57.24484966,2020,RO_127064,official,TRUE
RO_127126,24.685790864068625,43.793769078796906,RO,RO41,RO414,127126,Giuvărăşti,2135,32.20032661,2020,RO_127126,official,TRUE
RO_127144,24.531531391612482,44.07726279555278,RO,RO41,RO414,127144,Gostavăţu,2714,46.62777052,2020,RO_127144,official,TRUE
RO_127171,24.271394062787408,44.57915479245135,RO,RO41,RO414,127171,Grădinari,2496,20.27250323,2020,RO_127171,official,TRUE
RO_127224,24.261745963582097,43.755897902371025,RO,RO41,RO414,127224,Grojdibodu,2594,64.73828904,2020,RO_127224,official,TRUE
RO_127251,24.183145683149018,43.779634886353435,RO,RO41,RO414,127251,Ianca,3463,106.09915993,2020,RO_127251,official,TRUE
RO_127288,24.028558671691446,44.49890043956812,RO,RO41,RO414,127288,Iancu Jianu,4240,47.44495291,2020,RO_127288,official,TRUE
RO_127322,24.72716313849038,44.401216634594604,RO,RO41,RO414,127322,Icoana,1721,55.91057851,2020,RO_127322,official,TRUE
RO_127368,24.668251434207278,43.82304947015263,RO,RO41,RO414,127368,Izbiceni,4402,51.14536133,2020,RO_127368,official,TRUE
RO_127386,24.536605685737776,44.25838280706274,RO,RO41,RO414,127386,Izvoarele,3435,48.19664734,2020,RO_127386,official,TRUE
RO_127411,24.447365489025195,44.77727192693635,RO,RO41,RO414,127411,Leleasca,1256,58.22832487,2020,RO_127411,official,TRUE
RO_127493,24.46773434717934,44.226165058380936,RO,RO41,RO414,127493,Mărunţei,3776,60.27269327,2020,RO_127493,official,TRUE
RO_127536,24.795455362925466,44.11764327582478,RO,RO41,RO414,127536,Mihăeşti,1357,54.38345189,2020,RO_127536,official,TRUE
RO_127563,24.379995083254247,44.373509661529894,RO,RO41,RO414,127563,Milcov,1468,23.88150848,2020,RO_127563,official,TRUE
RO_127625,24.112900644979202,44.46555098946188,RO,RO41,RO414,127625,Morunglav,2283,62.13073411,2020,RO_127625,official,TRUE
RO_127689,24.641776641207635,44.37622056228906,RO,RO41,RO414,127689,Movileni,3258,50.55819513,2020,RO_127689,official,TRUE
RO_127714,24.75648026698881,44.27077731249681,RO,RO41,RO414,127714,Nicolae Titulescu,1169,24.40305325,2020,RO_127714,official,TRUE
RO_127750,24.321590680183256,43.88670492048397,RO,RO41,RO414,127750,Obârşia,2408,41.57946622,2020,RO_127750,official,TRUE
RO_12778,21.571838531246385,46.06639628232125,RO,RO42,RO421,12778,Zăbrani,4480,115.85425994,2020,RO_12778,official,TRUE
RO_127812,24.089329891003228,44.419697544529036,RO,RO41,RO414,127812,Oboga,1626,17.61596362,2020,RO_127812,official,TRUE
RO_127858,24.423191168382342,44.584803983325244,RO,RO41,RO414,127858,Oporelu,993,64.58813639,2020,RO_127858,official,TRUE
RO_127901,24.654906770633062,44.57738671738986,RO,RO41,RO414,127901,Optaşi-Măgura,1118,30.17098905,2020,RO_127901,official,TRUE
RO_127938,24.370607785745435,43.752054322255944,RO,RO41,RO414,127938,Orlea,2099,55.02223791,2020,RO_127938,official,TRUE
RO_127983,24.317160829513927,44.25727263316184,RO,RO41,RO414,127983,Osica de Sus,4606,46.52751847,2020,RO_127983,official,TRUE
RO_128052,24.55353353005364,44.410471572038325,RO,RO41,RO414,128052,Perieţi,1965,34.14767264,2020,RO_128052,official,TRUE
RO_128105,24.27997757067632,44.36550698992367,RO,RO41,RO414,128105,Oraş Piatra-Olt,6370,77.48435724,2020,RO_128105,official,TRUE
RO_12812,21.648315585196535,46.40663588354159,RO,RO42,RO421,12812,Zărand,2853,75.19375493,2020,RO_12812,official,TRUE
RO_128178,24.221950986237044,44.29582620926953,RO,RO41,RO414,128178,Pârşcoveni,2906,28.74479486,2020,RO_128178,official,TRUE
RO_128221,24.241059240543617,44.47623342789234,RO,RO41,RO414,128221,Pleşoiu,2774,50.14984124,2020,RO_128221,official,TRUE
RO_128301,24.476426521790557,44.68418749484083,RO,RO41,RO414,128301,Poboru,1838,68.80656902,2020,RO_128301,official,TRUE
RO_128374,24.63073558771443,44.479972112973265,RO,RO41,RO414,128374,Oraş Potcoava,5723,65.29826808,2020,RO_128374,official,TRUE
RO_128436,24.43777463931319,44.5118103684892,RO,RO41,RO414,128436,Priseaca,1498,37.43348382,2020,RO_128436,official,TRUE
RO_128472,24.68101575676559,44.10943456784351,RO,RO41,RO414,128472,Radomireşti,2826,102.15711382,2020,RO_128472,official,TRUE
RO_12849,21.51380832784969,46.625470828813526,RO,RO42,RO421,12849,Zerind,1456,62.52559081,2020,RO_12849,official,TRUE
RO_128524,24.301142773187635,44.05094185625725,RO,RO41,RO414,128524,Redea,2623,124.17997708,2020,RO_128524,official,TRUE
RO_128560,24.311420974008968,43.985963645932294,RO,RO41,RO414,128560,Rotunda,2629,34.96401447,2020,RO_128560,official,TRUE
RO_128588,24.594273122076338,43.93961630345573,RO,RO41,RO414,128588,Rusăneşti,4058,60.89154669,2020,RO_128588,official,TRUE
RO_128613,24.575222503176086,43.98987944368587,RO,RO41,RO414,128613,Scărişoara,3051,44.93661328,2020,RO_128613,official,TRUE
RO_128659,24.558602311845,44.35779829687837,RO,RO41,RO414,128659,Schitu,2530,46.99364642,2020,RO_128659,official,TRUE
RO_128711,24.548932885030116,44.58609858630937,RO,RO41,RO414,128711,Oraş Scorniceşti,11704,168.44866234,2020,RO_128711,official,TRUE
RO_12876,21.389109641451277,46.2745596264323,RO,RO42,RO421,12876,Zimandu Nou,5034,74.10221286,2020,RO_12876,official,TRUE
RO_128864,24.760631954717972,44.15415040765693,RO,RO41,RO414,128864,Seaca,1692,39.70133297,2020,RO_128864,official,TRUE
RO_128882,24.408273800970935,44.82803475589886,RO,RO41,RO414,128882,Sâmbureşti,971,30.8679295,2020,RO_128882,official,TRUE
RO_128962,24.563195289575873,44.72396523193068,RO,RO41,RO414,128962,Spineni,1505,74.104485,2020,RO_128962,official,TRUE
RO_129040,24.62821931907487,44.05143022136522,RO,RO41,RO414,129040,Sprâncenata,2293,63.6064919,2020,RO_129040,official,TRUE
RO_129095,24.494294932080265,44.11606713037706,RO,RO41,RO414,129095,Stoeneşti,2243,35.21423856,2020,RO_129095,official,TRUE
RO_129111,24.642152773893798,44.18501378601347,RO,RO41,RO414,129111,Stoicăneşti,2480,100.42469711,2020,RO_129111,official,TRUE
RO_12912,21.241898198073606,46.34859866891438,RO,RO42,RO421,12912,Dorobanţi,1584,28.10701268,2020,RO_12912,official,TRUE
RO_129139,24.244461975577387,44.53245515691868,RO,RO41,RO414,129139,Strejeşti,2989,47.07169905,2020,RO_129139,official,TRUE
RO_129184,24.41787512047048,43.96294684836813,RO,RO41,RO414,129184,Studina,2599,37.91428359,2020,RO_129184,official,TRUE
RO_12920,21.467098306485063,46.09941347642976,RO,RO42,RO421,12920,Frumuşeni,2744,44.49043973,2020,RO_12920,official,TRUE
RO_129246,24.68866387947559,44.33088055076705,RO,RO41,RO414,129246,Şerbăneşti,2745,40.93408694,2020,RO_129246,official,TRUE
RO_129282,24.220670887805458,43.810871977996385,RO,RO41,RO414,129282,Ştefan cel Mare,1632,26.51128551,2020,RO_129282,official,TRUE
RO_129317,24.615330565428582,44.63942075751992,RO,RO41,RO414,129317,Tătuleşti,789,44.92772118,2020,RO_129317,official,TRUE
RO_12938,21.218016254971417,46.1338112140127,RO,RO42,RO421,12938,Zădăreni,2881,25.26296053,2020,RO_12938,official,TRUE
RO_129380,24.347984098409974,44.54022771815034,RO,RO41,RO414,129380,Teslui,2395,58.43773908,2020,RO_129380,official,TRUE
RO_129460,24.635155064731563,43.86529425083136,RO,RO41,RO414,129460,Tia Mare,4064,58.12011408,2020,RO_129460,official,TRUE
RO_129503,24.50729483213016,44.831131622732585,RO,RO41,RO414,129503,Topana,642,34.6368073,2020,RO_129503,official,TRUE
RO_129567,24.45411912622186,44.02195812343535,RO,RO41,RO414,129567,Traian,2927,27.43642617,2020,RO_129567,official,TRUE
RO_129585,24.793518513756844,44.367518165710365,RO,RO41,RO414,129585,Tufeni,2593,71.19213687,2020,RO_129585,official,TRUE
RO_129629,24.28342671169967,43.85786602069061,RO,RO41,RO414,129629,Urzica,2049,28.72422893,2020,RO_129629,official,TRUE
RO_129656,24.453216021140275,44.4555777162377,RO,RO41,RO414,129656,Valea Mare,3649,62.43508009,2020,RO_129656,official,TRUE
RO_129718,24.377958130405542,43.865430647237524,RO,RO41,RO414,129718,Vădastra,1304,21.46722599,2020,RO_129718,official,TRUE
RO_129745,24.338516065035474,43.85609688860924,RO,RO41,RO414,129745,Vădăstriţa,3092,41.93746537,2020,RO_129745,official,TRUE
RO_129763,24.785369085808096,44.235814342014756,RO,RO41,RO414,129763,Văleni,2519,67.07213742,2020,RO_129763,official,TRUE
RO_129816,24.32554929029487,44.659518695064804,RO,RO41,RO414,129816,Verguleasa,2666,58.68730387,2020,RO_129816,official,TRUE
RO_129898,24.453384020986377,43.86611511692249,RO,RO41,RO414,129898,Vişina,2751,35.39595873,2020,RO_129898,official,TRUE
RO_129914,24.36678418724323,44.845697511207064,RO,RO41,RO414,129914,Vitomireşti,1852,45.7032832,2020,RO_129914,official,TRUE
RO_129987,24.54700490699815,44.28609622137417,RO,RO41,RO414,129987,Vâlcele,2257,53.0892945,2020,RO_129987,official,TRUE
RO_130026,24.403861656477165,44.001108435771364,RO,RO41,RO414,130026,Vlădila,1959,25.21156145,2020,RO_130026,official,TRUE
RO_130062,24.1396148148731,44.29901893271485,RO,RO41,RO414,130062,Voineasa,2087,45.25939585,2020,RO_130062,official,TRUE
RO_130124,23.935601589992007,44.45010045013556,RO,RO41,RO414,130124,Vulpeni,2034,46.37731018,2020,RO_130124,official,TRUE
RO_130231,24.326788852364498,44.7260895370865,RO,RO41,RO414,130231,Vultureşti,2165,45.38721202,2020,RO_130231,official,TRUE
RO_130286,24.5347984459129,44.447831989615615,RO,RO41,RO414,130286,Bălţeni,1577,33.32438252,2020,RO_130286,official,TRUE
RO_130295,24.051762468454612,44.45657276097046,RO,RO41,RO414,130295,Calui,1438,26.06911028,2020,RO_130295,official,TRUE
RO_130302,24.007456141038677,44.41461221794159,RO,RO41,RO414,130302,Găvăneşti,1859,34.40260085,2020,RO_130302,official,TRUE
RO_130311,24.781331544989868,44.284800778597806,RO,RO41,RO414,130311,Ghimpeţeni,1391,25.35971308,2020,RO_130311,official,TRUE
RO_130320,24.388919740307617,43.94961173232667,RO,RO41,RO414,130320,Grădinile,1452,28.61623981,2020,RO_130320,official,TRUE
RO_130339,24.314851497875523,43.76074254427406,RO,RO41,RO414,130339,Gura Padinii,1638,54.85616353,2020,RO_130339,official,TRUE
RO_130348,24.39625411727312,44.325158594547126,RO,RO41,RO414,130348,Ipoteşti,1541,20.32274158,2020,RO_130348,official,TRUE
RO_130357,24.281047091105517,44.240579976153846,RO,RO41,RO414,130357,Osica de Jos,1520,22.06425346,2020,RO_130357,official,TRUE
RO_130366,24.701038004005373,44.53772247550989,RO,RO41,RO414,130366,Sârbii - Măgura,1835,42.82847044,2020,RO_130366,official,TRUE
RO_130375,24.41492969583648,43.871891279426904,RO,RO41,RO414,130375,Vişina Nouă,1648,20.62026657,2020,RO_130375,official,TRUE
RO_130384,24.273997632244605,44.277318698028104,RO,RO41,RO414,130384,Sopârliţa,1130,19.26022998,2020,RO_130384,official,TRUE
RO_130534,26.005244335931636,44.939523211711524,RO,RO31,RO316,130534,Municipiul Ploieşti,225049,58.27292487,2020,RO_130534,official,TRUE
RO_130552,26.04743242051289,44.88266628477209,RO,RO31,RO316,130552,Bărcăneşti,9534,37.24774408,2020,RO_130552,official,TRUE
RO_130614,26.114517892891815,44.92733360119392,RO,RO31,RO316,130614,Berceni,6354,31.01242627,2020,RO_130614,official,TRUE
RO_130678,26.01478258292912,44.97494742016127,RO,RO31,RO316,130678,Blejoi,9150,20.17081091,2020,RO_130678,official,TRUE
RO_130712,26.00845345832623,44.85727351110715,RO,RO31,RO316,130712,Brazi,8299,45.45814694,2020,RO_130712,official,TRUE
RO_130785,26.071094058558845,44.98373325605157,RO,RO31,RO316,130785,Bucov,11502,48.99589548,2020,RO_130785,official,TRUE
RO_130847,25.963665825880632,45.006411862812314,RO,RO31,RO316,130847,Păuleşti,6686,51.35070408,2020,RO_130847,official,TRUE
RO_130892,25.953347761249727,44.91201671153669,RO,RO31,RO316,130892,Târgşoru Vechi,10968,48.48910225,2020,RO_130892,official,TRUE
RO_130954,25.5699305454114,45.44503741045631,RO,RO31,RO316,130954,Oraş Azuga,4649,82.92485807,2020,RO_130954,official,TRUE
RO_130981,25.87711594271326,45.034286841128775,RO,RO31,RO316,130981,Oraş Băicoi,18721,68.01112756,2020,RO_130981,official,TRUE
RO_131069,26.031045617602654,45.02427855193982,RO,RO31,RO316,131069,Oraş Boldeşti-Scăeni,11552,34.91974338,2020,RO_131069,official,TRUE
RO_131103,25.662142740746773,45.18244844477967,RO,RO31,RO316,131103,Oraş Breaza,16105,49.97798114,2020,RO_131103,official,TRUE
RO_131210,25.5357945025902,45.410752620765805,RO,RO31,RO316,131210,Oraş Buşteni,9455,75.48502929,2020,RO_131210,official,TRUE
RO_131256,25.738720395376212,45.12592645777913,RO,RO31,RO316,131256,Municipiul Câmpina,36139,24.23350458,2020,RO_131256,official,TRUE
RO_131274,25.71650510129845,45.12485077445662,RO,RO31,RO316,131274,Poiana Câmpina,4973,15.4907203,2020,RO_131274,official,TRUE
RO_131336,25.63683221040301,45.24533628597349,RO,RO31,RO316,131336,Oraş Comarnic,11994,90.13919904,2020,RO_131336,official,TRUE
RO_131407,26.440966753155834,45.00252199426302,RO,RO31,RO316,131407,Oraş Mizil,16089,19.18563214,2020,RO_131407,official,TRUE
RO_131443,25.95061002514281,45.046413061292355,RO,RO31,RO316,131443,Oraş Plopeni,8663,8.44941475,2020,RO_131443,official,TRUE
RO_131461,25.989080363317917,45.076409244308095,RO,RO31,RO316,131461,Dumbrăveşti,3658,25.83763768,2020,RO_131461,official,TRUE
RO_131540,25.555574879298582,45.33245286073908,RO,RO31,RO316,131540,Oraş Sinaia,10962,88.59590313,2020,RO_131540,official,TRUE
RO_131577,25.939894151123674,45.23321215401992,RO,RO31,RO316,131577,Oraş Slănic,5436,39.84302633,2020,RO_131577,official,TRUE
RO_131620,26.229843171130888,44.99109552517833,RO,RO31,RO316,131620,Oraş Urlaţi,11559,43.84169152,2020,RO_131620,official,TRUE
RO_13169,24.86885411755418,44.854135655396156,RO,RO31,RO311,13169,Municipiul Piteşti,172982,40.96881963,2020,RO_13169,official,TRUE
RO_131817,26.039481821327893,45.18320287925647,RO,RO31,RO316,131817,Oraş Vălenii de Munte,13544,21.63937232,2020,RO_131817,official,TRUE
RO_131835,26.028762694995073,45.14965583206628,RO,RO31,RO316,131835,Gura Vitioarei,5979,32.78907251,2020,RO_131835,official,TRUE
RO_13187,24.80760780469474,44.89308134995229,RO,RO31,RO311,13187,Bascov,10868,40.96413669,2020,RO_13187,official,TRUE
RO_131899,25.604546871691678,45.18419529904438,RO,RO31,RO316,131899,Adunaţi,1979,22.72921075,2020,RO_131899,official,TRUE
RO_131933,26.224252646839982,44.93650379919744,RO,RO31,RO316,131933,Albeşti-Paleologu,5483,49.76003855,2020,RO_131933,official,TRUE
RO_131988,25.883034880569816,45.20046683677294,RO,RO31,RO316,131988,Aluniş,3206,26.81512926,2020,RO_131988,official,TRUE
RO_132011,26.257387551800125,45.125320060389896,RO,RO31,RO316,132011,Apostolache,2021,20.24270906,2020,RO_132011,official,TRUE
RO_132075,25.84238942637126,44.94587024126574,RO,RO31,RO316,132075,Ariceştii Rahtivani,8131,81.52137082,2020,RO_132075,official,TRUE
RO_132137,26.176326436078046,45.221673132933795,RO,RO31,RO316,132137,Ariceştii Zeletin,1144,20.68806602,2020,RO_132137,official,TRUE
RO_132164,26.458784373254005,44.972095110180014,RO,RO31,RO316,132164,Baba Ana,4088,78.69274444,2020,RO_132164,official,TRUE
RO_132226,26.180835668894378,44.75650459982445,RO,RO31,RO316,132226,Balta Doamnei,2332,35.36800258,2020,RO_132226,official,TRUE
RO_132271,26.120557598379595,45.09763353781412,RO,RO31,RO316,132271,Bălţeşti,3717,36.66475254,2020,RO_132271,official,TRUE
RO_132315,25.77443145805475,45.09737631673935,RO,RO31,RO316,132315,Băneşti,5562,21.39475335,2020,RO_132315,official,TRUE
RO_132342,25.870553061678493,45.23219414079289,RO,RO31,RO316,132342,Bertea,3033,52.32955837,2020,RO_132342,official,TRUE
RO_132379,26.5281072194731,44.87757791404272,RO,RO31,RO316,132379,Boldeşti-Gradiştea,1635,39.45229803,2020,RO_132379,official,TRUE
RO_132404,25.767052037999697,45.182803132397865,RO,RO31,RO316,132404,Brebu,7001,58.46921607,2020,RO_132404,official,TRUE
RO_132459,26.37401294047681,45.08386456192394,RO,RO31,RO316,132459,Călugăreni,1154,19.89702092,2020,RO_132459,official,TRUE
RO_132486,26.202797047538656,45.225864932432906,RO,RO31,RO316,132486,Cărbuneşti,1657,21.33019335,2020,RO_132486,official,TRUE
RO_132510,26.324245870179254,45.022698929959006,RO,RO31,RO316,132510,Ceptura,4384,46.99839162,2020,RO_132510,official,TRUE
RO_132574,26.036959746633396,45.34523737213042,RO,RO31,RO316,132574,Ceraşu,4463,120.67239449,2020,RO_132574,official,TRUE
RO_132645,26.26894268285569,45.1626632078593,RO,RO31,RO316,132645,Chiojdeanca,1540,31.49255939,2020,RO_132645,official,TRUE
RO_132681,26.402871767101896,44.829606689752744,RO,RO31,RO316,132681,Ciorani,6588,80.47721674,2020,RO_132681,official,TRUE
RO_132716,25.928435912848705,45.085599234096854,RO,RO31,RO316,132716,Cocorăştii Mislii,3290,34.3639359,2020,RO_132716,official,TRUE
RO_132752,26.358672288086353,44.94405135207264,RO,RO31,RO316,132752,Colceag,4584,59.23466796,2020,RO_132752,official,TRUE
RO_13276,24.898069810755224,44.81856862964275,RO,RO31,RO311,13276,Bradu,8451,41.65235844,2020,RO_13276,official,TRUE
RO_132805,25.702273755767386,45.159869306115326,RO,RO31,RO316,132805,Cornu,4255,15.63966989,2020,RO_132805,official,TRUE
RO_132841,25.88891233522036,45.163758463513034,RO,RO31,RO316,132841,Cosminele,936,25.01549909,2020,RO_132841,official,TRUE
RO_132896,26.068012736079236,45.2392161381264,RO,RO31,RO316,132896,Drajna,5299,55.62507836,2020,RO_132896,official,TRUE
RO_13301,24.945607739793115,44.9584903613028,RO,RO31,RO311,13301,Oraş Mioveni,34143,50.63782298,2020,RO_13301,official,TRUE
RO_133018,26.299992056149094,44.83569830964936,RO,RO31,RO316,133018,Drăgăneşti,4744,87.64900006,2020,RO_133018,official,TRUE
RO_133090,26.20214808438004,44.861246282705345,RO,RO31,RO316,133090,Dumbrava,4486,63.46052736,2020,RO_133090,official,TRUE
RO_133161,25.737639874185124,44.989347528342734,RO,RO31,RO316,133161,Filipeştii de Pădure,10426,48.64012557,2020,RO_133161,official,TRUE
RO_133214,25.781461761206156,44.961875854676045,RO,RO31,RO316,133214,Filipeştii de Târg,8271,36.70122251,2020,RO_133214,official,TRUE
RO_133278,26.37744200893497,45.00870394638464,RO,RO31,RO316,133278,Fântânele,1944,17.72080531,2020,RO_133278,official,TRUE
RO_133330,25.79446709785418,45.0281136586034,RO,RO31,RO316,133330,Floreşti,7797,29.77399805,2020,RO_133330,official,TRUE
RO_133394,26.444621255263897,44.889398659870636,RO,RO31,RO316,133394,Fulga,3053,74.59129735,2020,RO_133394,official,TRUE
RO_133429,26.27420223984623,44.79770880834267,RO,RO31,RO316,133429,Gherghiţa,1958,34.82582995,2020,RO_133429,official,TRUE
RO_133508,26.072850366856954,44.781622816079846,RO,RO31,RO316,133508,Gorgota,4909,32.50636437,2020,RO_133508,official,TRUE
RO_133562,26.079640398663706,45.11991325763718,RO,RO31,RO316,133562,Gornet,2776,21.79605342,2020,RO_133562,official,TRUE
RO_133615,26.256176145516715,45.08430774510918,RO,RO31,RO316,133615,Gornet-Cricov,2150,27.96240735,2020,RO_133615,official,TRUE
RO_13365,24.875782819579324,44.896272246117924,RO,RO31,RO311,13365,Mărăcineni,5463,21.75089295,2020,RO_13365,official,TRUE
RO_133688,26.439967318352966,45.045411607582636,RO,RO31,RO316,133688,Gura Vadului,2123,35.67243459,2020,RO_133688,official,TRUE
RO_133722,26.216121353200162,45.04993628259622,RO,RO31,RO316,133722,Iordăcheanu,5264,54.91796583,2020,RO_133722,official,TRUE
RO_133795,25.99844782247535,45.275240356503275,RO,RO31,RO316,133795,Izvoarele,6457,73.7407004,2020,RO_133795,official,TRUE
RO_133866,26.421402151439462,45.09707219674327,RO,RO31,RO316,133866,Jugureni,482,26.86284225,2020,RO_133866,official,TRUE
RO_133919,26.416099318303793,45.1534334367835,RO,RO31,RO316,133919,Lapoş,1115,29.8750848,2020,RO_133919,official,TRUE
RO_13392,24.9233084331293,44.86408555003905,RO,RO31,RO311,13392,Oraş Ştefăneşti,16000,56.66666779,2020,RO_13392,official,TRUE
RO_133964,26.018492813828782,45.05162305937911,RO,RO31,RO316,133964,Lipăneşti,5246,17.93126816,2020,RO_133964,official,TRUE
RO_134014,26.037479354645967,45.099247208979115,RO,RO31,RO316,134014,Măgurele,4608,26.55572406,2020,RO_134014,official,TRUE
RO_134050,25.753100275009906,45.04689274531428,RO,RO31,RO316,134050,Măgureni,6344,48.19225926,2020,RO_134050,official,TRUE
RO_134096,25.99476010382871,45.31164787048202,RO,RO31,RO316,134096,Măneciu,10354,236.49386761,2020,RO_134096,official,TRUE
RO_134194,25.835737994017855,44.8651406533886,RO,RO31,RO316,134194,Măneşti,3886,48.3483152,2020,RO_134194,official,TRUE
RO_134336,26.142700081343953,45.1440163961981,RO,RO31,RO316,134336,Păcureţi,1982,27.17490679,2020,RO_134336,official,TRUE
RO_134390,26.148983172442367,45.017615717198865,RO,RO31,RO316,134390,Plopu,2384,45.38579592,2020,RO_134390,official,TRUE
RO_134443,26.183612329415016,45.106036520208704,RO,RO31,RO316,134443,Podenii Noi,4855,37.58814572,2020,RO_134443,official,TRUE
RO_134559,26.0124839116777,44.75581415665107,RO,RO31,RO316,134559,Poienarii Burchii,4641,49.09287604,2020,RO_134559,official,TRUE
RO_134648,26.14259670404716,45.281534131687565,RO,RO31,RO316,134648,Poseşti,3855,54.99282936,2020,RO_134648,official,TRUE
RO_134755,26.09438870268055,45.178738954334044,RO,RO31,RO316,134755,Predeal-Sărari,2233,24.33494656,2020,RO_134755,official,TRUE
RO_1348,23.916580090829754,46.17488264789522,RO,RO12,RO121,1348,Municipiul Blaj,20619,98.91059693,2020,RO_1348,official,TRUE
RO_134853,25.670443351851834,45.11325400347412,RO,RO31,RO316,134853,Proviţa de Jos,2232,25.2525449,2020,RO_134853,official,TRUE
RO_134899,25.634493832484846,45.137961978176946,RO,RO31,RO316,134899,Proviţa de Sus,1907,20.05981962,2020,RO_134899,official,TRUE
RO_13490,25.055517058689105,45.27831186767185,RO,RO31,RO311,13490,Municipiul Câmpulung,35064,35.49860358,2020,RO_13490,official,TRUE
RO_134942,26.0871043904664,44.81871070072112,RO,RO31,RO316,134942,Puchenii Mari,8239,55.02488905,2020,RO_134942,official,TRUE
RO_135020,26.156124688870175,44.84969812516405,RO,RO31,RO316,135020,Râfov,5330,41.75714711,2020,RO_135020,official,TRUE
RO_135128,26.32304363879224,45.1818742636547,RO,RO31,RO316,135128,Salcia,961,21.56916874,2020,RO_135128,official,TRUE
RO_135146,26.48992731011172,44.816622636623734,RO,RO31,RO316,135146,Sălciile,1736,39.73982124,2020,RO_135146,official,TRUE
RO_135164,25.844199347193758,45.092154984600334,RO,RO31,RO316,135164,Scorţeni,5579,39.84747913,2020,RO_135164,official,TRUE
RO_135226,25.68495024864025,45.2743264720082,RO,RO31,RO316,135226,Secăria,1192,45.25978228,2020,RO_135226,official,TRUE
RO_13524,25.111923411298733,45.30642987193984,RO,RO31,RO311,13524,Valea Mare Pravăţ,4229,60.72257318,2020,RO_13524,official,TRUE
RO_135244,26.350484187019728,45.13320836697943,RO,RO31,RO316,135244,Sângeru,5572,39.93505215,2020,RO_135244,official,TRUE
RO_135315,26.182070423787717,45.32575554897537,RO,RO31,RO316,135315,Starchiojd,3620,84.14831356,2020,RO_135315,official,TRUE
RO_135404,26.18716638737456,45.19578777903761,RO,RO31,RO316,135404,Surani,1774,16.16015724,2020,RO_135404,official,TRUE
RO_135431,25.957909138296902,44.79378067100125,RO,RO31,RO316,135431,Şirna,4672,49.9884197,2020,RO_135431,official,TRUE
RO_135501,26.20864169152159,45.17136543226582,RO,RO31,RO316,135501,Şoimari,3003,38.4079474,2020,RO_135501,official,TRUE
RO_135547,25.722447945842685,45.2039170410128,RO,RO31,RO316,135547,Şotrile,3328,29.55741491,2020,RO_135547,official,TRUE
RO_135618,25.902926118341206,45.23495324945703,RO,RO31,RO316,135618,Ştefeşti,2265,43.71096583,2020,RO_135618,official,TRUE
RO_135654,25.56893558842979,45.22508123547329,RO,RO31,RO316,135654,Talea,995,24.82727136,2020,RO_135654,official,TRUE
RO_135681,26.31947589810412,45.10393269693576,RO,RO31,RO316,135681,Tătaru,824,20.41825573,2020,RO_135681,official,TRUE
RO_135725,26.01746211476329,45.23074027667772,RO,RO31,RO316,135725,Teişani,3580,30.23562554,2020,RO_135725,official,TRUE
RO_135789,25.79163528075963,45.13197504353131,RO,RO31,RO316,135789,Telega,5293,40.07524491,2020,RO_135789,official,TRUE
RO_135850,26.007789768769868,44.8158093806352,RO,RO31,RO316,135850,Tinosu,2351,18.13932887,2020,RO_135850,official,TRUE
RO_135896,26.296701071936912,44.94281493586498,RO,RO31,RO316,135896,Tomşani,4263,43.3265005,2020,RO_135896,official,TRUE
RO_135949,26.147284876862777,44.955632330355094,RO,RO31,RO316,135949,Valea Călugărească,10824,52.18346775,2020,RO_135949,official,TRUE
RO_136107,25.724990168892663,45.314242074114816,RO,RO31,RO316,136107,Valea Doftanei,6401,286.05176809,2020,RO_136107,official,TRUE
RO_136134,25.967735958367143,45.16831964655127,RO,RO31,RO316,136134,Vărbilău,6615,41.69831695,2020,RO_136134,official,TRUE
RO_136198,25.940378125445218,45.1227992743485,RO,RO31,RO316,136198,Vâlcăneşti,3696,28.39812444,2020,RO_136198,official,TRUE
RO_13622,24.6749922956861,45.152045856932354,RO,RO31,RO311,13622,Municipiul Curtea de Arges,32262,69.30310856,2020,RO_13622,official,TRUE
RO_136241,25.886769715270546,44.840116296288016,RO,RO31,RO316,136241,Cocoraştii Colt,2871,26.33598218,2020,RO_136241,official,TRUE
RO_136250,26.208625969839865,44.78917902084618,RO,RO31,RO316,136250,Olari,1836,18.0902437,2020,RO_136250,official,TRUE
RO_136269,26.39546692928403,45.02726469929573,RO,RO31,RO316,136269,Vadu Săpat,1638,20.01997214,2020,RO_136269,official,TRUE
RO_136278,26.145937796663436,45.315235512568684,RO,RO31,RO316,136278,Bătrâni,2087,45.94729319,2020,RO_136278,official,TRUE
RO_136483,22.871865402292745,47.78492155695104,RO,RO11,RO115,136483,Municipiul Satu Mare,118819,148.77482163,2020,RO_136483,official,TRUE
RO_136526,22.46724460419363,47.682574681971175,RO,RO11,RO115,136526,Municipiul Carei,24069,102.53261412,2020,RO_136526,official,TRUE
RO_136553,22.49870754956357,47.70476998273064,RO,RO11,RO115,136553,Căpleni,3188,30.93334428,2020,RO_136553,official,TRUE
RO_136599,23.425966348794343,47.869296540130215,RO,RO11,RO115,136599,Oraş Negreşti-Oaş,16750,130.11889789,2020,RO_136599,official,TRUE
RO_136642,22.589105973366607,47.47644168193541,RO,RO11,RO115,136642,Oraş Tăşnad,9243,96.66596868,2020,RO_136642,official,TRUE
RO_13668,24.881053675601276,44.67142418322878,RO,RO31,RO311,13668,Oraş Costeşti,10214,108.33935955,2020,RO_13668,official,TRUE
RO_136713,22.774750214037525,47.53355772313751,RO,RO11,RO115,136713,Acâş,3044,63.98493735,2020,RO_136713,official,TRUE
RO_136768,22.362635514603962,47.52865787918377,RO,RO11,RO115,136768,Andrid,2642,62.37977156,2020,RO_136768,official,TRUE
RO_136802,23.19673924480843,47.76143977467802,RO,RO11,RO115,136802,Apa,2727,44.51275183,2020,RO_136802,official,TRUE
RO_136848,22.88116106698056,47.642585903596505,RO,RO11,RO115,136848,Oraş Ardud,7546,141.98681111,2020,RO_136848,official,TRUE
RO_136919,23.152171021870192,48.03668611905527,RO,RO11,RO115,136919,Bătarci,3792,59.87584199,2020,RO_136919,official,TRUE
RO_136964,22.839267837957312,47.562731265859995,RO,RO11,RO115,136964,Beltiug,3412,117.54450931,2020,RO_136964,official,TRUE
RO_137032,22.471280134722328,47.74949155636915,RO,RO11,RO115,137032,Berveni,3574,47.86035284,2020,RO_137032,official,TRUE
RO_137069,23.384975219973178,47.922212236801506,RO,RO11,RO115,137069,Bixad,7523,77.51440609,2020,RO_137069,official,TRUE
RO_137103,23.230005350416164,47.59295833250022,RO,RO11,RO115,137103,Bârsău,2211,52.13933496,2020,RO_137103,official,TRUE
RO_137130,22.94015676638775,47.406680596602804,RO,RO11,RO115,137130,Bogdand,2712,83.06467617,2020,RO_137130,official,TRUE
RO_137185,22.948643169364974,47.828881930376284,RO,RO11,RO115,137185,Botiz,3999,29.55147287,2020,RO_137185,official,TRUE
RO_137229,23.284085533228044,47.90735450028784,RO,RO11,RO115,137229,Călineşti-Oaş,5139,42.04737142,2020,RO_137229,official,TRUE
RO_137274,23.307551848725073,47.99440540949762,RO,RO11,RO115,137274,Cămărzana,2346,49.44949609,2020,RO_137274,official,TRUE
RO_137292,22.531084033600916,47.60754093576208,RO,RO11,RO115,137292,Căuaş,2523,95.26077199,2020,RO_137292,official,TRUE
RO_137363,22.58290040060962,47.403101027531655,RO,RO11,RO115,137363,Cehal,1524,65.51742295,2020,RO_137363,official,TRUE
RO_137407,23.470789430451863,47.9115810349875,RO,RO11,RO115,137407,Certeze,5891,101.4346512,2020,RO_137407,official,TRUE
RO_137443,22.696211313116326,47.601624249819245,RO,RO11,RO115,137443,Craidorolţ,2212,93.37087196,2020,RO_137443,official,TRUE
RO_137504,23.24909227719391,47.63250704778882,RO,RO11,RO115,137504,Crucişor,2625,40.96339907,2020,RO_137504,official,TRUE
RO_137540,23.0669467192171,47.747174837902335,RO,RO11,RO115,137540,Culciu,4121,79.41919647,2020,RO_137540,official,TRUE
RO_13757,25.086220784646525,44.81158078503551,RO,RO31,RO311,13757,Oraş Topoloveni,9306,36.07054973,2020,RO_13757,official,TRUE
RO_137611,22.698857775323255,47.74524175120872,RO,RO11,RO115,137611,Doba,3027,70.66118838,2020,RO_137611,official,TRUE
RO_137675,22.795123284220935,47.83955023604917,RO,RO11,RO115,137675,Dorolţ,4121,35.12585577,2020,RO_137675,official,TRUE
RO_137728,22.38777357371843,47.69894092250272,RO,RO11,RO115,137728,Foieni,1932,40.41126117,2020,RO_137728,official,TRUE
RO_137746,23.21975258090796,47.93757560976501,RO,RO11,RO115,137746,Gherţa Mică,3767,38.89171433,2020,RO_137746,official,TRUE
RO_137764,23.021684205058857,47.977582917765645,RO,RO11,RO115,137764,Halmeu,5322,52.66482808,2020,RO_137764,official,TRUE
RO_137844,23.03675224632112,47.40157702743478,RO,RO11,RO115,137844,Hodod,2954,76.86667965,2020,RO_137844,official,TRUE
RO_137899,23.063844231782532,47.63942828557121,RO,RO11,RO115,137899,Homoroade,1744,105.71469337,2020,RO_137899,official,TRUE
RO_137960,22.87174269452712,47.86152258953549,RO,RO11,RO115,137960,Lazuri,6388,70.87835997,2020,RO_137960,official,TRUE
RO_138039,23.118419503505088,47.865526602237594,RO,RO11,RO115,138039,Oraş Livada,7262,116.84872565,2020,RO_138039,official,TRUE
RO_138084,23.132698755459806,47.786808604055665,RO,RO11,RO115,138084,Medieşu Aurit,6867,102.75395115,2020,RO_138084,official,TRUE
RO_138164,22.960063616388698,47.900142304790435,RO,RO11,RO115,138164,Micula,4177,37.71987121,2020,RO_138164,official,TRUE
RO_13819,24.66796678921325,45.21826206971006,RO,RO31,RO311,13819,Albeştii de Argeş,6003,42.79630618,2020,RO_13819,official,TRUE
RO_138208,22.605704011467832,47.687781399964585,RO,RO11,RO115,138208,Moftin,4495,128.00007863,2020,RO_138208,official,TRUE
RO_138280,22.974068822168984,47.797539052658166,RO,RO11,RO115,138280,Odoreu,6249,47.69946929,2020,RO_138280,official,TRUE
RO_138351,23.29265868003384,47.84237672753503,RO,RO11,RO115,138351,Oraşu Nou,3714,63.11885763,2020,RO_138351,official,TRUE
RO_138431,22.913012038952502,47.77030125394355,RO,RO11,RO115,138431,Păuleşti,6153,60.08208519,2020,RO_138431,official,TRUE
RO_138501,22.365633383590897,47.60491452947661,RO,RO11,RO115,138501,Petreşti,1907,29.50868956,2020,RO_138501,official,TRUE
RO_138538,22.37273892929293,47.46013675260818,RO,RO11,RO115,138538,Pir,1559,41.10156193,2020,RO_138538,official,TRUE
RO_138574,22.289244337783018,47.58546842842512,RO,RO11,RO115,138574,Pişcolt,3106,71.07528787,2020,RO_138574,official,TRUE
RO_138618,23.320369983999885,47.688757741730846,RO,RO11,RO115,138618,Pomi,1928,58.03190448,2020,RO_138618,official,TRUE
RO_138663,22.318454239450354,47.63916162904358,RO,RO11,RO115,138663,Sanislău,3722,74.73110345,2020,RO_138663,official,TRUE
RO_138734,22.49572751676491,47.50770444693654,RO,RO11,RO115,138734,Santău,2553,82.78927996,2020,RO_138734,official,TRUE
RO_138770,22.68344280085535,47.47787151815572,RO,RO11,RO115,138770,Săcăşeni,1233,82.62604366,2020,RO_138770,official,TRUE
RO_138805,22.48001327020344,47.4599861208428,RO,RO11,RO115,138805,Săuca,1567,52.66247667,2020,RO_138805,official,TRUE
RO_138869,22.965945772804897,47.525076649288536,RO,RO11,RO115,138869,Socond,3000,88.7704311,2020,RO_138869,official,TRUE
RO_13891,24.993710810052782,45.3138105162482,RO,RO31,RO311,13891,Albeştii de Muscel,1478,121.45001121,2020,RO_13891,official,TRUE
RO_138921,22.803151933068683,47.467756033651035,RO,RO11,RO115,138921,Supur,4119,121.38582356,2020,RO_138921,official,TRUE
RO_139009,23.176721953756193,48.08698717676893,RO,RO11,RO115,139009,Tarna Mare,3915,51.4676272,2020,RO_139009,official,TRUE
