gisco_id,longitude,latitude,country,nuts_2,nuts_3,lau_id,lau_name,population,area_km2,year,fid,concordance,pop_weighted
AL_AL111,20.25652884607968,41.50105772861773,AL,AL1,AL11,AL111,Bulqizë,31210,678.9656834,2019,AL_AL111,official,TRUE
AL_AL112,20.427741884623657,41.680769977390455,AL,AL1,AL11,AL112,Dibër,61619,938.72629936,2019,AL_AL112,official,TRUE
AL_AL113,20.07066603529146,41.51660608065291,AL,AL1,AL11,AL113,Klos,16618,357.72307083,2019,AL_AL113,official,TRUE
AL_AL114,20.008789499440475,41.608863472285535,AL,AL1,AL11,AL114,Mat,27600,493.81308121,2019,AL_AL114,official,TRUE
AL_AL121,19.45808693078185,41.326082077761384,AL,AL1,AL12,AL121,Durrës,175110,338.466834,2019,AL_AL121,official,TRUE
AL_AL122,19.746828040874796,41.496071820060365,AL,AL1,AL12,AL122,Krujë,59814,339.20365759,2019,AL_AL122,official,TRUE
AL_AL123,19.563530940086466,41.345448259312924,AL,AL1,AL12,AL123,Shijak,27861,92.21624313,2019,AL_AL123,official,TRUE
AL_AL131,20.408510569890773,42.196758720888226,AL,AL1,AL13,AL131,Has,16790,399.79961116,2019,AL_AL131,official,TRUE
AL_AL132,20.42546954528371,42.06999390303159,AL,AL1,AL13,AL132,Kukës,47985,934.42760992,2019,AL_AL132,official,TRUE
AL_AL133,20.077497935000608,42.3586582252722,AL,AL1,AL13,AL133,Tropojë,20517,1057.78154771,2019,AL_AL133,official,TRUE
AL_AL141,19.70859606614262,41.62511371508271,AL,AL1,AL14,AL141,Kurbin,46291,269.17877902,2019,AL_AL141,official,TRUE
AL_AL142,19.64454137635539,41.77856444943818,AL,AL1,AL14,AL142,Lezhë,65633,509.34284866,2019,AL_AL142,official,TRUE
AL_AL143,19.876453185457933,41.77122092356703,AL,AL1,AL14,AL143,Mirditë,22103,870.249553,2019,AL_AL143,official,TRUE
AL_AL151,20.033456165179196,42.07545484187183,AL,AL1,AL15,AL151,Fushë Arrës,7405,540.79777779,2019,AL_AL151,official,TRUE
AL_AL152,19.458871061893177,42.21675824674953,AL,AL1,AL15,AL152,Malësi e Madhe,30823,951.44162813,2019,AL_AL152,official,TRUE
AL_AL153,19.90396819224389,42.03922886386127,AL,AL1,AL15,AL153,Pukë,11069,505.83441979,2019,AL_AL153,official,TRUE
AL_AL154,19.51246682098986,42.06717279094131,AL,AL1,AL15,AL154,Shkodër,135612,872.99551661,2019,AL_AL154,official,TRUE
AL_AL155,19.58628303011853,41.975647345935734,AL,AL1,AL15,AL155,Vau i Dejës,30438,499.31148464,2019,AL_AL155,official,TRUE
AL_AL211,19.889809971556673,40.951034853023494,AL,AL2,AL21,AL211,Belsh,19503,196.56019511,2019,AL_AL211,official,TRUE
AL_AL212,20.003649000362262,40.99487449442426,AL,AL2,AL21,AL212,Cërrik,27445,189.76448508,2019,AL_AL212,official,TRUE
AL_AL213,20.08145704089211,41.11389792896944,AL,AL2,AL21,AL213,Elbasan,141714,872.6055348,2019,AL_AL213,official,TRUE
AL_AL214,20.1843955006178,40.87002702863115,AL,AL2,AL21,AL214,Gramsh,24231,739.73026029,2019,AL_AL214,official,TRUE
AL_AL215,20.31899341121658,41.18303183874968,AL,AL2,AL21,AL215,Librazhd,31892,793.9401032,2019,AL_AL215,official,TRUE
AL_AL216,19.772078765585142,41.047010850605915,AL,AL2,AL21,AL216,Peqin,26136,197.88599699,2019,AL_AL216,official,TRUE
AL_AL217,20.53962283613006,41.06907812053802,AL,AL2,AL21,AL217,Prrenjas,24906,323.18965753,2019,AL_AL217,official,TRUE
AL_AL221,19.783106349298592,41.36987209833799,AL,AL2,AL22,AL221,Kamëz,104190,37.18983642,2019,AL_AL221,official,TRUE
AL_AL222,19.55675533887416,41.18406785915623,AL,AL2,AL22,AL222,Kavajë,40094,198.8912625,2019,AL_AL222,official,TRUE
AL_AL223,19.648535225619618,41.08223457901792,AL,AL2,AL22,AL223,Rrogozhinë,22148,223.62647091,2019,AL_AL223,official,TRUE
AL_AL224,19.814690605474937,41.33000836670885,AL,AL2,AL22,AL224,Tiranë,557422,1110.69657782,2019,AL_AL224,official,TRUE
AL_AL225,19.678177638810745,41.389234222453105,AL,AL2,AL22,AL225,Vorë,25511,82.76832986,2019,AL_AL225,official,TRUE
AL_AL311,19.95858815257103,40.70442017781628,AL,AL3,AL31,AL311,Berat,60031,380.21222023,2019,AL_AL311,official,TRUE
AL_AL312,19.91353581181029,40.803490215609706,AL,AL3,AL31,AL312,Kuçovë,31262,160.31345149,2019,AL_AL312,official,TRUE
AL_AL313,20.091656311541534,40.616812370093946,AL,AL3,AL31,AL313,Poliçan,10953,272.20607039,2019,AL_AL313,official,TRUE
AL_AL314,20.22862831328647,40.50448864590486,AL,AL3,AL31,AL314,Skrapar,12403,831.97541833,2019,AL_AL314,official,TRUE
AL_AL315,19.820698942832628,40.78463372251475,AL,AL3,AL31,AL315,Ura Vajgurore,27295,156.64055372,2019,AL_AL315,official,TRUE
AL_AL321,19.578596612931452,40.99121579216554,AL,AL3,AL32,AL321,Divjakë,34254,309.6932498,2019,AL_AL321,official,TRUE
AL_AL322,19.558532855468002,40.727407600878344,AL,AL3,AL32,AL322,Fier,120655,620.16622959,2019,AL_AL322,official,TRUE
AL_AL323,19.704787534539594,40.93445079347061,AL,AL3,AL32,AL323,Lushnje,83659,372.90562232,2019,AL_AL323,official,TRUE
AL_AL324,19.73818088899611,40.59518142175396,AL,AL3,AL32,AL324,Mallakastër,27062,329.38802496,2019,AL_AL324,official,TRUE
AL_AL325,19.710351220002465,40.74122316157347,AL,AL3,AL32,AL325,Roskovec,21742,118.07210467,2019,AL_AL325,official,TRUE
AL_AL326,19.623463297269243,40.68381060482982,AL,AL3,AL32,AL326,Patos,22959,82.61203059,2019,AL_AL326,official,TRUE
AL_AL331,20.224606348555774,39.99936794356115,AL,AL3,AL33,AL331,Dropull,3503,450.16856934,2019,AL_AL331,official,TRUE
AL_AL332,20.140652129162863,40.07963587404248,AL,AL3,AL33,AL332,Gjirokastër,28673,469.53612656,2019,AL_AL332,official,TRUE
AL_AL333,20.18791527439389,40.31728484884469,AL,AL3,AL33,AL333,Këlcyrë,6113,304.87349617,2019,AL_AL333,official,TRUE
AL_AL334,20.261817448329158,40.03270955947815,AL,AL3,AL33,AL334,Libohovë,3667,248.41423614,2019,AL_AL334,official,TRUE
AL_AL335,20.354176471665735,40.23351042837838,AL,AL3,AL33,AL335,Përmet,10614,602.58387099,2019,AL_AL335,official,TRUE
AL_AL336,20.018790965694752,40.29505509993292,AL,AL3,AL33,AL336,Tepelenë,8949,431.49810321,2019,AL_AL336,official,TRUE
AL_AL337,19.97271979301556,40.360898732105596,AL,AL3,AL33,AL337,Memaliaj,10657,372.29747869,2019,AL_AL337,official,TRUE
AL_AL341,20.972458011106994,40.621851231023776,AL,AL3,AL34,AL341,Devoll,26716,458.98889837,2019,AL_AL341,official,TRUE
AL_AL342,20.659199601943545,40.29514030601378,AL,AL3,AL34,AL342,Kolonjë,11070,865.86189936,2019,AL_AL342,official,TRUE
AL_AL343,20.777986126364922,40.615139822372726,AL,AL3,AL34,AL343,Korçë,75994,806.63561426,2019,AL_AL343,official,TRUE
AL_AL344,20.763002744517397,40.73768182363774,AL,AL3,AL34,AL344,Maliq,41757,656.84170523,2019,AL_AL344,official,TRUE
AL_AL345,20.659940504760936,40.8974268038425,AL,AL3,AL34,AL345,Pogradec,61530,595.00633369,2019,AL_AL345,official,TRUE
AL_AL346,20.913844131191304,40.83237085182035,AL,AL3,AL34,AL346,Pustec,3290,199.65717134,2019,AL_AL346,official,TRUE
AL_AL351,20.089864265958127,39.95057756729027,AL,AL3,AL35,AL351,Delvinë,7887,183.03192025,2019,AL_AL351,official,TRUE
AL_AL352,19.78480356248277,40.09105780990918,AL,AL3,AL35,AL352,Himarë,7818,572.23857777,2019,AL_AL352,official,TRUE
AL_AL353,20.109011717235546,39.69805897314461,AL,AL3,AL35,AL353,Konispol,8245,221.7450527,2019,AL_AL353,official,TRUE
AL_AL354,20.103896150874935,39.87398364118366,AL,AL3,AL35,AL354,Finiq,7284,441.39440557,2019,AL_AL354,official,TRUE
AL_AL355,20.00546390008579,39.87286414568354,AL,AL3,AL35,AL355,Sarandë,23183,58.88570909,2019,AL_AL355,official,TRUE
AL_AL356,19.626459144205928,40.45937943515042,AL,AL3,AL35,AL356,Selenicë,16396,561.50918684,2019,AL_AL356,official,TRUE
AL_AL357,19.48736448625795,40.46598712314668,AL,AL3,AL35,AL357,Vlorë,104827,617.05644777,2019,AL_AL357,official,TRUE
