gisco_id,longitude,latitude,country,nuts_2,nuts_3,lau_id,lau_name,population,area_km2,year,fid,concordance,pop_weighted
AT_10101,16.529104129145274,47.845680182082305,AT,AT11,AT112,10101,Eisenstadt,14816,42.46519302,2020,AT_10101,official,TRUE
AT_10201,16.674087748797792,47.80117517861076,AT,AT11,AT112,10201,Rust,1980,20.12168637,2020,AT_10201,official,TRUE
AT_10301,16.733160888278164,47.946173333368925,AT,AT11,AT112,10301,Breitenbrunn am Neusiedler See,1871,25.61635914,2020,AT_10301,official,TRUE
AT_10302,16.64285060034374,47.893895700505716,AT,AT11,AT112,10302,Donnerskirchen,1843,34.20501906,2020,AT_10302,official,TRUE
AT_10303,16.47738039628048,47.83642710375521,AT,AT11,AT112,10303,Großhöflein,2104,14.30640626,2020,AT_10303,official,TRUE
AT_10304,16.4420224277443,47.88036078286968,AT,AT11,AT112,10304,Hornstein,3129,37.0082832,2020,AT_10304,official,TRUE
AT_10305,16.539520592941553,47.75376056693866,AT,AT11,AT112,10305,Klingenbach,1147,4.80632436,2020,AT_10305,official,TRUE
AT_10306,16.481840283516362,47.93198059304692,AT,AT11,AT112,10306,Leithaprodersdorf,1208,18.8905907,2020,AT_10306,official,TRUE
AT_10307,16.667635884204458,47.754366010335616,AT,AT11,AT112,10307,Mörbisch am See,2203,28.10744065,2020,AT_10307,official,TRUE
AT_10308,16.462114641931407,47.84005242705838,AT,AT11,AT112,10308,Müllendorf,1383,12.74639932,2020,AT_10308,official,TRUE
AT_10309,16.375857983656662,47.86961549079341,AT,AT11,AT112,10309,Neufeld an der Leitha,3486,4.23712266,2020,AT_10309,official,TRUE
AT_10310,16.66553825138104,47.835559462195654,AT,AT11,AT112,10310,Oggau am Neusiedler See,1753,51.46298201,2020,AT_10310,official,TRUE
AT_10311,16.62436898634234,47.830213305457015,AT,AT11,AT112,10311,Oslip,1255,18.1014007,2020,AT_10311,official,TRUE
AT_10312,16.694910073701116,47.91396793338425,AT,AT11,AT112,10312,Purbach am Neusiedler See,2885,45.97247962,2020,AT_10312,official,TRUE
AT_10313,16.6084394538067,47.8035838694736,AT,AT11,AT112,10313,Sankt Margarethen im Burgenland,2669,26.48055572,2020,AT_10313,official,TRUE
AT_10314,16.62580487757287,47.8527675307328,AT,AT11,AT112,10314,Schützen am Gebirge,1421,21.3077268,2020,AT_10314,official,TRUE
AT_10315,16.538210523637975,47.78132506703919,AT,AT11,AT112,10315,Siegendorf,3066,23.17054892,2020,AT_10315,official,TRUE
AT_10316,16.406125093507626,47.8382521127726,AT,AT11,AT112,10316,Steinbrunn,2776,15.36079315,2020,AT_10316,official,TRUE
AT_10317,16.557105938830016,47.81548789634782,AT,AT11,AT112,10317,Trausdorf an der Wulka,2063,15.47464171,2020,AT_10317,official,TRUE
AT_10318,16.434050488316323,47.91583573146723,AT,AT11,AT112,10318,Wimpassing an der Leitha,1664,7.85928232,2020,AT_10318,official,TRUE
AT_10319,16.500863505928983,47.79696915400108,AT,AT11,AT112,10319,Wulkaprodersdorf,1980,12.04131788,2020,AT_10319,official,TRUE
AT_10320,16.5171061065642,47.91677718534626,AT,AT11,AT112,10320,Loretto,483,2.40047383,2020,AT_10320,official,TRUE
AT_10321,16.541020176164768,47.90739126431258,AT,AT11,AT112,10321,Stotzing,810,12.95909846,2020,AT_10321,official,TRUE
AT_10322,16.407583371095217,47.81429728267603,AT,AT11,AT112,10322,Zillingtal,961,13.168193,2020,AT_10322,official,TRUE
AT_10323,16.51989410231304,47.7612511234658,AT,AT11,AT112,10323,Zagersdorf,1076,7.40428669,2020,AT_10323,official,TRUE
AT_10401,16.17868576308749,47.14337823944075,AT,AT11,AT113,10401,Bocksdorf,807,9.95186186,2020,AT_10401,official,TRUE
AT_10402,16.119224595803356,47.16739029832171,AT,AT11,AT113,10402,Burgauberg-Neudauberg,1326,10.96109373,2020,AT_10402,official,TRUE
AT_10403,16.46241254767021,47.09832193107362,AT,AT11,AT113,10403,Eberau,936,30.61809473,2020,AT_10403,official,TRUE
AT_10404,16.255705198287387,47.071299537792704,AT,AT11,AT113,10404,Gerersdorf-Sulz,992,21.72137769,2020,AT_10404,official,TRUE
AT_10405,16.327835238751412,47.06069551045645,AT,AT11,AT113,10405,Güssing,3667,49.2660769,2020,AT_10405,official,TRUE
AT_10406,16.288350150461266,47.157136603573406,AT,AT11,AT113,10406,Güttenbach,880,15.73224094,2020,AT_10406,official,TRUE
AT_10407,16.427522000121666,47.02209097624275,AT,AT11,AT113,10407,Heiligenbrunn,753,33.50990398,2020,AT_10407,official,TRUE
AT_10408,16.184653064917548,47.07053923732883,AT,AT11,AT113,10408,Kukmirn,1983,40.86769069,2020,AT_10408,official,TRUE
AT_10409,16.255712133756756,47.17115716885258,AT,AT11,AT113,10409,Neuberg im Burgenland,968,17.5968766,2020,AT_10409,official,TRUE
AT_10410,16.261817733329533,47.02406095324585,AT,AT11,AT113,10410,Neustift bei Güssing,464,11.35185694,2020,AT_10410,official,TRUE
AT_10411,16.20715989891792,47.19417615293535,AT,AT11,AT113,10411,Olbendorf,1433,17.24492325,2020,AT_10411,official,TRUE
AT_10412,16.156797482723046,47.18509430606649,AT,AT11,AT113,10412,Ollersdorf im Burgenland,938,8.75381253,2020,AT_10412,official,TRUE
AT_10413,16.268979644182195,47.127193824951924,AT,AT11,AT113,10413,Sankt Michael im Burgenland,977,18.34601878,2020,AT_10413,official,TRUE
AT_10414,16.16332053273949,47.161118571082156,AT,AT11,AT113,10414,Stegersbach,2661,17.80117227,2020,AT_10414,official,TRUE
AT_10415,16.131774474605876,47.20156850493565,AT,AT11,AT113,10415,Stinatz,1195,9.32148474,2020,AT_10415,official,TRUE
AT_10416,16.416693308026062,47.05101489430312,AT,AT11,AT113,10416,Strem,871,23.77220277,2020,AT_10416,official,TRUE
AT_10417,16.30618580877928,47.10243740939451,AT,AT11,AT113,10417,Tobaj,1359,58.06097268,2020,AT_10417,official,TRUE
AT_10418,16.114411436758214,47.19295572727393,AT,AT11,AT113,10418,Hackerberg,368,3.94013213,2020,AT_10418,official,TRUE
AT_10419,16.096337865417773,47.22178560150736,AT,AT11,AT113,10419,Wörterberg,483,4.75257159,2020,AT_10419,official,TRUE
AT_10420,16.361098054403037,47.01525752262047,AT,AT11,AT113,10420,Großmürbisch,237,7.91875498,2020,AT_10420,official,TRUE
AT_10421,16.314521240309947,47.01459215489777,AT,AT11,AT113,10421,Inzenhof,315,5.95950284,2020,AT_10421,official,TRUE
AT_10422,16.323963242763877,47.02714047262679,AT,AT11,AT113,10422,Kleinmürbisch,230,4.29495361,2020,AT_10422,official,TRUE
AT_10423,16.310422045123392,47.00919335681993,AT,AT11,AT113,10423,Tschanigraben,65,1.72510816,2020,AT_10423,official,TRUE
AT_10424,16.191320823139908,47.11469074859363,AT,AT11,AT113,10424,Heugraben,232,6.5099047,2020,AT_10424,official,TRUE
AT_10425,16.163243480478858,47.116766722418745,AT,AT11,AT113,10425,Rohr im Burgenland,376,8.50365791,2020,AT_10425,official,TRUE
AT_10426,16.468717533331265,47.12924084012265,AT,AT11,AT113,10426,Bildein,347,15.96932949,2020,AT_10426,official,TRUE
AT_10427,16.230251239932226,47.131486377512125,AT,AT11,AT113,10427,Rauchwart,442,17.58203362,2020,AT_10427,official,TRUE
AT_10428,16.472829204495888,47.05513349213979,AT,AT11,AT113,10428,Moschendorf,394,13.18275175,2020,AT_10428,official,TRUE
AT_10501,16.115994894371916,47.095462746046955,AT,AT11,AT113,10501,Deutsch Kaltenbrunn,1734,23.97459905,2020,AT_10501,official,TRUE
AT_10502,16.20431868059689,47.00962569063157,AT,AT11,AT113,10502,Eltendorf,920,20.65962897,2020,AT_10502,official,TRUE
AT_10503,16.25079791880836,46.991558668783526,AT,AT11,AT113,10503,Heiligenkreuz im Lafnitztal,1234,23.66483536,2020,AT_10503,official,TRUE
AT_10504,16.139032952186,46.94289448477665,AT,AT11,AT113,10504,Jennersdorf,4111,37.83346891,2020,AT_10504,official,TRUE
AT_10505,16.08090230071823,46.879488531176136,AT,AT11,AT113,10505,Minihof-Liebau,1047,16.28674555,2020,AT_10505,official,TRUE
AT_10506,16.23026114994659,46.95931750537624,AT,AT11,AT113,10506,Mogersdorf,1149,12.85031942,2020,AT_10506,official,TRUE
AT_10507,16.02930572720141,46.862252025700776,AT,AT11,AT113,10507,Neuhaus am Klausenbach,898,20.02992031,2020,AT_10507,official,TRUE
AT_10508,16.12148065719663,47.05114159313776,AT,AT11,AT113,10508,Rudersdorf,2172,21.05790927,2020,AT_10508,official,TRUE
AT_10509,16.123289729150432,46.91608358726145,AT,AT11,AT113,10509,Sankt Martin an der Raab,1995,42.9805312,2020,AT_10509,official,TRUE
AT_10510,16.190704162147146,46.96422385645054,AT,AT11,AT113,10510,Weichselbaum,712,12.15045435,2020,AT_10510,official,TRUE
AT_10511,16.171281912615576,47.00954070749196,AT,AT11,AT113,10511,Königsdorf,741,15.50879073,2020,AT_10511,official,TRUE
AT_10512,16.04355496607569,46.891061883180306,AT,AT11,AT113,10512,Mühlgraben,384,5.56406115,2020,AT_10512,official,TRUE
AT_10601,16.49223567649009,47.747388088791865,AT,AT11,AT112,10601,Draßburg,1227,9.6178574,2020,AT_10601,official,TRUE
AT_10602,16.34521714451491,47.712057585949005,AT,AT11,AT112,10602,Forchtenstein,2778,16.59913191,2020,AT_10602,official,TRUE
AT_10603,16.453877855746015,47.78623738734586,AT,AT11,AT112,10603,Hirm,1020,3.24609727,2020,AT_10603,official,TRUE
AT_10604,16.47494958883269,47.69592792785673,AT,AT11,AT112,10604,Loipersbach im Burgenland,1195,8.56464869,2020,AT_10604,official,TRUE
AT_10605,16.416210066726983,47.71634509555914,AT,AT11,AT112,10605,Marz,2074,17.38849884,2020,AT_10605,official,TRUE
AT_10606,16.39729850971813,47.73690482245596,AT,AT11,AT112,10606,Mattersburg,7456,27.98625401,2020,AT_10606,official,TRUE
AT_10607,16.29522337360041,47.798322242964005,AT,AT11,AT112,10607,Neudörfl,4641,9.0826998,2020,AT_10607,official,TRUE
AT_10608,16.43892013219356,47.75144523061078,AT,AT11,AT112,10608,Pöttelsdorf,762,7.82922088,2020,AT_10608,official,TRUE
AT_10609,16.36255907040133,47.80422723247592,AT,AT11,AT112,10609,Pöttsching,2983,24.75038334,2020,AT_10609,official,TRUE
AT_10610,16.427595275504334,47.70711886905014,AT,AT11,AT112,10610,Rohrbach bei Mattersburg,2639,15.21463897,2020,AT_10610,official,TRUE
AT_10611,16.324022283097058,47.77577607003648,AT,AT11,AT112,10611,Bad Sauerbrunn,2228,2.38086976,2020,AT_10611,official,TRUE
AT_10612,16.50482244359128,47.71133889176312,AT,AT11,AT112,10612,Schattendorf,2351,12.11315422,2020,AT_10612,official,TRUE
AT_10613,16.381134662508348,47.648773970704866,AT,AT11,AT112,10613,Sieggraben,1229,17.24567123,2020,AT_10613,official,TRUE
AT_10614,16.391862416409015,47.776621557258345,AT,AT11,AT112,10614,Sigleß,1161,10.17935156,2020,AT_10614,official,TRUE
AT_10615,16.33749715139529,47.74112063406473,AT,AT11,AT112,10615,Wiesen,2717,18.78079526,2020,AT_10615,official,TRUE
AT_10616,16.480155275937108,47.77552528110567,AT,AT11,AT112,10616,Antau,774,8.6173705,2020,AT_10616,official,TRUE
AT_10617,16.505015308079955,47.73801643771673,AT,AT11,AT112,10617,Baumgarten,885,7.0524581,2020,AT_10617,official,TRUE
AT_10618,16.455314882254385,47.76503967535906,AT,AT11,AT112,10618,Zemendorf-Stöttera,1286,12.91538676,2020,AT_10618,official,TRUE
AT_10619,16.417759419849634,47.78693681121578,AT,AT11,AT112,10619,Krensdorf,636,7.79198745,2020,AT_10619,official,TRUE
AT_10701,17.03009574597153,47.77706681958088,AT,AT11,AT112,10701,Andau,2280,47.27260456,2020,AT_10701,official,TRUE
AT_10702,16.837598994529404,47.744656350247354,AT,AT11,AT112,10702,Apetlon,1760,82.21184362,2020,AT_10702,official,TRUE
AT_10703,16.783999331078878,48.01783930564101,AT,AT11,AT112,10703,Bruckneudorf,3100,37.02596488,2020,AT_10703,official,TRUE
AT_10704,17.105353283331304,48.00824172583485,AT,AT11,AT112,10704,Deutsch Jahrndorf,619,27.43491114,2020,AT_10704,official,TRUE
AT_10705,16.92214403708611,47.83741470994173,AT,AT11,AT112,10705,Frauenkirchen,2856,31.98344588,2020,AT_10705,official,TRUE
AT_10706,16.982460875632512,48.01561602203109,AT,AT11,AT112,10706,Gattendorf,1381,25.50741714,2020,AT_10706,official,TRUE
AT_10707,16.912883400359306,47.89507672543929,AT,AT11,AT112,10707,Gols,3910,42.18692415,2020,AT_10707,official,TRUE
AT_10708,16.97637167176369,47.870837041615225,AT,AT11,AT112,10708,Halbturn,1930,55.16341276,2020,AT_10708,official,TRUE
AT_10709,16.803136825723424,47.76209589161878,AT,AT11,AT112,10709,Illmitz,2395,92.06112773,2020,AT_10709,official,TRUE
AT_10710,16.790706862278896,47.9623104529708,AT,AT11,AT112,10710,Jois,1644,25.90901751,2020,AT_10710,official,TRUE
AT_10711,17.06689325210941,48.091390174714505,AT,AT11,AT112,10711,Kittsee,3307,19.47235852,2020,AT_10711,official,TRUE
AT_10712,16.946376498366696,47.88382086925457,AT,AT11,AT112,10712,Mönchhof,2238,33.57646756,2020,AT_10712,official,TRUE
AT_10713,16.84561036616129,47.947458218930485,AT,AT11,AT112,10713,Neusiedl am See,8585,57.3260871,2020,AT_10713,official,TRUE
AT_10714,17.070824869341923,47.93886377036605,AT,AT11,AT112,10714,Nickelsdorf,1797,60.70277127,2020,AT_10714,official,TRUE
AT_10715,17.03206926835695,48.0474483120916,AT,AT11,AT112,10715,Pama,1208,26.96926252,2020,AT_10715,official,TRUE
AT_10716,16.906419109510413,47.70141909457711,AT,AT11,AT112,10716,Pamhagen,1567,33.05666881,2020,AT_10716,official,TRUE
AT_10717,16.862377457666007,47.99573447119325,AT,AT11,AT112,10717,Parndorf,4858,59.06763153,2020,AT_10717,official,TRUE
AT_10718,16.84030740481317,47.85318440960821,AT,AT11,AT112,10718,Podersdorf am See,2132,41.94087625,2020,AT_10718,official,TRUE
AT_10719,16.9378456751424,47.78367790887836,AT,AT11,AT112,10719,Sankt Andrä am Zicksee,1369,31.72001506,2020,AT_10719,official,TRUE
AT_10720,16.989138275348584,47.762885606187425,AT,AT11,AT112,10720,Tadten,1186,36.05460654,2020,AT_10720,official,TRUE
AT_10721,16.934862593129505,47.72961541717537,AT,AT11,AT112,10721,Wallern im Burgenland,1678,33.88497468,2020,AT_10721,official,TRUE
AT_10722,16.86947488064245,47.92444777395269,AT,AT11,AT112,10722,Weiden am See,2480,32.47272363,2020,AT_10722,official,TRUE
AT_10723,16.75841005633672,47.949589715763196,AT,AT11,AT112,10723,Winden am See,1326,13.83438201,2020,AT_10723,official,TRUE
AT_10724,17.001443138536334,47.97456826213063,AT,AT11,AT112,10724,Zurndorf,2276,54.26438224,2020,AT_10724,official,TRUE
AT_10725,16.931245128347356,48.01411922007358,AT,AT11,AT112,10725,Neudorf,717,21.67339258,2020,AT_10725,official,TRUE
AT_10726,16.947011170845197,48.044298623354024,AT,AT11,AT112,10726,Potzneusiedl,611,11.84197662,2020,AT_10726,official,TRUE
AT_10727,16.98980878280581,48.09691125456685,AT,AT11,AT112,10727,Edelstal,780,5.70874406,2020,AT_10727,official,TRUE
AT_10801,16.629284192589058,47.60164028745726,AT,AT11,AT111,10801,Deutschkreutz,3069,34.07788117,2020,AT_10801,official,TRUE
AT_10802,16.390944606594317,47.50810603575113,AT,AT11,AT111,10802,Draßmarkt,1380,36.3637266,2020,AT_10802,official,TRUE
AT_10803,16.560386178647256,47.46717249202462,AT,AT11,AT111,10803,Frankenau-Unterpullendorf,1093,29.91655076,2020,AT_10803,official,TRUE
AT_10804,16.57082942325918,47.53137962699187,AT,AT11,AT111,10804,Großwarasdorf,1368,42.48580923,2020,AT_10804,official,TRUE
AT_10805,16.552806950292233,47.58657710256333,AT,AT11,AT111,10805,Horitschon,1797,18.69318664,2020,AT_10805,official,TRUE
AT_10806,16.389480761561476,47.5371747995665,AT,AT11,AT111,10806,Kaisersdorf,606,12.53882471,2020,AT_10806,official,TRUE
AT_10807,16.390446510722516,47.59795140400972,AT,AT11,AT111,10807,Kobersdorf,1878,27.41345258,2020,AT_10807,official,TRUE
AT_10808,16.46059683359004,47.588386178424386,AT,AT11,AT111,10808,Lackenbach,1147,18.10685849,2020,AT_10808,official,TRUE
AT_10809,16.406364226125906,47.40420302276936,AT,AT11,AT111,10809,Lockenhaus,2019,59.47511625,2020,AT_10809,official,TRUE
AT_10810,16.632660720426866,47.462015165676135,AT,AT11,AT111,10810,Lutzmannsburg,863,23.19270418,2020,AT_10810,official,TRUE
AT_10811,16.523234034729263,47.422111221548874,AT,AT11,AT111,10811,Mannersdorf an der Rabnitz,1781,38.44031932,2020,AT_10811,official,TRUE
AT_10812,16.41899861472,47.55990943032338,AT,AT11,AT111,10812,Markt Sankt Martin,1239,31.84098769,2020,AT_10812,official,TRUE
AT_10813,16.54662140157333,47.598032543703795,AT,AT11,AT111,10813,Neckenmarkt,1688,26.90429034,2020,AT_10813,official,TRUE
AT_10814,16.451244937433717,47.54474214755912,AT,AT11,AT111,10814,Neutal,1095,11.5388679,2020,AT_10814,official,TRUE
AT_10815,16.647571138142677,47.52554279943339,AT,AT11,AT111,10815,Nikitsch,1380,50.77241277,2020,AT_10815,official,TRUE
AT_10816,16.51046100400404,47.49788670965244,AT,AT11,AT111,10816,Oberpullendorf,3204,12.64292483,2020,AT_10816,official,TRUE
AT_10817,16.344030671934366,47.438148148009766,AT,AT11,AT111,10817,Pilgersdorf,1629,44.83812869,2020,AT_10817,official,TRUE
AT_10818,16.415401548469355,47.446279159018346,AT,AT11,AT111,10818,Piringsdorf,843,16.1241204,2020,AT_10818,official,TRUE
AT_10819,16.533064239545098,47.56490264679802,AT,AT11,AT111,10819,Raiding,880,13.10261472,2020,AT_10819,official,TRUE
AT_10820,16.499098921098984,47.61139140849195,AT,AT11,AT111,10820,Ritzing,907,17.72295088,2020,AT_10820,official,TRUE
AT_10821,16.482283670563582,47.48018445004034,AT,AT11,AT111,10821,Steinberg-Dörfl,1282,37.06246899,2020,AT_10821,official,TRUE
AT_10822,16.47860607014595,47.52846778061096,AT,AT11,AT111,10822,Stoob,1364,17.42456628,2020,AT_10822,official,TRUE
AT_10823,16.426179756952,47.58638687831636,AT,AT11,AT111,10823,Weppersdorf,1837,24.97259214,2020,AT_10823,official,TRUE
AT_10824,16.50262852708269,47.58653199349508,AT,AT11,AT111,10824,Lackendorf,593,12.58485577,2020,AT_10824,official,TRUE
AT_10825,16.497798870880157,47.5721970673572,AT,AT11,AT111,10825,Unterfrauenhaid,646,11.10548007,2020,AT_10825,official,TRUE
AT_10826,16.375264920941344,47.45679369583018,AT,AT11,AT111,10826,Unterrabnitz-Schwendgraben,648,13.92066731,2020,AT_10826,official,TRUE
AT_10827,16.362062978742347,47.511768057908846,AT,AT11,AT111,10827,Weingraben,354,9.28289056,2020,AT_10827,official,TRUE
AT_10828,16.508124092126277,47.44857744934064,AT,AT11,AT111,10828,Oberloisdorf,794,10.66103233,2020,AT_10828,official,TRUE
AT_10901,16.228970466706333,47.3360969111775,AT,AT11,AT113,10901,Bad Tatzmannsdorf,1620,11.66336259,2020,AT_10901,official,TRUE
AT_10902,16.25955200105324,47.41287156366586,AT,AT11,AT113,10902,Bernstein,2092,38.41364471,2020,AT_10902,official,TRUE
AT_10903,16.432493640239997,47.169968402926656,AT,AT11,AT113,10903,Deutsch Schützen-Eisenberg,1084,28.4997021,2020,AT_10903,official,TRUE
AT_10904,16.059598238049556,47.36577945358397,AT,AT11,AT113,10904,Grafenschachen,1256,10.03026246,2020,AT_10904,official,TRUE
AT_10905,16.31831940943884,47.23916600628418,AT,AT11,AT113,10905,Großpetersdorf,3547,31.35849733,2020,AT_10905,official,TRUE
AT_10906,16.388443242591208,47.22662044208736,AT,AT11,AT113,10906,Hannersdorf,734,17.08861285,2020,AT_10906,official,TRUE
AT_10907,16.152295963172136,47.248666344679094,AT,AT11,AT113,10907,Kemeten,1516,20.62446769,2020,AT_10907,official,TRUE
AT_10908,16.355170899062145,47.17040282819062,AT,AT11,AT113,10908,Kohfidisch,1431,31.49043417,2020,AT_10908,official,TRUE
AT_10909,16.1615928441409,47.209809147173,AT,AT11,AT113,10909,Litzelsdorf,1154,14.1329295,2020,AT_10909,official,TRUE
AT_10910,16.07618047809075,47.33507576138979,AT,AT11,AT113,10910,Loipersdorf-Kitzladen,1327,15.86499351,2020,AT_10910,official,TRUE
AT_10911,16.243634561007493,47.370231592771006,AT,AT11,AT113,10911,Mariasdorf,1166,20.49803458,2020,AT_10911,official,TRUE
AT_10912,16.088237690850224,47.296284345080544,AT,AT11,AT113,10912,Markt Allhau,1855,32.23571569,2020,AT_10912,official,TRUE
AT_10913,16.39614231155158,47.296498076423255,AT,AT11,AT113,10913,Markt Neuhodis,661,19.90755885,2020,AT_10913,official,TRUE
AT_10914,16.30874972626029,47.19989088090857,AT,AT11,AT113,10914,Mischendorf,1537,26.25305803,2020,AT_10914,official,TRUE
AT_10915,16.215686350591543,47.22274687320262,AT,AT11,AT113,10915,Oberdorf im Burgenland,1002,9.27739804,2020,AT_10915,official,TRUE
AT_10916,16.202248505441137,47.3544687500113,AT,AT11,AT113,10916,Oberschützen,2444,44.25830033,2020,AT_10916,official,TRUE
AT_10917,16.20888391160654,47.28830296708749,AT,AT11,AT113,10917,Oberwart,7600,36.51638627,2020,AT_10917,official,TRUE
AT_10918,16.12183742652845,47.37163167713236,AT,AT11,AT113,10918,Pinkafeld,5924,27.16823906,2020,AT_10918,official,TRUE
AT_10919,16.43872115632408,47.3057287625642,AT,AT11,AT113,10919,Rechnitz,2962,43.53268852,2020,AT_10919,official,TRUE
AT_10920,16.136828642133924,47.345643323463925,AT,AT11,AT113,10920,Riedlingsdorf,1649,16.09071553,2020,AT_10920,official,TRUE
AT_10921,16.253479649683257,47.25491934210447,AT,AT11,AT113,10921,Rotenturm an der Pinka,1439,17.03883665,2020,AT_10921,official,TRUE
AT_10922,16.42140838354532,47.26438870963287,AT,AT11,AT113,10922,Schachendorf,755,22.29111105,2020,AT_10922,official,TRUE
AT_10923,16.27850406062557,47.32656550155747,AT,AT11,AT113,10923,Stadtschlaining,1985,42.0201388,2020,AT_10923,official,TRUE
AT_10924,16.323848657071572,47.377292017817,AT,AT11,AT113,10924,Unterkohlstätten,998,28.64445009,2020,AT_10924,official,TRUE
AT_10925,16.23653918327387,47.26343961741786,AT,AT11,AT113,10925,Unterwart,969,20.20766513,2020,AT_10925,official,TRUE
AT_10926,16.344943554238956,47.29936242934413,AT,AT11,AT113,10926,Weiden bei Rechnitz,809,39.72445442,2020,AT_10926,official,TRUE
AT_10927,16.144965765421016,47.388438408605936,AT,AT11,AT113,10927,Wiesfleck,1157,19.96309125,2020,AT_10927,official,TRUE
AT_10928,16.098490717207174,47.255206587518266,AT,AT11,AT113,10928,Wolfau,1411,15.11256404,2020,AT_10928,official,TRUE
AT_10929,16.032251895318467,47.367930778808805,AT,AT11,AT113,10929,Neustift an der Lafnitz,812,3.48092699,2020,AT_10929,official,TRUE
AT_10930,16.2753786081164,47.23769684440555,AT,AT11,AT113,10930,Jabing,741,7.78879496,2020,AT_10930,official,TRUE
AT_10931,16.37183815246545,47.19731601561362,AT,AT11,AT113,10931,Badersdorf,293,8.64353973,2020,AT_10931,official,TRUE
AT_10932,16.419447839194778,47.23929707220296,AT,AT11,AT113,10932,Schandorf,262,11.28771605,2020,AT_10932,official,TRUE
AT_20101,14.303322361621351,46.620544611666894,AT,AT21,AT211,20101,Klagenfurt am Wörthersee,101300,119.95942939,2020,AT_20101,official,TRUE
AT_20201,13.848189897138756,46.613248637749116,AT,AT21,AT211,20201,Villach,62882,134.02281902,2020,AT_20201,official,TRUE
AT_20302,13.077449103815283,46.66221998665413,AT,AT21,AT212,20302,Dellach,1212,36.68031666,2020,AT_20302,official,TRUE
AT_20305,13.363770288703677,46.62354279203177,AT,AT21,AT212,20305,Hermagor-Pressegger See,6886,205.57978493,2020,AT_20305,official,TRUE
AT_20306,13.158534721709305,46.64743626884375,AT,AT21,AT212,20306,Kirchbach,2502,99.21391425,2020,AT_20306,official,TRUE
AT_20307,12.997082441268821,46.66999996262772,AT,AT21,AT212,20307,Kötschach-Mauthen,3346,155.12487177,2020,AT_20307,official,TRUE
AT_20316,13.521520104434867,46.61222148140722,AT,AT21,AT212,20316,St. Stefan im Gailtal,1579,66.36122629,2020,AT_20316,official,TRUE
AT_20320,13.271926189181636,46.67905851820416,AT,AT21,AT212,20320,Gitschtal,1241,57.06613799,2020,AT_20320,official,TRUE
AT_20321,12.790356487413172,46.69904493569515,AT,AT21,AT212,20321,Lesachtal,1288,190.77419782,2020,AT_20321,official,TRUE
AT_20402,14.378491616008821,46.60954495489428,AT,AT21,AT211,20402,Ebenthal in Kärnten,8065,55.29426988,2020,AT_20402,official,TRUE
AT_20403,14.179500352712212,46.527043288809935,AT,AT21,AT211,20403,Feistritz im Rosental,2474,72.24072925,2020,AT_20403,official,TRUE
AT_20405,14.300623621227137,46.52868518228312,AT,AT21,AT211,20405,Ferlach,7123,117.43773406,2020,AT_20405,official,TRUE
AT_20409,14.463955778798377,46.61665332777559,AT,AT21,AT211,20409,Grafenstein,2969,49.3841486,2020,AT_20409,official,TRUE
AT_20412,14.200834988385653,46.58996187702167,AT,AT21,AT211,20412,Keutschach am See,2440,28.37467874,2020,AT_20412,official,TRUE
AT_20414,14.248015558367799,46.56446849104816,AT,AT21,AT211,20414,Köttmannsdorf,3079,28.27499004,2020,AT_20414,official,TRUE
AT_20415,14.210719278203628,46.625393672447935,AT,AT21,AT211,20415,Krumpendorf am Wörthersee,3453,11.8558673,2020,AT_20415,official,TRUE
AT_20416,14.139279299311436,46.54643109075948,AT,AT21,AT211,20416,Ludmannsdorf,1784,26.43299375,2020,AT_20416,official,TRUE
AT_20417,14.29494292073366,46.56102940636011,AT,AT21,AT211,20417,Maria Rain,2561,25.70608464,2020,AT_20417,official,TRUE
AT_20418,14.33917599839467,46.683762256907634,AT,AT21,AT211,20418,Maria Saal,3864,34.94938697,2020,AT_20418,official,TRUE
AT_20419,14.177214249473305,46.60549913092579,AT,AT21,AT211,20419,Maria Wörth,1608,17.29548471,2020,AT_20419,official,TRUE
AT_20421,14.177913518752739,46.66162062119395,AT,AT21,AT211,20421,Moosburg,4478,37.009628910000004,2020,AT_20421,official,TRUE
AT_20424,14.149732066003807,46.63566341989453,AT,AT21,AT211,20424,Pörtschach am Wörther See,2885,12.60327675,2020,AT_20424,official,TRUE
AT_20425,14.456214709592915,46.651487915568744,AT,AT21,AT211,20425,Poggersdorf,3199,30.88523838,2020,AT_20425,official,TRUE
AT_20428,14.421628943000593,46.54097423038401,AT,AT21,AT211,20428,St. Margareten im Rosental,1084,43.64956147,2020,AT_20428,official,TRUE
AT_20432,14.100616029764419,46.599809593577056,AT,AT21,AT211,20432,Schiefling am Wörthersee,2630,28.59771706,2020,AT_20432,official,TRUE
AT_20435,14.094238163396103,46.646100548845176,AT,AT21,AT211,20435,Techelsberg am Wörther See,2178,28.67874298,2020,AT_20435,official,TRUE
AT_20441,14.411917184201634,46.47538213192693,AT,AT21,AT211,20441,Zell,611,75.27347659,2020,AT_20441,official,TRUE
AT_20442,14.422181903342548,46.68068782311336,AT,AT21,AT211,20442,Magdalensberg,3529,42.86139546,2020,AT_20442,official,TRUE
AT_20501,14.46901651624599,46.871709503833905,AT,AT21,AT213,20501,Althofen,4715,12.26950905,2020,AT_20501,official,TRUE
AT_20502,14.5305695624099,46.74412261128437,AT,AT21,AT213,20502,Brückl,2739,46.65283545,2020,AT_20502,official,TRUE
AT_20503,14.070582969771873,46.85753278347084,AT,AT21,AT213,20503,Deutsch-Griffen,897,71.44120601,2020,AT_20503,official,TRUE
AT_20504,14.564083177152597,46.80633986072536,AT,AT21,AT213,20504,Eberstein,1229,65.41455705,2020,AT_20504,official,TRUE
AT_20505,14.399165069396048,46.95571427744706,AT,AT21,AT213,20505,Friesach,4948,120.67925066,2020,AT_20505,official,TRUE
AT_20506,14.118897763672907,46.87414825363647,AT,AT21,AT213,20506,Glödnitz,809,74.51175217,2020,AT_20506,official,TRUE
AT_20508,14.285278949410332,46.873163240827466,AT,AT21,AT213,20508,Gurk,1202,39.65995288,2020,AT_20508,official,TRUE
AT_20509,14.511929042498211,46.89048338640465,AT,AT21,AT213,20509,Guttaring,1485,54.94888752,2020,AT_20509,official,TRUE
AT_20511,14.560977830501106,46.93641913525858,AT,AT21,AT213,20511,Hüttenberg,1366,134.33665469,2020,AT_20511,official,TRUE
AT_20512,14.478240615583216,46.831017941634755,AT,AT21,AT213,20512,Kappel am Krappfeld,1939,49.6979175,2020,AT_20512,official,TRUE
AT_20513,14.541652550239704,46.83998076789073,AT,AT21,AT213,20513,Klein St. Paul,1718,68.74345413,2020,AT_20513,official,TRUE
AT_20515,14.279419253231225,46.74162863687193,AT,AT21,AT213,20515,Liebenfels,3318,58.61528277,2020,AT_20515,official,TRUE
AT_20518,14.216403261870484,46.985149953113996,AT,AT21,AT213,20518,Metnitz,1953,223.43918913,2020,AT_20518,official,TRUE
AT_20519,14.430144314966,46.91636168319599,AT,AT21,AT213,20519,Micheldorf,1000,17.06018329,2020,AT_20519,official,TRUE
AT_20520,14.435199373423778,46.859606800468676,AT,AT21,AT213,20520,Mölbling,1309,49.09016616,2020,AT_20520,official,TRUE
AT_20523,14.441484727148232,46.770300045426104,AT,AT21,AT213,20523,St. Georgen am Längsee,3576,69.80684483,2020,AT_20523,official,TRUE
AT_20527,14.361984420388321,46.76594400362616,AT,AT21,AT213,20527,St. Veit an der Glan,12386,50.37885886,2020,AT_20527,official,TRUE
AT_20530,14.329070099570934,46.89760988860046,AT,AT21,AT213,20530,Straßburg,2011,97.44621007,2020,AT_20530,official,TRUE
AT_20531,14.199489055380393,46.85342497925662,AT,AT21,AT213,20531,Weitensfeld im Gurktal,2032,95.64387352,2020,AT_20531,official,TRUE
AT_20534,14.358558520332664,46.789938532933355,AT,AT21,AT213,20534,Frauenstein,3554,93.3777367,2020,AT_20534,official,TRUE
AT_20601,13.787625749231509,46.815520747825104,AT,AT21,AT212,20601,Bad Kleinkirchheim,1711,74.29136847,2020,AT_20601,official,TRUE
AT_20602,13.472179506057529,46.791724356843964,AT,AT21,AT212,20602,Baldramsdorf,1862,38.03227587,2020,AT_20602,official,TRUE
AT_20603,13.130805351733576,46.74505357585119,AT,AT21,AT212,20603,Berg im Drautal,1268,54.22417441,2020,AT_20603,official,TRUE
AT_20604,13.083009116696976,46.74292590234851,AT,AT21,AT212,20604,Dellach im Drautal,1590,75.62768979,2020,AT_20604,official,TRUE
AT_20605,12.896427631257703,46.96992079325772,AT,AT21,AT212,20605,Großkirchheim,1310,109.72917899,2020,AT_20605,official,TRUE
AT_20607,13.11351085079908,46.933799213957286,AT,AT21,AT212,20607,Flattach,1188,99.30070815,2020,AT_20607,official,TRUE
AT_20608,13.536597373994692,46.909053185490514,AT,AT21,AT212,20608,Gmünd in Kärnten,2550,31.71622569,2020,AT_20608,official,TRUE
AT_20609,13.181227554929619,46.749291301968604,AT,AT21,AT212,20609,Greifenburg,1733,75.84911186,2020,AT_20609,official,TRUE
AT_20610,12.854639115066107,47.03176410999162,AT,AT21,AT212,20610,Heiligenblut am Großglockner,997,193.34099064,2020,AT_20610,official,TRUE
AT_20611,13.022060846257483,46.751169420609784,AT,AT21,AT212,20611,Irschen,1966,33.47133936,2020,AT_20611,official,TRUE
AT_20613,13.349996279582527,46.77170192552473,AT,AT21,AT212,20613,Kleblach-Lind,1170,63.03743167,2020,AT_20613,official,TRUE
AT_20616,13.432206434841483,46.83316311328623,AT,AT21,AT212,20616,Lendorf,1703,34.42396645,2020,AT_20616,official,TRUE
AT_20618,13.172113665632434,46.99072157356983,AT,AT21,AT212,20618,Mallnitz,762,111.97698146,2020,AT_20618,official,TRUE
AT_20619,13.517118143074894,46.944383894456685,AT,AT21,AT212,20619,Malta,1936,262.34116155,2020,AT_20619,official,TRUE
AT_20620,13.584813468074799,46.80560007607741,AT,AT21,AT212,20620,Millstatt am See,3436,57.93412514,2020,AT_20620,official,TRUE
AT_20622,12.907781522536457,46.92020645362797,AT,AT21,AT212,20622,Mörtschach,824,74.70950584,2020,AT_20622,official,TRUE
AT_20624,13.348401110005579,46.85651415670248,AT,AT21,AT212,20624,Mühldorf,1007,24.43586535,2020,AT_20624,official,TRUE
AT_20625,12.968020277835922,46.74843257171257,AT,AT21,AT212,20625,Oberdrauburg,1188,69.60443315,2020,AT_20625,official,TRUE
AT_20627,13.194148585786888,46.93404713262905,AT,AT21,AT212,20627,Obervellach,2171,104.44044185,2020,AT_20627,official,TRUE
AT_20630,13.69716500168671,46.795560511653285,AT,AT21,AT212,20630,Radenthein,5782,89.7008524,2020,AT_20630,official,TRUE
AT_20631,12.951060762638038,46.8614657006756,AT,AT21,AT212,20631,Rangersdorf,1705,84.17909975,2020,AT_20631,official,TRUE
AT_20632,13.604498064826322,47.02123717045222,AT,AT21,AT212,20632,Rennweg am Katschberg,1740,121.15489142,2020,AT_20632,official,TRUE
AT_20633,13.349554626993529,46.82466921750206,AT,AT21,AT212,20633,Sachsenburg,1322,42.55488343,2020,AT_20633,official,TRUE
AT_20634,13.511342828639192,46.82354262036162,AT,AT21,AT212,20634,Seeboden am Millstätter See,6506,44.44347503,2020,AT_20634,official,TRUE
AT_20635,13.500937332704469,46.79458091855861,AT,AT21,AT212,20635,Spittal an der Drau,15300,48.93584293,2020,AT_20635,official,TRUE
AT_20636,13.036556743474382,46.89014080189405,AT,AT21,AT212,20636,Stall,1524,96.73208625,2020,AT_20636,official,TRUE
AT_20637,13.251676525611646,46.75702683564235,AT,AT21,AT212,20637,Steinfeld,2039,81.40246686,2020,AT_20637,official,TRUE
AT_20638,13.505743727712945,46.882991238089005,AT,AT21,AT212,20638,Trebesing,1162,73.73189675,2020,AT_20638,official,TRUE
AT_20639,13.288271512771283,46.719401117699505,AT,AT21,AT212,20639,Weißensee,761,77.45293762,2020,AT_20639,official,TRUE
AT_20640,12.879053522245766,46.8673272923613,AT,AT21,AT212,20640,Winklern,1214,37.07208228,2020,AT_20640,official,TRUE
AT_20642,13.591135955975004,46.9338912590333,AT,AT21,AT212,20642,Krems in Kärnten,1661,207.90705175,2020,AT_20642,official,TRUE
AT_20643,13.380926576609772,46.837650418187536,AT,AT21,AT212,20643,Lurnfeld,2679,32.9785474,2020,AT_20643,official,TRUE
AT_20644,13.295999120560731,46.88280674956273,AT,AT21,AT212,20644,Reißeck,2101,139.80967871,2020,AT_20644,official,TRUE
AT_20701,13.785798342412464,46.72966352702665,AT,AT21,AT211,20701,Afritz am See,1404,28.14916856,2020,AT_20701,official,TRUE
AT_20702,13.720606723505684,46.552560419795086,AT,AT21,AT211,20702,Arnoldstein,7038,67.70720362,2020,AT_20702,official,TRUE
AT_20703,13.853614964692905,46.733588051206546,AT,AT21,AT211,20703,Arriach,1333,71.10965105,2020,AT_20703,official,TRUE
AT_20705,13.660779130731122,46.6265657425581,AT,AT21,AT211,20705,Bad Bleiberg,2179,44.84046254,2020,AT_20705,official,TRUE
AT_20707,13.606310078771997,46.57738180293372,AT,AT21,AT211,20707,Feistritz an der Gail,619,19.3077555,2020,AT_20707,official,TRUE
AT_20708,13.748730428872706,46.77648824707173,AT,AT21,AT211,20708,Feld am See,1083,33.8035089,2020,AT_20708,official,TRUE
AT_20710,13.631426236066483,46.73871190653826,AT,AT21,AT211,20710,Ferndorf,2088,30.57224067,2020,AT_20710,official,TRUE
AT_20711,13.877386486827621,46.56169006355674,AT,AT21,AT211,20711,Finkenstein am Faaker See,9059,102.86647043,2020,AT_20711,official,TRUE
AT_20712,13.691960872843794,46.717052579766886,AT,AT21,AT211,20712,Fresach,1216,38.77355856,2020,AT_20712,official,TRUE
AT_20713,13.64119043760453,46.56024034505534,AT,AT21,AT211,20713,Hohenthurn,872,27.24537708,2020,AT_20713,official,TRUE
AT_20719,13.617543869729621,46.59342180737488,AT,AT21,AT211,20719,Nötsch im Gailtal,2271,42.62911269,2020,AT_20719,official,TRUE
AT_20720,13.666228772811401,46.69652311405353,AT,AT21,AT211,20720,Paternion,5799,105.28452219,2020,AT_20720,official,TRUE
AT_20721,14.010949589372919,46.586928148150896,AT,AT21,AT211,20721,Rosegg,1822,19.11833438,2020,AT_20721,official,TRUE
AT_20722,14.059308669442176,46.544110861535174,AT,AT21,AT211,20722,St. Jakob im Rosental,4292,78.35581875,2020,AT_20722,official,TRUE
AT_20723,13.577633010649846,46.728128204283614,AT,AT21,AT211,20723,Stockenboi,1611,100.44869953,2020,AT_20723,official,TRUE
AT_20724,13.866711714414365,46.66752304141046,AT,AT21,AT211,20724,Treffen am Ossiacher See,4462,71.54055518,2020,AT_20724,official,TRUE
AT_20725,14.030470455591285,46.613329511609535,AT,AT21,AT211,20725,Velden am Wörther See,9025,52.85615231,2020,AT_20725,official,TRUE
AT_20726,13.746359439715553,46.66715262558639,AT,AT21,AT211,20726,Weißenstein,2919,48.73520464,2020,AT_20726,official,TRUE
AT_20727,13.957678393572762,46.614883423789834,AT,AT21,AT211,20727,Wernberg,5526,26.42544671,2020,AT_20727,official,TRUE
AT_20801,14.79488925310032,46.58944323698389,AT,AT21,AT213,20801,Bleiburg,4058,69.74730583,2020,AT_20801,official,TRUE
AT_20802,14.63288894166041,46.7318274220492,AT,AT21,AT213,20802,Diex,787,54.73808543,2020,AT_20802,official,TRUE
AT_20803,14.642976188769117,46.603729980144465,AT,AT21,AT213,20803,Eberndorf,5870,67.78163645,2020,AT_20803,official,TRUE
AT_20804,14.589159846997909,46.491078178546154,AT,AT21,AT213,20804,Eisenkappel-Vellach,2272,199.75318692,2020,AT_20804,official,TRUE
AT_20805,14.762430567888543,46.57455771312648,AT,AT21,AT213,20805,Feistritz ob Bleiburg,2200,54.17646776,2020,AT_20805,official,TRUE
AT_20806,14.511390429580729,46.558745692387966,AT,AT21,AT213,20806,Gallizien,1751,47.31652879,2020,AT_20806,official,TRUE
AT_20807,14.702682514945835,46.56147940132312,AT,AT21,AT213,20807,Globasnitz,1598,38.37923715,2020,AT_20807,official,TRUE
AT_20808,14.727298766128698,46.70399227239968,AT,AT21,AT213,20808,Griffen,3428,75.18738822,2020,AT_20808,official,TRUE
AT_20810,14.893596863203832,46.64616888366259,AT,AT21,AT213,20810,Neuhaus,1019,36.00059254,2020,AT_20810,official,TRUE
AT_20812,14.78967209739394,46.65908852342802,AT,AT21,AT213,20812,Ruden,1526,42.31934814,2020,AT_20812,official,TRUE
AT_20813,14.585998595994418,46.6107352899625,AT,AT21,AT213,20813,St. Kanzian am Klopeiner See,4480,41.31217681,2020,AT_20813,official,TRUE
AT_20815,14.597825119222273,46.54989367329665,AT,AT21,AT213,20815,Sittersdorf,1974,45.05538883,2020,AT_20815,official,TRUE
AT_20817,14.62804731476675,46.662201876011025,AT,AT21,AT213,20817,Völkermarkt,10899,137.85268058,2020,AT_20817,official,TRUE
AT_20901,14.796020052086797,46.96018236691167,AT,AT21,AT213,20901,Bad St. Leonhard im Lavanttal,4328,111.87041163,2020,AT_20901,official,TRUE
AT_20905,14.868936441543827,46.86562938045346,AT,AT21,AT213,20905,Frantschach-St.Gertraud,2556,100.21060642,2020,AT_20905,official,TRUE
AT_20909,14.943731087995948,46.657773608103895,AT,AT21,AT213,20909,Lavamünd,2870,94.283775,2020,AT_20909,official,TRUE
AT_20911,14.92449153906313,46.937650742948286,AT,AT21,AT213,20911,Preitenegg,930,68.02221762,2020,AT_20911,official,TRUE
AT_20912,14.740977086221687,47.007716825195914,AT,AT21,AT213,20912,Reichenfels,1792,87.4889224,2020,AT_20912,official,TRUE
AT_20913,14.840191597212911,46.76667237391224,AT,AT21,AT213,20913,Sankt Andrä,9873,113.3258651,2020,AT_20913,official,TRUE
AT_20914,14.909964346728733,46.71874420449468,AT,AT21,AT213,20914,St. Georgen im Lavanttal,1960,72.16034348,2020,AT_20914,official,TRUE
AT_20918,14.86405592970972,46.703567698535075,AT,AT21,AT213,20918,St. Paul im Lavanttal,3273,47.50468344,2020,AT_20918,official,TRUE
AT_20923,14.83840332578271,46.82936586782336,AT,AT21,AT213,20923,Wolfsberg,25025,278.67034572,2020,AT_20923,official,TRUE
AT_21001,14.056204234740292,46.823121414619216,AT,AT21,AT212,21001,Albeck,983,99.62048655,2020,AT_21001,official,TRUE
AT_21002,14.09787583809895,46.72305103383186,AT,AT21,AT212,21002,Feldkirchen in Kärnten,14270,76.96142487,2020,AT_21002,official,TRUE
AT_21003,14.213687565869343,46.721644157390045,AT,AT21,AT212,21003,Glanegg,1796,25.45791973,2020,AT_21003,official,TRUE
AT_21004,13.94773298345043,46.783806442310826,AT,AT21,AT212,21004,Gnesau,1026,78.22671531,2020,AT_21004,official,TRUE
AT_21005,14.039380160399503,46.74416174181541,AT,AT21,AT212,21005,Himmelberg,2273,56.88408709,2020,AT_21005,official,TRUE
AT_21006,13.99174905002614,46.676988244167305,AT,AT21,AT212,21006,Ossiach,844,17.19400406,2020,AT_21006,official,TRUE
AT_21007,13.872624831368384,46.83406539880595,AT,AT21,AT212,21007,Reichenau,1765,113.60063898,2020,AT_21007,official,TRUE
AT_21008,14.162068192723558,46.74845346117154,AT,AT21,AT212,21008,St. Urban,1527,27.35725449,2020,AT_21008,official,TRUE
AT_21009,13.981161219165008,46.69008537519876,AT,AT21,AT212,21009,Steindorf am Ossiacher See,3808,29.95345629,2020,AT_21009,official,TRUE
AT_21010,14.112367322866666,46.78239974484241,AT,AT21,AT212,21010,Steuerberg,1610,33.05942926,2020,AT_21010,official,TRUE
AT_30101,15.6102444457444,48.412393489334676,AT,AT12,AT124,30101,Krems an der Donau,25036,51.73608289,2020,AT_30101,official,TRUE
AT_30201,15.629351654933382,48.202457687233206,AT,AT12,AT123,30201,St. Pölten,55514,109.04790236,2020,AT_30201,official,TRUE
AT_30301,14.778847841184488,47.95822820310961,AT,AT12,AT121,30301,Waidhofen an der Ybbs,11222,131.4228649,2020,AT_30301,official,TRUE
AT_30401,16.24297855985036,47.8193687432844,AT,AT12,AT122,30401,Wiener Neustadt,45823,59.99956853,2020,AT_30401,official,TRUE
AT_30501,14.786812616531913,48.026326480255705,AT,AT12,AT121,30501,Allhartsberg,2152,21.33992303,2020,AT_30501,official,TRUE
AT_30502,14.85599020978407,48.1149594244831,AT,AT12,AT121,30502,Amstetten,23816,52.0165623,2020,AT_30502,official,TRUE
AT_30503,14.834198208591552,48.16739539862111,AT,AT12,AT121,30503,Ardagger,3538,46.69651568,2020,AT_30503,official,TRUE
AT_30504,14.74724445042722,48.07223593511889,AT,AT12,AT121,30504,Aschbach-Markt,3822,37.24845686,2020,AT_30504,official,TRUE
AT_30506,14.48535143464167,48.039798181003356,AT,AT12,AT121,30506,Behamberg,3426,20.22792644,2020,AT_30506,official,TRUE
AT_30507,14.719357537720356,48.02244250790395,AT,AT12,AT121,30507,Biberbach,2269,28.70991966,2020,AT_30507,official,TRUE
AT_30508,14.499447924953651,48.21427206272016,AT,AT12,AT121,30508,Ennsdorf,3084,7.63603118,2020,AT_30508,official,TRUE
AT_30509,14.481138117459663,48.13138906381866,AT,AT12,AT121,30509,Ernsthofen,2258,17.96756972,2020,AT_30509,official,TRUE
AT_30510,14.633575905873057,47.9755341097109,AT,AT12,AT121,30510,Ertl,1260,21.21319308,2020,AT_30510,official,TRUE
AT_30511,14.933979999714893,48.081390209306875,AT,AT12,AT121,30511,Euratsfeld,2680,30.38063991,2020,AT_30511,official,TRUE
AT_30512,14.981978956284014,48.096730590788475,AT,AT12,AT121,30512,Ferschnitz,1843,15.66208389,2020,AT_30512,official,TRUE
AT_30514,14.570735309484334,48.10854664223769,AT,AT12,AT121,30514,Haag,5639,55.06456402,2020,AT_30514,official,TRUE
AT_30515,14.479981161011679,48.07891948590465,AT,AT12,AT121,30515,Haidershofen,3714,32.08888563,2020,AT_30515,official,TRUE
AT_30516,14.772022652279421,47.80139960994854,AT,AT12,AT121,30516,Hollenstein an der Ybbs,1690,125.97558577,2020,AT_30516,official,TRUE
AT_30517,14.769628802821341,48.032613913935094,AT,AT12,AT121,30517,Kematen an der Ybbs,2639,11.04325762,2020,AT_30517,official,TRUE
AT_30520,14.85485690245697,48.05736744363831,AT,AT12,AT121,30520,Neuhofen an der Ybbs,2951,36.42505298,2020,AT_30520,official,TRUE
AT_30521,14.897783823941568,48.20181455073161,AT,AT12,AT121,30521,Neustadtl an der Donau,2144,47.5541849,2020,AT_30521,official,TRUE
AT_30522,14.778268651109657,48.10736481543265,AT,AT12,AT121,30522,Oed-Oehling,1933,10.64065485,2020,AT_30522,official,TRUE
AT_30524,14.822452638832814,47.878358288708945,AT,AT12,AT121,30524,Opponitz,902,39.56849968,2020,AT_30524,official,TRUE
AT_30526,14.916798446443336,47.83822074357572,AT,AT12,AT121,30526,St. Georgen am Reith,542,40.09511727,2020,AT_30526,official,TRUE
AT_30527,14.945783432627774,48.12275893885833,AT,AT12,AT121,30527,St. Georgen am Ybbsfelde,2848,22.72854367,2020,AT_30527,official,TRUE
AT_30529,14.548849752842916,48.216084347616686,AT,AT12,AT121,30529,St. Pantaleon-Erla,2627,28.17776053,2020,AT_30529,official,TRUE
AT_30530,14.618667408737249,48.041078145760935,AT,AT12,AT121,30530,St. Peter in der Au,5193,59.8391769,2020,AT_30530,official,TRUE
AT_30531,14.519541956706993,48.17087263853639,AT,AT12,AT121,30531,St. Valentin,9306,45.65891077,2020,AT_30531,official,TRUE
AT_30532,14.651687313548166,48.037681461551244,AT,AT12,AT121,30532,Seitenstetten,3440,30.450854,2020,AT_30532,official,TRUE
AT_30533,14.7469087407568,48.001368280182454,AT,AT12,AT121,30533,Sonntagberg,3805,18.70554164,2020,AT_30533,official,TRUE
AT_30534,14.646026836609183,48.14702493575314,AT,AT12,AT121,30534,Strengberg,2094,36.72507193,2020,AT_30534,official,TRUE
AT_30536,14.898702694272638,48.14968852044293,AT,AT12,AT121,30536,Viehdorf,1362,15.73352961,2020,AT_30536,official,TRUE
AT_30538,14.71331667854161,48.16271080195678,AT,AT12,AT121,30538,Wallsee-Sindelburg,2190,25.84104487,2020,AT_30538,official,TRUE
AT_30539,14.580605425784558,48.052151321772286,AT,AT12,AT121,30539,Weistrach,2262,35.72527945,2020,AT_30539,official,TRUE
AT_30541,14.85862789950806,48.101655160299224,AT,AT12,AT121,30541,Winklarn,1762,12.51543848,2020,AT_30541,official,TRUE
AT_30542,14.66661577261072,48.08126680290747,AT,AT12,AT121,30542,Wolfsbach,2047,31.02477464,2020,AT_30542,official,TRUE
AT_30543,14.893234426357242,47.94774765852614,AT,AT12,AT121,30543,Ybbsitz,3405,103.8680653,2020,AT_30543,official,TRUE
AT_30544,14.79938305473967,48.12734384224497,AT,AT12,AT121,30544,Zeillern,1877,21.41594093,2020,AT_30544,official,TRUE
AT_30601,16.077663696793078,48.05724249660461,AT,AT12,AT127,30601,Alland,2589,68.81982046,2020,AT_30601,official,TRUE
AT_30602,15.975697529918806,48.02872251370008,AT,AT12,AT122,30602,Altenmarkt an der Triesting,2102,63.21110001,2020,AT_30602,official,TRUE
AT_30603,16.21327566814426,47.96528946414271,AT,AT12,AT127,30603,Bad Vöslau,12126,39.19480819,2020,AT_30603,official,TRUE
AT_30604,16.23748574893995,48.00486395330031,AT,AT12,AT127,30604,Baden,25958,26.88370628,2020,AT_30604,official,TRUE
AT_30605,16.110865050059882,47.94144840963294,AT,AT12,AT122,30605,Berndorf,9046,17.61570749,2020,AT_30605,official,TRUE
AT_30607,16.41010543713553,47.95922853161262,AT,AT12,AT127,30607,Ebreichsdorf,11229,43.10739907,2020,AT_30607,official,TRUE
AT_30608,16.184839433716565,47.92063000017187,AT,AT12,AT122,30608,Enzesfeld-Lindabrunn,4224,15.8771089,2020,AT_30608,official,TRUE
AT_30609,15.99468392564415,47.97301024984663,AT,AT12,AT122,30609,Furth an der Triesting,863,64.1814136,2020,AT_30609,official,TRUE
AT_30612,16.26443725341278,47.94225263852317,AT,AT12,AT127,30612,Günselsdorf,1710,6.64970896,2020,AT_30612,official,TRUE
AT_30613,16.161849978139493,48.043390830131685,AT,AT12,AT127,30613,Heiligenkreuz,1544,30.09584731,2020,AT_30613,official,TRUE
AT_30614,16.100624211614846,47.909568292154475,AT,AT12,AT122,30614,Hernstein,1549,45.75518111,2020,AT_30614,official,TRUE
AT_30615,16.18070262989886,47.92840418694683,AT,AT12,AT122,30615,Hirtenberg,2611,1.4995199,2020,AT_30615,official,TRUE
AT_30616,16.00503098376604,48.10383311143108,AT,AT12,AT127,30616,Klausen-Leopoldsdorf,1710,60.34791251,2020,AT_30616,official,TRUE
AT_30618,16.22585152443675,47.948358772321356,AT,AT12,AT127,30618,Kottingbrunn,7404,11.49860408,2020,AT_30618,official,TRUE
AT_30620,16.21956379473589,47.92843583488695,AT,AT12,AT127,30620,Leobersdorf,4897,12.46819365,2020,AT_30620,official,TRUE
AT_30621,16.47268988630676,47.99926704421409,AT,AT12,AT127,30621,Mitterndorf an der Fischa,2889,11.39804937,2020,AT_30621,official,TRUE
AT_30623,16.32122646443082,47.97737249444341,AT,AT12,AT127,30623,Oberwaltersdorf,4800,13.44622928,2020,AT_30623,official,TRUE
AT_30625,16.260324004951446,48.01416849284464,AT,AT12,AT127,30625,Pfaffstätten,3589,7.93623416,2020,AT_30625,official,TRUE
AT_30626,16.39254450728448,47.90793811161991,AT,AT12,AT127,30626,Pottendorf,7231,39.67901912,2020,AT_30626,official,TRUE
AT_30627,16.092084932913657,47.95976817705176,AT,AT12,AT122,30627,Pottenstein,2930,33.46398626,2020,AT_30627,official,TRUE
AT_30629,16.519851494966264,47.99930301804314,AT,AT12,AT127,30629,Reisenberg,1748,17.68322484,2020,AT_30629,official,TRUE
AT_30631,16.247391814412115,47.9334467359424,AT,AT12,AT127,30631,Schönau an der Triesting,2144,7.84699759,2020,AT_30631,official,TRUE
AT_30633,16.493949982026034,47.950036471570655,AT,AT12,AT127,30633,Seibersdorf,1497,20.28925492,2020,AT_30633,official,TRUE
AT_30635,16.213725936424296,47.98062895244234,AT,AT12,AT127,30635,Sooß,1060,5.50794478,2020,AT_30635,official,TRUE
AT_30636,16.30633471981681,47.95793876235419,AT,AT12,AT127,30636,Tattendorf,1474,14.32832242,2020,AT_30636,official,TRUE
AT_30637,16.28787362322593,47.94796441486138,AT,AT12,AT127,30637,Teesdorf,1808,7.25994364,2020,AT_30637,official,TRUE
AT_30639,16.293006047255787,48.015968973816605,AT,AT12,AT127,30639,Traiskirchen,18758,29.6835888,2020,AT_30639,official,TRUE
AT_30641,16.347497190984964,47.99799555731298,AT,AT12,AT127,30641,Trumau,3709,19.03149417,2020,AT_30641,official,TRUE
AT_30645,16.042533090020022,47.988771408327516,AT,AT12,AT122,30645,Weissenbach an der Triesting,1703,15.84758591,2020,AT_30645,official,TRUE
AT_30646,16.295277920721865,47.92258959767492,AT,AT12,AT127,30646,Blumau-Neurißhof,1849,4.41239654,2020,AT_30646,official,TRUE
AT_30701,16.55578275400181,47.92205274512875,AT,AT12,AT127,30701,Au am Leithaberge,948,16.39584258,2020,AT_30701,official,TRUE
AT_30702,16.906181345111857,48.1293359281507,AT,AT12,AT127,30702,Bad Deutsch-Altenburg,1785,12.58659981,2020,AT_30702,official,TRUE
AT_30703,17.03738181581517,48.10240415875783,AT,AT12,AT127,30703,Berg,905,9.49017634,2020,AT_30703,official,TRUE
AT_30704,16.77363903820145,48.028728715425196,AT,AT12,AT127,30704,Bruck an der Leitha,8036,23.55332739,2020,AT_30704,official,TRUE
AT_30706,16.600768546029773,48.06648616212639,AT,AT12,AT127,30706,Enzersdorf an der Fischa,3336,31.8515858,2020,AT_30706,official,TRUE
AT_30708,16.72669179809938,48.06024419934125,AT,AT12,AT127,30708,Göttlesbrunn-Arbesthal,1447,26.30157031,2020,AT_30708,official,TRUE
AT_30709,16.572281009359404,48.01576268345106,AT,AT12,AT127,30709,Götzendorf an der Leitha,2108,25.75184625,2020,AT_30709,official,TRUE
AT_30710,16.945741854833717,48.14418889260619,AT,AT12,AT127,30710,Hainburg a.d.Donau,6837,25.1394728,2020,AT_30710,official,TRUE
AT_30711,16.70761717673858,48.112814050072956,AT,AT12,AT127,30711,Haslau-Maria Ellend,2012,25.21831673,2020,AT_30711,official,TRUE
AT_30712,16.78555069068272,48.07003351140315,AT,AT12,AT127,30712,Höflein,1250,22.34262006,2020,AT_30712,official,TRUE
AT_30713,16.579375536608104,47.94198960186156,AT,AT12,AT127,30713,Hof am Leithaberge,1550,21.73769147,2020,AT_30713,official,TRUE
AT_30715,16.936701020015775,48.11772961950085,AT,AT12,AT127,30715,Hundsheim,627,13.48904628,2020,AT_30715,official,TRUE
AT_30716,16.6054924409729,47.97547583850906,AT,AT12,AT127,30716,Mannersdorf am Leithagebirge,4138,29.85745944,2020,AT_30716,official,TRUE
AT_30718,16.866437449740417,48.11286769693232,AT,AT12,AT127,30718,Petronell-Carnuntum,1263,25.51694505,2020,AT_30718,official,TRUE
AT_30719,16.94908075651758,48.071109719247175,AT,AT12,AT127,30719,Prellenkirchen,1618,40.79322158,2020,AT_30719,official,TRUE
AT_30721,16.851328108008094,48.06329303047179,AT,AT12,AT127,30721,Rohrau,1614,20.73753619,2020,AT_30721,official,TRUE
AT_30722,16.796439562577675,48.10459046335872,AT,AT12,AT127,30722,Scharndorf,1175,26.099740829999998,2020,AT_30722,official,TRUE
AT_30724,16.65451185077678,47.99244573038871,AT,AT12,AT127,30724,Sommerein,2062,40.74269919,2020,AT_30724,official,TRUE
AT_30726,16.650981762899207,48.03786650568386,AT,AT12,AT127,30726,Trautmannsdorf an der Leitha,2984,35.4769548,2020,AT_30726,official,TRUE
AT_30728,17.010085023432865,48.13343931628014,AT,AT12,AT127,30728,Wolfsthal,1146,21.90286085,2020,AT_30728,official,TRUE
AT_30729,16.519073549286382,48.045323941945334,AT,AT12,AT127,30729,Ebergassing,3958,15.90319338,2020,AT_30729,official,TRUE
AT_30730,16.61521669168302,48.114696083731914,AT,AT12,AT127,30730,Fischamend,5572,24.48329235,2020,AT_30730,official,TRUE
AT_30731,16.488708025021463,48.02741886680781,AT,AT12,AT127,30731,Gramatneusiedl,3612,6.36914672,2020,AT_30731,official,TRUE
AT_30732,16.439602420534186,48.080673050575406,AT,AT12,AT127,30732,Himberg,7443,47.42133126,2020,AT_30732,official,TRUE
AT_30733,16.604812352800185,48.09276136350594,AT,AT12,AT127,30733,Klein-Neusiedl,906,5.91543948,2020,AT_30733,official,TRUE
AT_30734,16.443018439932228,48.11080535118787,AT,AT12,AT127,30734,Lanzendorf,1918,4.58843304,2020,AT_30734,official,TRUE
AT_30735,16.396841046764397,48.11096356076356,AT,AT12,AT127,30735,Leopoldsdorf,5230,7.13803117,2020,AT_30735,official,TRUE
AT_30736,16.416589352266392,48.09622324780019,AT,AT12,AT127,30736,Maria-Lanzendorf,2179,1.68088823,2020,AT_30736,official,TRUE
AT_30737,16.461475393185793,48.01624833834811,AT,AT12,AT127,30737,Moosbrunn,1775,16.79718589,2020,AT_30737,official,TRUE
AT_30738,16.524188007333684,48.080557799891395,AT,AT12,AT127,30738,Rauchenwarth,772,13.50410578,2020,AT_30738,official,TRUE
AT_30739,16.579321825440225,48.07376694988599,AT,AT12,AT127,30739,Schwadorf,2208,11.32087827,2020,AT_30739,official,TRUE
AT_30740,16.471010086043343,48.13727411641205,AT,AT12,AT127,30740,Schwechat,19570,45.28380517,2020,AT_30740,official,TRUE
AT_30741,16.460660946342866,48.11137842348972,AT,AT12,AT127,30741,Zwölfaxing,1751,6.77883708,2020,AT_30741,official,TRUE
AT_30801,16.535125091642325,48.28375906142846,AT,AT12,AT126,30801,Aderklaa,196,8.60017033,2020,AT_30801,official,TRUE
AT_30802,16.670158024924802,48.179466957236286,AT,AT12,AT126,30802,Andlersdorf,141,5.89392579,2020,AT_30802,official,TRUE
AT_30803,16.82300183598821,48.390561733308914,AT,AT12,AT126,30803,Angern an der March,3417,38.2670972,2020,AT_30803,official,TRUE
AT_30804,16.63503336203703,48.37307654019992,AT,AT12,AT126,30804,Auersthal,1922,15.5158993,2020,AT_30804,official,TRUE
AT_30805,16.599711852144367,48.453427044598655,AT,AT12,AT126,30805,Bad Pirawarth,1683,25.3821525,2020,AT_30805,official,TRUE
AT_30808,16.570871690118786,48.30649331544924,AT,AT12,AT126,30808,Deutsch-Wagram,8960,30.68287845,2020,AT_30808,official,TRUE
AT_30810,16.898437139406013,48.53598028353829,AT,AT12,AT125,30810,Drösing,1128,29.43040776,2020,AT_30810,official,TRUE
AT_30811,16.848652694459428,48.47226609045415,AT,AT12,AT125,30811,Dürnkrut,2237,30.35406683,2020,AT_30811,official,TRUE
AT_30812,16.786765955185796,48.434739732992554,AT,AT12,AT126,30812,Ebenthal,891,18.1153432,2020,AT_30812,official,TRUE
AT_30813,16.796648912899222,48.15258471678296,AT,AT12,AT126,30813,Eckartsau,1298,48.47197909,2020,AT_30813,official,TRUE
AT_30814,16.901735693412892,48.18289791387543,AT,AT12,AT126,30814,Engelhartstetten,2085,65.76956162,2020,AT_30814,official,TRUE
AT_30817,16.719488171355312,48.33535564203097,AT,AT12,AT126,30817,Gänserndorf,11643,30.59659274,2020,AT_30817,official,TRUE
AT_30819,16.6383293010981,48.24623710817204,AT,AT12,AT126,30819,Glinzendorf,314,10.52360353,2020,AT_30819,official,TRUE
AT_30821,16.558233064402465,48.1949616100659,AT,AT12,AT126,30821,Groß-Enzersdorf,11600,84.30950197,2020,AT_30821,official,TRUE
AT_30822,16.626560628393563,48.26283809071446,AT,AT12,AT126,30822,Großhofen,110,6.14587629,2020,AT_30822,official,TRUE
AT_30824,16.634500488293387,48.41608401657595,AT,AT12,AT126,30824,Groß-Schweinbarth,1296,25.2251425,2020,AT_30824,official,TRUE
AT_30825,16.775023341813906,48.19253035335058,AT,AT12,AT126,30825,Haringsee,1183,27.13635063,2020,AT_30825,official,TRUE
AT_30826,16.735215122127357,48.60773762609059,AT,AT12,AT125,30826,Hauskirchen,1253,22.3870868,2020,AT_30826,official,TRUE
AT_30827,16.904034375190125,48.607912217523626,AT,AT12,AT125,30827,Hohenau an der March,2706,23.25582513,2020,AT_30827,official,TRUE
AT_30828,16.653029595322515,48.46160774476012,AT,AT12,AT126,30828,Hohenruppersdorf,936,21.41929219,2020,AT_30828,official,TRUE
AT_30829,16.880609097397514,48.50339866115223,AT,AT12,AT125,30829,Jedenspeigen,1095,23.22154873,2020,AT_30829,official,TRUE
AT_30830,16.823547662842874,48.226728045026256,AT,AT12,AT126,30830,Lassee,2869,55.62426438,2020,AT_30830,official,TRUE
AT_30831,16.69138287504313,48.22278349817313,AT,AT12,AT126,30831,Leopoldsdorf im Marchfelde,2923,28.9265652,2020,AT_30831,official,TRUE
AT_30834,16.665643761981205,48.152646310295395,AT,AT12,AT126,30834,Mannsdorf an der Donau,373,10.23101882,2020,AT_30834,official,TRUE
AT_30835,16.909750007123904,48.25665215501093,AT,AT12,AT126,30835,Marchegg,2989,45.60809587,2020,AT_30835,official,TRUE
AT_30836,16.6253729542064,48.29903762724721,AT,AT12,AT126,30836,Markgrafneusiedl,898,19.83979288,2020,AT_30836,official,TRUE
AT_30838,16.681254841284233,48.40542376080149,AT,AT12,AT126,30838,Matzen-Raggendorf,2788,35.78087688,2020,AT_30838,official,TRUE
AT_30841,16.787457261327393,48.601942636331835,AT,AT12,AT125,30841,Neusiedl an der Zaya,1258,17.61623137,2020,AT_30841,official,TRUE
AT_30842,16.70775482760627,48.26333032147462,AT,AT12,AT126,30842,Obersiebenbrunn,1699,26.91245669,2020,AT_30842,official,TRUE
AT_30844,16.69977642639061,48.15001618628678,AT,AT12,AT126,30844,Orth an der Donau,2157,33.53951781,2020,AT_30844,official,TRUE
AT_30845,16.82053363161329,48.595089789960355,AT,AT12,AT125,30845,Palterndorf-Dobermannsdorf,1340,18.74904182,2020,AT_30845,official,TRUE
AT_30846,16.588847608714435,48.28060530771902,AT,AT12,AT126,30846,Parbasdorf,163,10.23401446,2020,AT_30846,official,TRUE
AT_30848,16.737672828599035,48.38440241767273,AT,AT12,AT126,30848,Prottes,1457,13.81595093,2020,AT_30848,official,TRUE
AT_30849,16.56875715318926,48.2486727391442,AT,AT12,AT126,30849,Raasdorf,640,13.10473743,2020,AT_30849,official,TRUE
AT_30850,16.863379166749528,48.56386158217401,AT,AT12,AT125,30850,Ringelsdorf-Niederabsdorf,1231,32.47581584,2020,AT_30850,official,TRUE
AT_30852,16.680597988963545,48.340141851245285,AT,AT12,AT126,30852,Schönkirchen-Reyersdorf,1987,17.94133378,2020,AT_30852,official,TRUE
AT_30854,16.73711182442123,48.464092529520784,AT,AT12,AT126,30854,Spannberg,1010,19.60096048,2020,AT_30854,official,TRUE
AT_30856,16.65133493008425,48.31750658687266,AT,AT12,AT126,30856,Strasshof an der Nordbahn,10767,12.39757942,2020,AT_30856,official,TRUE
AT_30857,16.67957046168449,48.495292611327805,AT,AT12,AT125,30857,Sulz im Weinviertel,1206,31.61595624,2020,AT_30857,official,TRUE
AT_30858,16.74681916072299,48.255750822356696,AT,AT12,AT126,30858,Untersiebenbrunn,1759,30.49349188,2020,AT_30858,official,TRUE
AT_30859,16.78780281439935,48.47013607790077,AT,AT12,AT126,30859,Velm-Götzendorf,773,17.75478297,2020,AT_30859,official,TRUE
AT_30860,16.771938851521952,48.347745405747325,AT,AT12,AT126,30860,Weikendorf,2026,46.3553897,2020,AT_30860,official,TRUE
AT_30863,16.757671164569174,48.5416786213642,AT,AT12,AT125,30863,Zistersdorf,5379,89.10784173,2020,AT_30863,official,TRUE
AT_30865,16.84688573564365,48.32285946776605,AT,AT12,AT126,30865,Weiden an der March,996,55.92008175,2020,AT_30865,official,TRUE
AT_30902,15.087884953155351,48.83264603659268,AT,AT12,AT124,30902,Amaliendorf-Aalfang,1108,8.02912332,2020,AT_30902,official,TRUE
AT_30903,15.003182086844145,48.84861081148623,AT,AT12,AT124,30903,Brand-Nagelberg,1512,36.70869225,2020,AT_30903,official,TRUE
AT_30904,15.149507580009063,48.90978746199863,AT,AT12,AT124,30904,Eggern,680,20.32732873,2020,AT_30904,official,TRUE
AT_30906,15.104934978048961,48.91757668580981,AT,AT12,AT124,30906,Eisgarn,680,22.45849743,2020,AT_30906,official,TRUE
AT_30908,14.981646929308035,48.766568756172106,AT,AT12,AT124,30908,Gmünd,5338,25.26143908,2020,AT_30908,official,TRUE
AT_30909,14.95690650103055,48.75092950226933,AT,AT12,AT124,30909,Großdietmanns,2214,39.94300328,2020,AT_30909,official,TRUE
AT_30910,14.824293282544689,48.62575905819445,AT,AT12,AT124,30910,Bad Großpertholz,1310,81.853419,2020,AT_30910,official,TRUE
AT_30912,14.949722348022876,48.648042433571476,AT,AT12,AT124,30912,Großschönau,1209,42.184135,2020,AT_30912,official,TRUE
AT_30913,14.791636856852937,48.697354552808015,AT,AT12,AT124,30913,Moorbad Harbach,734,35.51411913,2020,AT_30913,official,TRUE
AT_30915,15.05924458886488,48.994847950026426,AT,AT12,AT124,30915,Haugschlag,481,22.60496904,2020,AT_30915,official,TRUE
AT_30916,15.121749728874406,48.86574290578233,AT,AT12,AT124,30916,Heidenreichstein,3922,58.76997062,2020,AT_30916,official,TRUE
AT_30917,15.121799629133076,48.742228167247134,AT,AT12,AT124,30917,Hirschbach,576,8.12758186,2020,AT_30917,official,TRUE
AT_30920,15.030111123374056,48.77009304768261,AT,AT12,AT124,30920,Hoheneich,1395,15.62206909,2020,AT_30920,official,TRUE
AT_30921,15.091049699545335,48.72361526324223,AT,AT12,AT124,30921,Kirchberg am Walde,1307,37.48137952,2020,AT_30921,official,TRUE
AT_30925,15.049792546274794,48.94417836952431,AT,AT12,AT124,30925,Litschau,2176,81.1364653,2020,AT_30925,official,TRUE
AT_30929,15.141544121070815,48.96262733662578,AT,AT12,AT124,30929,Reingers,617,24.9827278,2020,AT_30929,official,TRUE
AT_30932,14.832634146345985,48.661758754088474,AT,AT12,AT124,30932,St. Martin,1091,49.43629161,2020,AT_30932,official,TRUE
AT_30935,15.067365964576718,48.793115067748104,AT,AT12,AT124,30935,Schrems,5383,60.85047715,2020,AT_30935,official,TRUE
AT_30939,14.89039161337672,48.72769316085906,AT,AT12,AT124,30939,Unserfrau-Altweitra,981,40.17753635,2020,AT_30939,official,TRUE
AT_30940,15.017389637008046,48.73447900044262,AT,AT12,AT124,30940,Waldenstein,1194,22.76373225,2020,AT_30940,official,TRUE
AT_30942,14.892812602198537,48.697530136236786,AT,AT12,AT124,30942,Weitra,2645,52.50996473,2020,AT_30942,official,TRUE
AT_31001,16.098817727301743,48.70113073417504,AT,AT12,AT125,31001,Alberndorf im Pulkautal,745,9.90194331,2020,AT_31001,official,TRUE
AT_31008,16.124155792997705,48.49207818670889,AT,AT12,AT125,31008,Göllersdorf,3064,59.72034206,2020,AT_31008,official,TRUE
AT_31009,16.057401772022185,48.60382725610836,AT,AT12,AT125,31009,Grabern,1694,30.97731392,2020,AT_31009,official,TRUE
AT_31014,16.03308460963158,48.645985552459294,AT,AT12,AT125,31014,Guntersdorf,1154,28.4535368,2020,AT_31014,official,TRUE
AT_31015,16.13005889211228,48.706945491688124,AT,AT12,AT125,31015,Hadres,1704,34.43515461,2020,AT_31015,official,TRUE
AT_31016,15.838878942395302,48.82144825024592,AT,AT12,AT125,31016,Hardegg,1305,92.9647775,2020,AT_31016,official,TRUE
AT_31018,16.070445668405473,48.708186956517466,AT,AT12,AT125,31018,Haugsdorf,1551,21.21250474,2020,AT_31018,official,TRUE
AT_31019,15.957223694412177,48.505877967674195,AT,AT12,AT125,31019,Heldenberg,1347,27.44738358,2020,AT_31019,official,TRUE
AT_31021,15.821193106511103,48.512591934647105,AT,AT12,AT125,31021,Hohenwarth-Mühlbach a.M.,1310,43.03627152,2020,AT_31021,official,TRUE
AT_31022,16.081469798419906,48.56063809030122,AT,AT12,AT125,31022,Hollabrunn,11882,152.44271805,2020,AT_31022,official,TRUE
AT_31025,16.18491033987778,48.67145457757972,AT,AT12,AT125,31025,Mailberg,575,16.00712401,2020,AT_31025,official,TRUE
AT_31026,15.83074533008541,48.57251750563882,AT,AT12,AT125,31026,Maissau,1935,42.94384897,2020,AT_31026,official,TRUE
AT_31028,16.21286484402373,48.62799759098564,AT,AT12,AT125,31028,Nappersdorf-Kammersdorf,1224,39.13635931,2020,AT_31028,official,TRUE
AT_31033,16.029249494964535,48.70314841495206,AT,AT12,AT125,31033,Pernersdorf,1017,25.85896395,2020,AT_31033,official,TRUE
AT_31035,15.859093815163915,48.703479052289524,AT,AT12,AT125,31035,Pulkau,1538,36.65553483,2020,AT_31035,official,TRUE
AT_31036,15.85162877901318,48.54962117070583,AT,AT12,AT125,31036,Ravelsbach,1603,26.35134318,2020,AT_31036,official,TRUE
AT_31037,15.9557463864215,48.756322409401626,AT,AT12,AT125,31037,Retz,4255,45.01150454,2020,AT_31037,official,TRUE
AT_31038,15.993749488563116,48.77122853174176,AT,AT12,AT125,31038,Retzbach,1022,18.12602463,2020,AT_31038,official,TRUE
AT_31041,15.900036998346724,48.7309428900846,AT,AT12,AT125,31041,Schrattenthal,865,22.4004037,2020,AT_31041,official,TRUE
AT_31042,16.180661636935596,48.71411233162034,AT,AT12,AT125,31042,Seefeld-Kadolz,945,21.66701565,2020,AT_31042,official,TRUE
AT_31043,15.932239534274126,48.60690231333409,AT,AT12,AT125,31043,Sitzendorf an der Schmida,2141,61.70183179,2020,AT_31043,official,TRUE
AT_31051,16.108800237862262,48.62910604069099,AT,AT12,AT125,31051,Wullersdorf,2352,63.88800826,2020,AT_31051,official,TRUE
AT_31052,15.965586512489327,48.692973024708984,AT,AT12,AT125,31052,Zellerndorf,2425,41.10274157,2020,AT_31052,official,TRUE
AT_31053,15.926125156872688,48.52825202138082,AT,AT12,AT125,31053,Ziersdorf,3380,48.75367564,2020,AT_31053,official,TRUE
AT_31101,15.589172148398324,48.646832195399334,AT,AT12,AT124,31101,Altenburg,817,28.34798856,2020,AT_31101,official,TRUE
AT_31102,15.514661344693002,48.6947779176801,AT,AT12,AT124,31102,Brunn an der Wild,838,31.9161523,2020,AT_31102,official,TRUE
AT_31103,15.802853402269102,48.61120303985697,AT,AT12,AT124,31103,Burgschleinitz-Kühnring,1338,42.04126673,2020,AT_31103,official,TRUE
AT_31104,15.623657560395847,48.857032063014834,AT,AT12,AT124,31104,Drosendorf-Zissersdorf,1210,53.26658904,2020,AT_31104,official,TRUE
AT_31105,15.816203235752834,48.64419875217089,AT,AT12,AT124,31105,Eggenburg,3503,23.55779715,2020,AT_31105,official,TRUE
AT_31106,15.662664335081983,48.59906197141145,AT,AT12,AT124,31106,Gars am Kamp,3476,50.52042067,2020,AT_31106,official,TRUE
AT_31107,15.674622415217673,48.78830869024033,AT,AT12,AT124,31107,Geras,1271,67.62116867,2020,AT_31107,official,TRUE
AT_31109,15.655015779032178,48.66778120200393,AT,AT12,AT124,31109,Horn,6428,39.34308575,2020,AT_31109,official,TRUE
AT_31110,15.534245445460115,48.74423632805275,AT,AT12,AT124,31110,Irnfritz-Messern,1441,55.79642386,2020,AT_31110,official,TRUE
AT_31111,15.567216585859436,48.79392015794726,AT,AT12,AT124,31111,Japons,717,29.2579579,2020,AT_31111,official,TRUE
AT_31113,15.715996835379151,48.829190152215,AT,AT12,AT124,31113,Langau,676,22.37318748,2020,AT_31113,official,TRUE
AT_31114,15.761532527661334,48.66702107216724,AT,AT12,AT124,31114,Meiseldorf,876,35.43748689,2020,AT_31114,official,TRUE
AT_31117,15.628267338514348,48.74118257120336,AT,AT12,AT124,31117,Pernegg,702,36.6117014,2020,AT_31117,official,TRUE
AT_31119,15.502090637022837,48.66215484042246,AT,AT12,AT124,31119,Röhrenbach,522,25.09655339,2020,AT_31119,official,TRUE
AT_31120,15.881801300158509,48.66643386559096,AT,AT12,AT124,31120,Röschitz,1056,21.43449724,2020,AT_31120,official,TRUE
AT_31121,15.684638847450772,48.63382698203324,AT,AT12,AT124,31121,Rosenburg-Mold,850,30.67022497,2020,AT_31121,official,TRUE
AT_31123,15.619403077906071,48.67448155877491,AT,AT12,AT124,31123,St. Bernhard-Frauenhofen,1288,29.35471245,2020,AT_31123,official,TRUE
AT_31124,15.746422824782305,48.69992073725387,AT,AT12,AT124,31124,Sigmundsherberg,1642,47.82911748,2020,AT_31124,official,TRUE
AT_31129,15.797191003533595,48.78078659962328,AT,AT12,AT124,31129,Weitersfeld,1558,87.29141757,2020,AT_31129,official,TRUE
AT_31130,15.86025642604089,48.623574370298954,AT,AT12,AT124,31130,Straning-Grafenberg,727,26.38990478,2020,AT_31130,official,TRUE
AT_31201,16.358556384317573,48.33556733895582,AT,AT12,AT126,31201,Bisamberg,4795,10.72868193,2020,AT_31201,official,TRUE
AT_31202,16.419016440229605,48.35636350505288,AT,AT12,AT126,31202,Enzersfeld im Weinviertel,1748,9.77035269,2020,AT_31202,official,TRUE
AT_31203,16.358023783183853,48.526132986774606,AT,AT12,AT126,31203,Ernstbrunn,3264,81.85433813,2020,AT_31203,official,TRUE
AT_31204,16.234037217556573,48.50397118551955,AT,AT12,AT126,31204,Großmugl,1607,64.6019741,2020,AT_31204,official,TRUE
AT_31205,16.40238364296747,48.47438752028869,AT,AT12,AT126,31205,Großrußbach,2221,33.11017849,2020,AT_31205,official,TRUE
AT_31206,16.40283015417795,48.33469991437028,AT,AT12,AT126,31206,Hagenbrunn,2291,13.65336433,2020,AT_31206,official,TRUE
AT_31207,16.387975665309828,48.40731569779872,AT,AT12,AT126,31207,Harmannsdorf,4032,55.5164706,2020,AT_31207,official,TRUE
AT_31208,16.10605725454875,48.39403481226433,AT,AT12,AT126,31208,Hausleiten,3800,61.25594374,2020,AT_31208,official,TRUE
AT_31213,16.33105220094317,48.34744804911815,AT,AT12,AT126,31213,Korneuburg,13331,9.68493168,2020,AT_31213,official,TRUE
AT_31214,16.362841899203517,48.3059005255852,AT,AT12,AT126,31214,Langenzersdorf,8027,11.3495348,2020,AT_31214,official,TRUE
AT_31215,16.243414027323077,48.41860409987555,AT,AT12,AT126,31215,Leitzersdorf,1190,27.84398495,2020,AT_31215,official,TRUE
AT_31216,16.318659699329043,48.37802546024977,AT,AT12,AT126,31216,Leobendorf,4890,29.88634678,2020,AT_31216,official,TRUE
AT_31224,16.045286076313005,48.45353312825832,AT,AT12,AT126,31224,Rußbach,1409,30.68446399,2020,AT_31224,official,TRUE
AT_31226,16.165502878083576,48.43209114222165,AT,AT12,AT126,31226,Sierndorf,3971,55.06462538,2020,AT_31226,official,TRUE
AT_31227,16.261717558994764,48.3757524700752,AT,AT12,AT126,31227,Spillern,2428,12.79867689,2020,AT_31227,official,TRUE
AT_31228,16.020820326388648,48.40468173945423,AT,AT12,AT126,31228,Stetteldorf am Wagram,1057,25.64068737,2020,AT_31228,official,TRUE
AT_31229,16.384109442150184,48.36691657882881,AT,AT12,AT126,31229,Stetten,1370,7.80924468,2020,AT_31229,official,TRUE
AT_31230,16.215450319683544,48.387362955327326,AT,AT12,AT126,31230,Stockerau,16875,37.58847602,2020,AT_31230,official,TRUE
AT_31234,16.2963432802415,48.45712490226015,AT,AT12,AT126,31234,Niederhollabrunn,1547,50.42311225,2020,AT_31234,official,TRUE
AT_31235,16.475771564845605,48.30522894224195,AT,AT12,AT126,31235,Gerasdorf bei Wien,11401,34.99089483,2020,AT_31235,official,TRUE
AT_31301,15.4012173060424,48.29974358736216,AT,AT12,AT124,31301,Aggsbach,641,13.96018809,2020,AT_31301,official,TRUE
AT_31302,15.36260132419171,48.45204681323696,AT,AT12,AT124,31302,Albrechtsberg an der Großen Krems,1023,28.60569937,2020,AT_31302,official,TRUE
AT_31303,15.534980583424426,48.369238775194695,AT,AT12,AT124,31303,Bergern im Dunkelsteinerwald,1269,37.04253961,2020,AT_31303,official,TRUE
AT_31304,15.525426440892879,48.39418962165802,AT,AT12,AT124,31304,Dürnstein,840,17.07064257,2020,AT_31304,official,TRUE
AT_31308,15.739494657794067,48.44217672572961,AT,AT12,AT124,31308,Grafenegg,3155,29.43446872,2020,AT_31308,official,TRUE
AT_31309,15.612520683745515,48.37908022496393,AT,AT12,AT124,31309,Furth bei Göttweig,2968,12.46592274,2020,AT_31309,official,TRUE
AT_31310,15.692491453803482,48.419794883239184,AT,AT12,AT124,31310,Gedersdorf,2165,18.93264319,2020,AT_31310,official,TRUE
AT_31311,15.490860414219178,48.5148047892795,AT,AT12,AT124,31311,Gföhl,3783,80.66391028,2020,AT_31311,official,TRUE
AT_31315,15.716978155314475,48.45893874793977,AT,AT12,AT124,31315,Hadersdorf-Kammern,1956,4.77351132,2020,AT_31315,official,TRUE
AT_31319,15.477014967145346,48.53631152541887,AT,AT12,AT124,31319,Jaidhof,1212,44.80189907,2020,AT_31319,official,TRUE
AT_31321,15.458095969847767,48.588984302474145,AT,AT12,AT124,31321,Krumau am Kamp,750,26.77160691,2020,AT_31321,official,TRUE
AT_31322,15.682643899631987,48.47579318694304,AT,AT12,AT124,31322,Langenlois,7548,66.95057135,2020,AT_31322,official,TRUE
AT_31323,15.596068698903947,48.473878682124024,AT,AT12,AT124,31323,Lengenfeld,1375,14.90574972,2020,AT_31323,official,TRUE
AT_31324,15.38470289801182,48.497017040484735,AT,AT12,AT124,31324,Lichtenau im Waldviertel,2015,58.17627245,2020,AT_31324,official,TRUE
AT_31326,15.345994264158415,48.30445726273197,AT,AT12,AT124,31326,Maria Laach am Jauerling,916,36.34455381,2020,AT_31326,official,TRUE
AT_31327,15.576802545585668,48.39190866897692,AT,AT12,AT124,31327,Mautern an der Donau,3539,9.02869179,2020,AT_31327,official,TRUE
AT_31330,15.336042842147679,48.370244432072624,AT,AT12,AT124,31330,Mühldorf,1288,28.66167491,2020,AT_31330,official,TRUE
AT_31333,15.633225164003381,48.35383221641966,AT,AT12,AT124,31333,Paudorf,2560,30.33394821,2020,AT_31333,official,TRUE
AT_31336,15.338580622764153,48.56999746961289,AT,AT12,AT124,31336,Rastenfeld,1574,48.16309368,2020,AT_31336,official,TRUE
AT_31337,15.655897931128388,48.41737217431782,AT,AT12,AT124,31337,Rohrendorf bei Krems,2110,9.2361475,2020,AT_31337,official,TRUE
AT_31338,15.482436576361339,48.38642447050713,AT,AT12,AT124,31338,Rossatz-Arnsdorf,1054,39.18165411,2020,AT_31338,official,TRUE
AT_31340,15.554893803550808,48.592505132282334,AT,AT12,AT124,31340,St. Leonhard am Hornerwald,1109,51.3187753,2020,AT_31340,official,TRUE
AT_31343,15.564319068547356,48.44566111861937,AT,AT12,AT124,31343,Senftenberg,1975,34.97815456,2020,AT_31343,official,TRUE
AT_31344,15.401439044078554,48.3603002819772,AT,AT12,AT124,31344,Spitz,1569,23.90482477,2020,AT_31344,official,TRUE
AT_31346,15.733217538177271,48.47592151675277,AT,AT12,AT124,31346,Straß im Straßertale,1720,22.58787971,2020,AT_31346,official,TRUE
AT_31347,15.606689992231914,48.44648589580071,AT,AT12,AT124,31347,Stratzing,843,5.70624367,2020,AT_31347,official,TRUE
AT_31350,15.426451040735255,48.43325402229694,AT,AT12,AT124,31350,Weinzierl am Walde,1239,44.14159875,2020,AT_31350,official,TRUE
AT_31351,15.463864796179692,48.3966741271758,AT,AT12,AT124,31351,Weißenkirchen in der Wachau,1395,23.44411337,2020,AT_31351,official,TRUE
AT_31355,15.69218958167388,48.52721240114654,AT,AT12,AT124,31355,Schönberg am Kamp,1860,53.24314469,2020,AT_31355,official,TRUE
AT_31356,15.56993500652248,48.465665971017124,AT,AT12,AT124,31356,Droß,1036,10.24064894,2020,AT_31356,official,TRUE
AT_31401,15.343869471320266,47.8659881908691,AT,AT12,AT122,31401,Annaberg,516,62.99730243,2020,AT_31401,official,TRUE
AT_31402,15.582282806308708,48.06116787527369,AT,AT12,AT122,31402,Eschenau,1293,24.23044587,2020,AT_31402,official,TRUE
AT_31403,15.766148930507018,48.03727811568063,AT,AT12,AT122,31403,Hainfeld,3801,44.85188793,2020,AT_31403,official,TRUE
AT_31404,15.61508327797306,47.91357924947001,AT,AT12,AT122,31404,Hohenberg,1502,56.91155524,2020,AT_31404,official,TRUE
AT_31405,15.897786445179202,48.02532885789232,AT,AT12,AT122,31405,Kaumberg,1057,43.28855322,2020,AT_31405,official,TRUE
AT_31406,15.736233078476618,47.97978325230676,AT,AT12,AT122,31406,Kleinzell,879,93.99432486,2020,AT_31406,official,TRUE
AT_31407,15.589936797079726,48.01574319458177,AT,AT12,AT122,31407,Lilienfeld,2664,53.81700089,2020,AT_31407,official,TRUE
AT_31408,15.295913176450116,47.81417873231231,AT,AT12,AT122,31408,Mitterbach am Erlaufsee,481,67.42899871,2020,AT_31408,official,TRUE
AT_31409,15.803215116347083,48.00653970253581,AT,AT12,AT122,31409,Ramsau,830,55.1379842,2020,AT_31409,official,TRUE
AT_31410,15.737889909386144,48.051239202504455,AT,AT12,AT122,31410,Rohrbach an der Gölsen,1549,14.70235672,2020,AT_31410,official,TRUE
AT_31411,15.567429796217818,47.85160008527135,AT,AT12,AT122,31411,St. Aegyd am Neuwalde,1862,186.23180022,2020,AT_31411,official,TRUE
AT_31412,15.653537404285405,48.04744993629222,AT,AT12,AT122,31412,St. Veit an der Gölsen,3906,77.84544995,2020,AT_31412,official,TRUE
AT_31413,15.607627974475275,48.04251680358197,AT,AT12,AT122,31413,Traisen,3402,6.81419417,2020,AT_31413,official,TRUE
AT_31414,15.501391808872022,47.93517695002554,AT,AT12,AT122,31414,Türnitz,1913,145.65068069,2020,AT_31414,official,TRUE
AT_31502,15.205264415875332,48.242190471623196,AT,AT12,AT121,31502,Artstetten-Pöbring,1218,27.42570863,2020,AT_31502,official,TRUE
AT_31503,15.16498728200513,48.152409732016125,AT,AT12,AT121,31503,Bergland,1938,33.86101948,2020,AT_31503,official,TRUE
AT_31504,15.467301641960788,48.12080992288768,AT,AT12,AT121,31504,Bischofstetten,1230,19.05984772,2020,AT_31504,official,TRUE
AT_31505,14.992304267044654,48.12683325478836,AT,AT12,AT121,31505,Blindenmarkt,2710,17.14038669,2020,AT_31505,official,TRUE
AT_31506,14.985520038077834,48.32787097413385,AT,AT12,AT121,31506,Dorfstetten,582,34.25599625,2020,AT_31506,official,TRUE
AT_31507,15.44015697180304,48.26462090030463,AT,AT12,AT121,31507,Dunkelsteinerwald,2393,54.68017751,2020,AT_31507,official,TRUE
AT_31508,15.184955982977296,48.18633160569868,AT,AT12,AT121,31508,Erlauf,1081,9.6875873,2020,AT_31508,official,TRUE
AT_31509,15.17826089099799,48.19801991723983,AT,AT12,AT121,31509,Golling an der Erlauf,1510,2.69206502,2020,AT_31509,official,TRUE
AT_31511,15.071512729312945,48.19987759375926,AT,AT12,AT121,31511,Hofamt Priel,1699,39.66986845,2020,AT_31511,official,TRUE
AT_31513,15.411320995501576,48.158310474990714,AT,AT12,AT121,31513,Hürm,1861,36.18888323,2020,AT_31513,official,TRUE
AT_31514,15.405607274002932,48.0984741956841,AT,AT12,AT121,31514,Kilb,2574,45.50451874,2020,AT_31514,official,TRUE
AT_31515,15.32314429421428,48.072769854773306,AT,AT12,AT121,31515,Kirnberg an der Mank,1081,17.65650785,2020,AT_31515,official,TRUE
AT_31516,15.216136445526928,48.22052010994767,AT,AT12,AT121,31516,Klein-Pöchlarn,1033,6.89670938,2020,AT_31516,official,TRUE
AT_31517,15.16718905624231,48.20625648517031,AT,AT12,AT121,31517,Krummnußbaum,1534,10.05863405,2020,AT_31517,official,TRUE
AT_31519,15.271531678556418,48.24335933292812,AT,AT12,AT121,31519,Leiben,1367,12.56944277,2020,AT_31519,official,TRUE
AT_31520,15.400129769985558,48.20104400289069,AT,AT12,AT121,31520,Loosdorf,3807,11.83861421,2020,AT_31520,official,TRUE
AT_31521,15.34038827689684,48.1080416522318,AT,AT12,AT121,31521,Mank,3219,33.57360932,2020,AT_31521,official,TRUE
AT_31522,15.15087700838119,48.217036768636035,AT,AT12,AT121,31522,Marbach an der Donau,1691,10.74708113,2020,AT_31522,official,TRUE
AT_31523,15.153612630693873,48.231913465221496,AT,AT12,AT121,31523,Maria Taferl,911,12.19082128,2020,AT_31523,official,TRUE
AT_31524,15.33735864184283,48.22562729936216,AT,AT12,AT121,31524,Melk,5630,25.61008361,2020,AT_31524,official,TRUE
AT_31525,15.122292142957773,48.29413852421563,AT,AT12,AT121,31525,Münichreith-Laimbach,1637,39.0003909,2020,AT_31525,official,TRUE
AT_31527,15.062233864426359,48.14109955736909,AT,AT12,AT121,31527,Neumarkt an der Ybbs,1992,9.5067872,2020,AT_31527,official,TRUE
AT_31528,14.98411965371112,48.223398339377,AT,AT12,AT121,31528,Nöchling,1046,19.12447675,2020,AT_31528,official,TRUE
AT_31530,15.094699506088483,48.1868898490059,AT,AT12,AT121,31530,Persenbeug-Gottsdorf,2174,8.36121137,2020,AT_31530,official,TRUE
AT_31531,15.155579286890488,48.14349233564418,AT,AT12,AT121,31531,Petzenkirchen,1425,2.8495642,2020,AT_31531,official,TRUE
AT_31533,15.208178554115518,48.21022675057302,AT,AT12,AT121,31533,Pöchlarn,3948,17.90696374,2020,AT_31533,official,TRUE
AT_31534,15.194586571526065,48.314908219853926,AT,AT12,AT121,31534,Pöggstall,2416,59.29365289,2020,AT_31534,official,TRUE
AT_31535,15.286464360945095,48.33977216894943,AT,AT12,AT121,31535,Raxendorf,1048,36.32699002,2020,AT_31535,official,TRUE
AT_31537,15.273138818503288,48.135583370328085,AT,AT12,AT121,31537,Ruprechtshofen,2313,30.41297399,2020,AT_31537,official,TRUE
AT_31539,15.290057314382167,48.14259145768755,AT,AT12,AT121,31539,St. Leonhard am Forst,3042,43.6815897,2020,AT_31539,official,TRUE
AT_31540,15.025595826729386,48.163097176280694,AT,AT12,AT121,31540,St. Martin-Karlsbach,1640,24.57161584,2020,AT_31540,official,TRUE
AT_31541,15.031434876719809,48.26575119479423,AT,AT12,AT121,31541,St. Oswald,1120,32.33928718,2020,AT_31541,official,TRUE
AT_31542,15.404851346426579,48.28172354661769,AT,AT12,AT121,31542,Schönbühel-Aggsbach,953,28.39089285,2020,AT_31542,official,TRUE
AT_31543,15.38382398067134,48.20032012696886,AT,AT12,AT121,31543,Schollach,1017,19.78547146,2020,AT_31543,official,TRUE
AT_31546,15.260012413322452,48.29179082734129,AT,AT12,AT121,31546,Weiten,1089,28.53129836,2020,AT_31546,official,TRUE
AT_31549,15.07874580321885,48.17388368513288,AT,AT12,AT121,31549,Ybbs an der Donau,5627,23.83164003,2020,AT_31549,official,TRUE
AT_31550,15.262971477011043,48.18942672495598,AT,AT12,AT121,31550,Zelking-Matzleinsdorf,1220,21.22212061,2020,AT_31550,official,TRUE
AT_31551,15.320046298730682,48.0450481629538,AT,AT12,AT121,31551,Texingtal,1660,32.75547399,2020,AT_31551,official,TRUE
AT_31552,15.064777892291621,48.285449946084356,AT,AT12,AT121,31552,Yspertal,1995,48.05352985,2020,AT_31552,official,TRUE
AT_31553,15.33210961798134,48.24414574912782,AT,AT12,AT121,31553,Emmersdorf an der Donau,1760,29.6490724,2020,AT_31553,official,TRUE
AT_31601,16.79265626615986,48.64405405997368,AT,AT12,AT125,31601,Altlichtenwarth,766,20.395313260000002,2020,AT_31601,official,TRUE
AT_31603,16.488658635449156,48.587333146415766,AT,AT12,AT125,31603,Asparn an der Zaya,1881,40.49588427,2020,AT_31603,official,TRUE
AT_31604,16.84891712145016,48.694523114182715,AT,AT12,AT125,31604,Bernhardsthal,1582,51.89605437,2020,AT_31604,official,TRUE
AT_31605,16.59912545763107,48.35664886348381,AT,AT12,AT126,31605,Bockfließ,1331,22.19733495,2020,AT_31605,official,TRUE
AT_31606,16.650826610279626,48.754349021947256,AT,AT12,AT125,31606,Drasenhofen,1107,35.21460527,2020,AT_31606,official,TRUE
AT_31608,16.583381801353724,48.72031953662534,AT,AT12,AT125,31608,Falkenstein,480,19.19471282,2020,AT_31608,official,TRUE
AT_31609,16.440499505469486,48.65185460891757,AT,AT12,AT125,31609,Fallbach,819,30.4446867,2020,AT_31609,official,TRUE
AT_31611,16.380068113801727,48.661367328720424,AT,AT12,AT125,31611,Gaubitsch,880,22.45081662,2020,AT_31611,official,TRUE
AT_31612,16.59291999108822,48.48872518085879,AT,AT12,AT125,31612,Gaweinstal,4011,51.69323923,2020,AT_31612,official,TRUE
AT_31613,16.378770288128727,48.614330232012215,AT,AT12,AT125,31613,Gnadendorf,1147,47.72606852,2020,AT_31613,official,TRUE
AT_31614,16.462882084843216,48.36544584216312,AT,AT12,AT126,31614,Großebersdorf,2218,18.22497865,2020,AT_31614,official,TRUE
AT_31615,16.572191194181194,48.3568452181606,AT,AT12,AT126,31615,Großengersdorf,1497,15.50442731,2020,AT_31615,official,TRUE
AT_31616,16.240994074260232,48.676247410940235,AT,AT12,AT125,31616,Großharras,1112,42.45160633,2020,AT_31616,official,TRUE
AT_31617,16.723515421831753,48.644526963342855,AT,AT12,AT125,31617,Großkrut,1619,38.01510425,2020,AT_31617,official,TRUE
AT_31620,16.82689073017225,48.62823222615395,AT,AT12,AT125,31620,Hausbrunn,865,16.09101128,2020,AT_31620,official,TRUE
AT_31621,16.683805332317466,48.69497771385461,AT,AT12,AT125,31621,Herrnbaumgarten,948,16.52415109,2020,AT_31621,official,TRUE
AT_31622,16.527617903802746,48.4482984129969,AT,AT12,AT126,31622,Hochleithen,1144,19.90188755,2020,AT_31622,official,TRUE
AT_31627,16.47595521454394,48.440638114011534,AT,AT12,AT126,31627,Kreuttal,1470,21.60533345,2020,AT_31627,official,TRUE
AT_31628,16.473661387786166,48.480730706748574,AT,AT12,AT126,31628,Kreuzstetten,1535,24.17574559,2020,AT_31628,official,TRUE
AT_31629,16.390821228088804,48.721230032305044,AT,AT12,AT125,31629,Laa an der Thaya,6241,72.94572221,2020,AT_31629,official,TRUE
AT_31630,16.49127180788018,48.530657680629815,AT,AT12,AT125,31630,Ladendorf,2304,50.13972958,2020,AT_31630,official,TRUE
AT_31633,16.570973378562847,48.572091731272565,AT,AT12,AT125,31633,Mistelbach,11583,131.46401945,2020,AT_31633,official,TRUE
AT_31634,16.49534608884231,48.72039103842628,AT,AT12,AT125,31634,Neudorf im Weinviertel,1397,40.18947532,2020,AT_31634,official,TRUE
AT_31636,16.393672397054974,48.55128037404803,AT,AT12,AT125,31636,Niederleis,891,19.0521932,2020,AT_31636,official,TRUE
AT_31642,16.54266482248555,48.362280644510506,AT,AT12,AT126,31642,Pillichsdorf,1166,14.50326603,2020,AT_31642,official,TRUE
AT_31644,16.62229802954394,48.668056803540594,AT,AT12,AT125,31644,Poysdorf,5483,97.30913662,2020,AT_31644,official,TRUE
AT_31645,16.897067707836214,48.65034734771157,AT,AT12,AT125,31645,Rabensburg,1096,20.23062244,2020,AT_31645,official,TRUE
AT_31646,16.71824564357176,48.72644319835898,AT,AT12,AT125,31646,Schrattenberg,821,19.12088951,2020,AT_31646,official,TRUE
AT_31649,16.491072807391763,48.67177839790373,AT,AT12,AT125,31649,Staatz,1911,42.68445484,2020,AT_31649,official,TRUE
AT_31650,16.298085466792934,48.64539505592051,AT,AT12,AT125,31650,Stronsdorf,1618,47.81998304,2020,AT_31650,official,TRUE
AT_31651,16.49295181415436,48.4084694392643,AT,AT12,AT126,31651,Ulrichskirchen-Schleinbach,2621,26.53040985,2020,AT_31651,official,TRUE
AT_31652,16.34579927416368,48.667857013553515,AT,AT12,AT125,31652,Unterstinkenbrunn,558,9.42607119,2020,AT_31652,official,TRUE
AT_31653,16.507712772752637,48.75842647266898,AT,AT12,AT125,31653,Wildendürnbach,1568,53.63600601,2020,AT_31653,official,TRUE
AT_31654,16.644795052094853,48.586408965486996,AT,AT12,AT125,31654,Wilfersdorf,2123,30.42453221,2020,AT_31654,official,TRUE
AT_31655,16.517721438285093,48.38194702080017,AT,AT12,AT126,31655,Wolkersdorf im Weinviertel,7299,44.19820934,2020,AT_31655,official,TRUE
AT_31658,16.58312686824614,48.756162837528834,AT,AT12,AT125,31658,Ottenthal,533,15.40347267,2020,AT_31658,official,TRUE
AT_31701,16.380769699647395,48.08056384380118,AT,AT12,AT127,31701,Achau,1433,11.97340994,2020,AT_31701,official,TRUE
AT_31702,16.347029879620504,48.083240912582724,AT,AT12,AT127,31702,Biedermannsdorf,3119,8.97728621,2020,AT_31702,official,TRUE
AT_31703,16.18471957309469,48.134081244728634,AT,AT12,AT127,31703,Breitenfurt bei Wien,5894,27.19478985,2020,AT_31703,official,TRUE
AT_31704,16.289786022636367,48.10837901557008,AT,AT12,AT127,31704,Brunn am Gebirge,11975,7.28129828,2020,AT_31704,official,TRUE
AT_31706,16.205940454038952,48.05489892608456,AT,AT12,AT127,31706,Gaaden,1648,24.507677,2020,AT_31706,official,TRUE
AT_31707,16.241706951494603,48.09630190844808,AT,AT12,AT127,31707,Gießhübl,2378,3.88113068,2020,AT_31707,official,TRUE
AT_31709,16.287418303080248,48.039995941161635,AT,AT12,AT127,31709,Gumpoldskirchen,3910,7.82877341,2020,AT_31709,official,TRUE
AT_31710,16.316647382147828,48.05431836533855,AT,AT12,AT127,31710,Guntramsdorf,9227,14.61153386,2020,AT_31710,official,TRUE
AT_31711,16.362578717972724,48.11276898703578,AT,AT12,AT127,31711,Hennersdorf,1547,5.42829831,2020,AT_31711,official,TRUE
AT_31712,16.24718048544663,48.08730884121341,AT,AT12,AT127,31712,Hinterbrühl,3952,16.91457353,2020,AT_31712,official,TRUE
AT_31713,16.198703980707272,48.11577482771737,AT,AT12,AT127,31713,Kaltenleutgeben,3337,17.50125697,2020,AT_31713,official,TRUE
AT_31714,16.180086294516816,48.15418592243418,AT,AT12,AT127,31714,Laab im Walde,1111,7.30123711,2020,AT_31714,official,TRUE
AT_31715,16.353719200033293,48.06868862034173,AT,AT12,AT127,31715,Laxenburg,2882,10.57105879,2020,AT_31715,official,TRUE
AT_31716,16.292961453460684,48.09440790704086,AT,AT12,AT127,31716,Maria Enzersdorf,8624,5.36111114,2020,AT_31716,official,TRUE
AT_31717,16.29432735642589,48.081342109798406,AT,AT12,AT127,31717,Mödling,20564,9.98916772,2020,AT_31717,official,TRUE
AT_31718,16.381791331960095,48.032356651584536,AT,AT12,AT127,31718,Münchendorf,2955,19.67261919,2020,AT_31718,official,TRUE
AT_31719,16.271497936843545,48.12532505980058,AT,AT12,AT127,31719,Perchtoldsdorf,14996,12.38398904,2020,AT_31719,official,TRUE
AT_31723,16.336530271288854,48.12122422052673,AT,AT12,AT127,31723,Vösendorf,7329,10.66247138,2020,AT_31723,official,TRUE
AT_31725,16.31241993759541,48.08436344209885,AT,AT12,AT127,31725,Wiener Neudorf,9354,6.02078313,2020,AT_31725,official,TRUE
AT_31726,16.13710358807049,48.093502302994665,AT,AT12,AT127,31726,Wienerwald,2880,48.08889415,2020,AT_31726,official,TRUE
AT_31801,16.013470845374183,47.65793276223274,AT,AT12,AT122,31801,Altendorf,350,7.23452317,2020,AT_31801,official,TRUE
AT_31802,16.09492964035614,47.5591722283131,AT,AT12,AT122,31802,Aspang-Markt,1779,5.174398,2020,AT_31802,official,TRUE
AT_31803,16.077275506935727,47.5573014737812,AT,AT12,AT122,31803,Aspangberg-St. Peter,1855,81.01442747,2020,AT_31803,official,TRUE
AT_31804,16.14057641378213,47.73415937833735,AT,AT12,AT122,31804,Breitenau,1574,9.69559636,2020,AT_31804,official,TRUE
AT_31805,15.857921207284752,47.65738275368592,AT,AT12,AT122,31805,Breitenstein,316,20.42959272,2020,AT_31805,official,TRUE
AT_31806,15.980436982111232,47.693869345245716,AT,AT12,AT122,31806,Buchbach,356,3.06023579,2020,AT_31806,official,TRUE
AT_31807,16.14049499253666,47.59955556262777,AT,AT12,AT122,31807,Edlitz,894,14.32264044,2020,AT_31807,official,TRUE
AT_31808,15.949227080797405,47.66816592608817,AT,AT12,AT122,31808,Enzenreith,1990,9.25197487,2020,AT_31808,official,TRUE
AT_31809,16.050639463086945,47.60182118900043,AT,AT12,AT122,31809,Feistritz am Wechsel,1033,24.05098683,2020,AT_31809,official,TRUE
AT_31810,15.940306750158793,47.67332876891322,AT,AT12,AT122,31810,Gloggnitz,5912,19.56053092,2020,AT_31810,official,TRUE
AT_31811,16.01496177600298,47.68975273316198,AT,AT12,AT122,31811,Grafenbach-St. Valentin,2211,14.03573173,2020,AT_31811,official,TRUE
AT_31812,16.10951744713863,47.617475746887344,AT,AT12,AT122,31812,Grimmenstein,1313,14.85417183,2020,AT_31812,official,TRUE
AT_31813,15.98345377567306,47.79817442366919,AT,AT12,AT122,31813,Grünbach am Schneeberg,1579,7.41683226,2020,AT_31813,official,TRUE
AT_31814,15.989930075698984,47.608310209445904,AT,AT12,AT122,31814,Kirchberg am Wechsel,2508,51.36333971,2020,AT_31814,official,TRUE
AT_31815,16.03834472389015,47.511837575560286,AT,AT12,AT122,31815,Mönichkirchen,618,16.19626808,2020,AT_31815,official,TRUE
AT_31817,16.102873801949862,47.71542146032586,AT,AT12,AT122,31817,Natschbach-Loipersbach,1697,10.67694155,2020,AT_31817,official,TRUE
AT_31818,16.083710566799216,47.72716768925944,AT,AT12,AT122,31818,Neunkirchen,12721,20.30631805,2020,AT_31818,official,TRUE
AT_31820,15.942524892929724,47.624315511369474,AT,AT12,AT122,31820,Otterthal,586,6.24861309,2020,AT_31820,official,TRUE
AT_31821,15.87203327030271,47.691285823490816,AT,AT12,AT122,31821,Payerbach,2060,17.70490152,2020,AT_31821,official,TRUE
AT_31823,16.18001112213934,47.714223326693244,AT,AT12,AT122,31823,Pitten,2870,13.64977064,2020,AT_31823,official,TRUE
AT_31825,15.933912122300455,47.68809479857396,AT,AT12,AT122,31825,Prigglitz,436,17.99895101,2020,AT_31825,official,TRUE
AT_31826,15.909345365817968,47.788857393825815,AT,AT12,AT122,31826,Puchberg am Schneeberg,2694,83.51108109,2020,AT_31826,official,TRUE
AT_31827,15.937244164665877,47.64661414169018,AT,AT12,AT122,31827,Raach am Hochgebirge,304,13.25285466,2020,AT_31827,official,TRUE
AT_31829,15.83353187407417,47.69621846341522,AT,AT12,AT122,31829,Reichenau an der Rax,2515,88.99680619,2020,AT_31829,official,TRUE
AT_31830,16.010954854238214,47.58302969196504,AT,AT12,AT122,31830,St. Corona am Wechsel,392,8.69908868,2020,AT_31830,official,TRUE
AT_31831,16.10725432895648,47.78226618161706,AT,AT12,AT122,31831,St. Egyden am Steinfeld,2065,27.5682634,2020,AT_31831,official,TRUE
AT_31832,16.13804799392345,47.66479737957187,AT,AT12,AT122,31832,Scheiblingkirchen-Thernberg,1902,37.64976458,2020,AT_31832,official,TRUE
AT_31833,15.868134181443885,47.64814551866258,AT,AT12,AT122,31833,Schottwien,676,12.3976797,2020,AT_31833,official,TRUE
AT_31834,15.991872245090702,47.78963795964791,AT,AT12,AT122,31834,Schrattenbach,384,10.89324287,2020,AT_31834,official,TRUE
AT_31835,16.17548300276466,47.73197236206486,AT,AT12,AT122,31835,Schwarzau am Steinfeld,2017,9.7768555,2020,AT_31835,official,TRUE
AT_31836,15.709099206546673,47.80173957029173,AT,AT12,AT122,31836,Schwarzau im Gebirge,608,191.9410958,2020,AT_31836,official,TRUE
AT_31837,16.15341290230167,47.70083796281501,AT,AT12,AT122,31837,Seebenstein,1438,9.18114671,2020,AT_31837,official,TRUE
AT_31838,15.829061348328658,47.644730729909554,AT,AT12,AT122,31838,Semmering,518,8.79363583,2020,AT_31838,official,TRUE
AT_31839,16.024622882619884,47.71128895516991,AT,AT12,AT122,31839,Ternitz,14660,65.42862382,2020,AT_31839,official,TRUE
AT_31840,16.134684334922337,47.596200841232154,AT,AT12,AT122,31840,Thomasberg,1262,28.91430305,2020,AT_31840,official,TRUE
AT_31841,15.893272457128981,47.60461450292393,AT,AT12,AT122,31841,Trattenbach,536,30.49399277,2020,AT_31841,official,TRUE
AT_31842,15.960572547749731,47.7163018570032,AT,AT12,AT122,31842,Bürg-Vöstenhof,165,25.09830129,2020,AT_31842,official,TRUE
AT_31843,16.113648914829866,47.648690382129466,AT,AT12,AT122,31843,Warth,1497,30.13310334,2020,AT_31843,official,TRUE
AT_31844,16.076142820177612,47.69117108640947,AT,AT12,AT122,31844,Wartmannstetten,1623,21.62276707,2020,AT_31844,official,TRUE
AT_31845,16.05722367785251,47.79129589108077,AT,AT12,AT122,31845,Willendorf,960,7.46026397,2020,AT_31845,official,TRUE
AT_31846,16.02885384018024,47.701817014637015,AT,AT12,AT122,31846,Wimpassing im Schwarzatale,1605,2.11545578,2020,AT_31846,official,TRUE
AT_31847,16.054381110801064,47.77079328793784,AT,AT12,AT122,31847,Würflach,1586,12.22173356,2020,AT_31847,official,TRUE
AT_31848,16.130065208941367,47.514057925698,AT,AT12,AT122,31848,Zöbern,1407,31.9447281,2020,AT_31848,official,TRUE
AT_31849,16.0312186397946,47.79778368726661,AT,AT12,AT122,31849,Höflein an der Hohen Wand,871,9.10804469,2020,AT_31849,official,TRUE
AT_31901,15.93018984421975,48.153287855807264,AT,AT12,AT123,31901,Altlengbach,3025,35.76199234,2020,AT_31901,official,TRUE
AT_31902,15.92995457466874,48.244166983599456,AT,AT12,AT123,31902,Asperhofen,2236,28.94262681,2020,AT_31902,official,TRUE
AT_31903,15.762887365332718,48.19669104822344,AT,AT12,AT123,31903,Böheimkirchen,5096,45.29797646,2020,AT_31903,official,TRUE
AT_31904,15.873100028887494,48.10325126065829,AT,AT12,AT123,31904,Brand-Laaben,1236,34.28144078,2020,AT_31904,official,TRUE
AT_31905,15.980457593539517,48.171986184822,AT,AT12,AT123,31905,Eichgraben,4652,9.00034432,2020,AT_31905,official,TRUE
AT_31906,15.324033611687035,47.98010920923363,AT,AT12,AT123,31906,Frankenfels,1941,56.17027599,2020,AT_31906,official,TRUE
AT_31907,15.552576886772037,48.19780968435651,AT,AT12,AT123,31907,Gerersdorf,985,13.61647027,2020,AT_31907,official,TRUE
AT_31909,15.511962297268328,48.09884206166208,AT,AT12,AT123,31909,Hofstetten-Grünau,2684,36.30307971,2020,AT_31909,official,TRUE
AT_31910,15.492325015153668,48.21664370696855,AT,AT12,AT123,31910,Hafnerbach,1663,29.17752842,2020,AT_31910,official,TRUE
AT_31911,15.457213118531618,48.19360114788074,AT,AT12,AT123,31911,Haunoldstein,1226,9.93468525,2020,AT_31911,official,TRUE
AT_31912,15.697416002404221,48.28143262621458,AT,AT12,AT123,31912,Herzogenburg,7844,46.10017195,2020,AT_31912,official,TRUE
AT_31913,15.685095042115087,48.31801543822273,AT,AT12,AT123,31913,Inzersdorf-Getzersdorf,1617,13.61434934,2020,AT_31913,official,TRUE
AT_31915,15.76270056068674,48.257085542257286,AT,AT12,AT123,31915,Kapelln,1390,20.17839952,2020,AT_31915,official,TRUE
AT_31916,15.560442550875948,48.25910043896007,AT,AT12,AT123,31916,Karlstetten,2175,28.37768782,2020,AT_31916,official,TRUE
AT_31917,15.777521755716787,48.15627198120676,AT,AT12,AT123,31917,Kasten bei Böheimkirchen,1410,20.50644192,2020,AT_31917,official,TRUE
AT_31918,15.426897229083776,48.02356007166977,AT,AT12,AT123,31918,Kirchberg an der Pielach,3207,64.00455845,2020,AT_31918,official,TRUE
AT_31919,15.815865270086217,48.19122821693787,AT,AT12,AT123,31919,Kirchstetten,2210,17.71177786,2020,AT_31919,official,TRUE
AT_31920,15.399992434125712,47.994644744991426,AT,AT12,AT123,31920,Loich,594,24.61811529,2020,AT_31920,official,TRUE
AT_31921,15.931192082586199,48.19338478742013,AT,AT12,AT123,31921,Maria-Anzbach,3064,18.12840234,2020,AT_31921,official,TRUE
AT_31922,15.497475626802505,48.19025510912109,AT,AT12,AT123,31922,Markersdorf-Haindorf,2090,16.67792863,2020,AT_31922,official,TRUE
AT_31923,15.758735969007645,48.098937893166436,AT,AT12,AT123,31923,Michelbach,893,25.3487154,2020,AT_31923,official,TRUE
AT_31925,15.552897801153758,48.238005810833634,AT,AT12,AT123,31925,Neidling,1472,18.66844197,2020,AT_31925,official,TRUE
AT_31926,15.897790880618755,48.1961442798193,AT,AT12,AT123,31926,Neulengbach,8304,51.71027784,2020,AT_31926,official,TRUE
AT_31927,15.907805407799135,48.13486309287413,AT,AT12,AT123,31927,Neustift-Innermanzing,1588,14.90688364,2020,AT_31927,official,TRUE
AT_31928,15.699499677328149,48.34793012424963,AT,AT12,AT123,31928,Nußdorf ob der Traisen,1786,15.3847192,2020,AT_31928,official,TRUE
AT_31929,15.546457736353267,48.150375130538876,AT,AT12,AT123,31929,Ober-Grafendorf,4593,24.54613579,2020,AT_31929,official,TRUE
AT_31930,15.613166793957065,48.275977330026336,AT,AT12,AT123,31930,Obritzberg-Rust,2321,41.51325662,2020,AT_31930,official,TRUE
AT_31932,15.520034353891733,48.20050259235243,AT,AT12,AT123,31932,Prinzersdorf,1592,4.08512496,2020,AT_31932,official,TRUE
AT_31934,15.68235319303315,48.15804710874778,AT,AT12,AT123,31934,Pyhra,3566,66.6716703,2020,AT_31934,official,TRUE
AT_31935,15.469617287993728,48.063473611408945,AT,AT12,AT123,31935,Rabenstein an der Pielach,2537,36.2166018,2020,AT_31935,official,TRUE
AT_31938,15.494239727247887,48.1574778267783,AT,AT12,AT123,31938,St. Margarethen an der Sierning,1007,14.60754722,2020,AT_31938,official,TRUE
AT_31939,15.376144738506271,47.94565882466529,AT,AT12,AT123,31939,Schwarzenbach an der Pielach,380,45.75078718,2020,AT_31939,official,TRUE
AT_31940,15.638351287416775,48.313163448081525,AT,AT12,AT123,31940,Statzendorf,1443,12.38103608,2020,AT_31940,official,TRUE
AT_31941,15.812679978995108,48.123396022122726,AT,AT12,AT123,31941,Stössing,841,27.60556929,2020,AT_31941,official,TRUE
AT_31943,15.747776433103462,48.350060071615474,AT,AT12,AT123,31943,Traismauer,6330,43.51547535,2020,AT_31943,official,TRUE
AT_31945,15.534685031774332,48.11595360639312,AT,AT12,AT123,31945,Weinburg,1395,10.34091913,2020,AT_31945,official,TRUE
AT_31946,15.81357324028225,48.26220700766296,AT,AT12,AT123,31946,Perschling,1411,23.91156772,2020,AT_31946,official,TRUE
AT_31947,15.602242442147709,48.09959701226563,AT,AT12,AT123,31947,Wilhelmsburg,6492,46.45026039,2020,AT_31947,official,TRUE
AT_31948,15.586831685591033,48.317585283033935,AT,AT12,AT123,31948,Wölbling,2553,32.19864277,2020,AT_31948,official,TRUE
AT_31949,16.151414084457407,48.227492297101676,AT,AT12,AT126,31949,Gablitz,5025,17.973234,2020,AT_31949,official,TRUE
AT_31950,16.17824768056806,48.24143699773698,AT,AT12,AT126,31950,Mauerbach,3642,20.4643979,2020,AT_31950,official,TRUE
AT_31951,16.07001751148256,48.178329212925725,AT,AT12,AT126,31951,Pressbaum,7754,58.34202547,2020,AT_31951,official,TRUE
AT_31952,16.17787670976037,48.206806607269954,AT,AT12,AT126,31952,Purkersdorf,9818,30.29820914,2020,AT_31952,official,TRUE
AT_31953,16.095573610805182,48.188403436198136,AT,AT12,AT126,31953,Tullnerbach,2905,20.71717982,2020,AT_31953,official,TRUE
AT_31954,16.12148717963478,48.162068918525264,AT,AT12,AT126,31954,Wolfsgraben,1736,17.45177118,2020,AT_31954,official,TRUE
AT_32001,15.094486033961035,47.92254429991679,AT,AT12,AT121,32001,Gaming,3021,244.79264184,2020,AT_32001,official,TRUE
AT_32002,14.931719993903858,47.80143807998768,AT,AT12,AT121,32002,Göstling an der Ybbs,2025,144.24518083,2020,AT_32002,official,TRUE
AT_32003,15.024526509286671,47.97994912338033,AT,AT12,AT121,32003,Gresten,1986,3.90257209,2020,AT_32003,official,TRUE
AT_32004,15.034201513474358,47.978030010915255,AT,AT12,AT121,32004,Gresten-Land,1488,55.47256045,2020,AT_32004,official,TRUE
AT_32005,15.030529428471045,47.86105431856418,AT,AT12,AT121,32005,Lunz am See,1780,101.7578031,2020,AT_32005,official,TRUE
AT_32006,15.216453532217995,48.066289126891846,AT,AT12,AT121,32006,Oberndorf an der Melk,2954,43.20427496,2020,AT_32006,official,TRUE
AT_32007,15.283392556582635,47.927833133296154,AT,AT12,AT121,32007,Puchenstuben,289,41.59769243,2020,AT_32007,official,TRUE
AT_32008,15.133450578511601,48.05816591120033,AT,AT12,AT121,32008,Purgstall an der Erlauf,5372,55.96517772,2020,AT_32008,official,TRUE
AT_32009,14.96949711225873,48.01440936991513,AT,AT12,AT121,32009,Randegg,1877,51.66922956,2020,AT_32009,official,TRUE
AT_32010,15.066472451915613,47.99050270196582,AT,AT12,AT121,32010,Reinsberg,1046,29.52031692,2020,AT_32010,official,TRUE
AT_32011,15.209222436330974,47.9631849243525,AT,AT12,AT121,32011,St. Anton an der Jeßnitz,1179,69.38815945,2020,AT_32011,official,TRUE
AT_32012,15.224997652987415,48.03110752559161,AT,AT12,AT121,32012,St. Georgen an der Leys,1330,23.88515179,2020,AT_32012,official,TRUE
AT_32013,15.167604936375588,48.00664380258111,AT,AT12,AT121,32013,Scheibbs,4132,46.08329944,2020,AT_32013,official,TRUE
AT_32014,15.046406565152562,48.06875284122307,AT,AT12,AT121,32014,Steinakirchen am Forst,2243,34.70304427,2020,AT_32014,official,TRUE
AT_32015,15.022615658892784,48.04756134785367,AT,AT12,AT121,32015,Wang,1369,19.56634528,2020,AT_32015,official,TRUE
AT_32016,15.14129041248929,48.13346772677791,AT,AT12,AT121,32016,Wieselburg,4252,5.54710267,2020,AT_32016,official,TRUE
AT_32017,15.127255332620182,48.11977376632037,AT,AT12,AT121,32017,Wieselburg-Land,3428,33.84061271,2020,AT_32017,official,TRUE
AT_32018,15.079789692172213,48.08235050293018,AT,AT12,AT121,32018,Wolfpassing,1643,20.33151935,2020,AT_32018,official,TRUE
AT_32101,15.980881440727936,48.3992193922292,AT,AT12,AT126,32101,Absdorf,2150,15.99560542,2020,AT_32101,official,TRUE
AT_32104,15.89173833294614,48.30197204336499,AT,AT12,AT126,32104,Atzenbrugg,3109,26.00083293,2020,AT_32104,official,TRUE
AT_32106,15.820149239244635,48.4398781108494,AT,AT12,AT126,32106,Fels am Wagram,2365,29.52900562,2020,AT_32106,official,TRUE
AT_32107,15.781215256386886,48.417105123154286,AT,AT12,AT126,32107,Grafenwörth,3171,45.18953114,2020,AT_32107,official,TRUE
AT_32109,15.878457802481634,48.48127631044272,AT,AT12,AT126,32109,Großriedenthal,916,18.79662003,2020,AT_32109,official,TRUE
AT_32110,15.977866313518325,48.47005509889317,AT,AT12,AT126,32110,Großweikersdorf,3187,43.43762652,2020,AT_32110,official,TRUE
AT_32112,16.028691589193528,48.2833598913267,AT,AT12,AT126,32112,Judenau-Baumgarten,2288,14.38207642,2020,AT_32112,official,TRUE
AT_32114,15.894943946709748,48.428605960336334,AT,AT12,AT126,32114,Kirchberg am Wagram,3710,60.25220228,2020,AT_32114,official,TRUE
AT_32115,15.940336083130461,48.40675166510782,AT,AT12,AT126,32115,Königsbrunn am Wagram,1382,28.67688563,2020,AT_32115,official,TRUE
AT_32116,16.14706133383236,48.300323299137084,AT,AT12,AT126,32116,Königstetten,2526,13.13357759,2020,AT_32116,official,TRUE
AT_32119,16.008906324238062,48.309104133656476,AT,AT12,AT126,32119,Langenrohr,2435,22.56527948,2020,AT_32119,official,TRUE
AT_32120,15.939172973008416,48.29069250941614,AT,AT12,AT126,32120,Michelhausen,3494,32.0568981,2020,AT_32120,official,TRUE
AT_32131,16.0278781179922,48.25314064709228,AT,AT12,AT126,32131,Sieghartskirchen,7526,61.53787848,2020,AT_32131,official,TRUE
AT_32132,15.810997146873682,48.32000097932805,AT,AT12,AT126,32132,Sitzenberg-Reidling,2240,22.0783345,2020,AT_32132,official,TRUE
AT_32134,16.111444012820947,48.28205728271134,AT,AT12,AT126,32134,Tulbing,2985,18.34756361,2020,AT_32134,official,TRUE
AT_32135,16.062401074825274,48.32482071182975,AT,AT12,AT126,32135,Tulln an der Donau,16230,72.45895437,2020,AT_32135,official,TRUE
AT_32139,15.859866801276352,48.2544847680727,AT,AT12,AT126,32139,Würmla,1484,20.32371237,2020,AT_32139,official,TRUE
AT_32140,16.175415078043454,48.32273008173903,AT,AT12,AT126,32140,Zeiselmauer-Wolfpassing,2299,12.5405871,2020,AT_32140,official,TRUE
AT_32141,15.913712705045903,48.34003691195749,AT,AT12,AT126,32141,Zwentendorf an der Donau,4097,53.91587043,2020,AT_32141,official,TRUE
AT_32142,16.210890036870097,48.329218471436505,AT,AT12,AT126,32142,Sankt Andrä-Wördern,7836,40.07737085,2020,AT_32142,official,TRUE
AT_32143,16.14882542687966,48.327740028827556,AT,AT12,AT126,32143,Muckendorf-Wipfing,1663,6.32051719,2020,AT_32143,official,TRUE
