gisco_id,longitude,latitude,country,nuts_2,nuts_3,lau_id,lau_name,population,area_km2,year,fid,pop_weighted
CY_1000,33.37201723379971,35.17203468455585,CY,CY00,CY000,1000,Λευκωσία,55014,50.25372758,2020,CY_1000,TRUE
CY_1010,33.33154449671958,35.17403091961405,CY,CY00,CY000,1010,Άγιος Δομέτιος,12456,12.08109332,2020,CY_1010,TRUE
CY_1011,33.317479366364694,35.15591465795265,CY,CY00,CY000,1011,Έγκωμη Λευκωσίας,18010,9.49047011,2020,CY_1011,TRUE
CY_1012,33.34693843112344,35.13832713497223,CY,CY00,CY000,1012,Στρόβολος,67904,25.2986013,2020,CY_1012,TRUE
CY_1013,33.393293617082925,35.15264385367254,CY,CY00,CY000,1013,Αγλαντζιά ή Αγλαγγιά,20783,31.61156723,2020,CY_1013,TRUE
CY_1014,33.33322481699305,35.20742265986491,CY,CY00,CY000,1014,Ορτάκιοϊ (Μιντζέλι),0,7.56384279,2020,CY_1014,FALSE
CY_1015,33.350936169577245,35.209294768046675,CY,CY00,CY000,1015,Τράχωνας,0,6.21237577,2020,CY_1015,FALSE
CY_1021,33.304868118190015,35.11733914122763,CY,CY00,CY000,1021,Λακατάμεια,38345,27.43791748,2020,CY_1021,TRUE
CY_1022,33.290417112395566,35.105580432313204,CY,CY00,CY000,1022,Συνοικισμός Ανθούπολης,1756,0.44192721,2020,CY_1022,TRUE
CY_1023,33.381110346845524,35.1059475280771,CY,CY00,CY000,1023,Λατσιά ή Λακκιά,16774,16.55660914,2020,CY_1023,TRUE
CY_1024,33.412113240016936,35.106059056641655,CY,CY00,CY000,1024,Γέρι,8235,32.97320582,2020,CY_1024,TRUE
CY_1100,33.39237024090786,34.951919319101336,CY,CY00,CY000,1100,Σιά,754,17.34662756,2020,CY_1100,TRUE
CY_1101,33.33299039733869,34.96413435371726,CY,CY00,CY000,1101,Μαθιάτης,646,21.34473145,2020,CY_1101,TRUE
CY_1102,33.39969693612093,34.99252903170454,CY,CY00,CY000,1102,Αλάμπρα,1585,16.52483687,2020,CY_1102,TRUE
CY_1103,33.36924834887,34.995002112426164,CY,CY00,CY000,1103,Αγία Βαρβάρα Λευκωσίας,2204,24.19422155,2020,CY_1103,TRUE
CY_1104,33.34827459128528,35.01091888876201,CY,CY00,CY000,1104,Κοτσιάτης,160,5.05320411,2020,CY_1104,TRUE
CY_1105,33.39698400788578,35.01714749822888,CY,CY00,CY000,1105,Νήσου,2179,9.57346288,2020,CY_1105,TRUE
CY_1106,33.39407217623499,35.01377177043033,CY,CY00,CY000,1106,Πέρα Χωριό,2637,8.67937979,2020,CY_1106,TRUE
CY_1107,33.40774542882195,35.04440387999472,CY,CY00,CY000,1107,Δάλι,10466,31.02362685,2020,CY_1107,TRUE
CY_1108,33.46148330286771,34.99836568760266,CY,CY00,CY000,1108,Λύμπια,2694,23.93532329,2020,CY_1108,TRUE
CY_1109,33.294734074500425,34.9498958889441,CY,CY00,CY000,1109,Λυθροδόντας,3043,42.00999832,2020,CY_1109,TRUE
CY_1110,33.4602344057069,35.003327716065655,CY,CY00,CY000,1110,Λουρουκίνα,11,28.63046305,2020,CY_1110,TRUE
CY_1120,33.44525586608388,35.04038280897568,CY,CY00,CY000,1120,Ποταμιά,505,10.91366889,2020,CY_1120,TRUE
CY_1121,33.42785593810471,35.07649665087722,CY,CY00,CY000,1121,'Αγιος Σωζόμενος,11,10.69612976,2020,CY_1121,TRUE
CY_1122,33.48123063144669,35.0810253625397,CY,CY00,CY000,1122,Πυρόγι,0,9.08016958,2020,CY_1122,FALSE
CY_1123,33.46144843061321,35.111150923888864,CY,CY00,CY000,1123,Μαργό,0,17.211978,2020,CY_1123,TRUE
CY_1124,33.56547792874188,35.111401222702355,CY,CY00,CY000,1124,Αγιά (Aγιά Κεπίρ),0,16.15267386,2020,CY_1124,FALSE
CY_1125,33.509038902833964,35.13610280216545,CY,CY00,CY000,1125,Τύμβου,0,27.66239024,2020,CY_1125,FALSE
CY_1130,33.53828835471521,35.171183081169794,CY,CY00,CY000,1130,Μόρα,0,20.622371,2020,CY_1130,FALSE
CY_1131,33.4126711161562,35.203185997463045,CY,CY00,CY000,1131,Μια Μηλιά,0,17.3356935,2020,CY_1131,TRUE
CY_1132,33.36966941221744,35.226861184220304,CY,CY00,CY000,1132,Μάνδρες Λευκωσίας,0,17.692184,2020,CY_1132,FALSE
CY_1133,33.491062154210724,35.18623716034518,CY,CY00,CY000,1133,Παλαίκυθρο,0,20.36599246,2020,CY_1133,FALSE
CY_1134,33.536552249144236,35.20541623090889,CY,CY00,CY000,1134,'Εξω Μετόχι,0,12.67239684,2020,CY_1134,FALSE
CY_1135,33.521326995817326,35.233152171862685,CY,CY00,CY000,1135,Επιχό,0,12.47781245,2020,CY_1135,FALSE
CY_1136,33.50362296973026,35.217700723739675,CY,CY00,CY000,1136,Βώνη,0,4.66781836,2020,CY_1136,FALSE
CY_1137,33.479080108197124,35.21557469498543,CY,CY00,CY000,1137,Τραχώνι Λευκωσίας,0,2.79527627,2020,CY_1137,FALSE
CY_1138,33.457590800001256,35.2201279251454,CY,CY00,CY000,1138,Νέο Χωριό Λευκωσίας,0,17.47544097,2020,CY_1138,FALSE
CY_1139,33.480213552493375,35.26008317871027,CY,CY00,CY000,1139,Κυθρέα,0,31.81257288,2020,CY_1139,FALSE
CY_1141,33.507133068764176,35.246034526700555,CY,CY00,CY000,1141,Μπέϊκιοϊ,0,2.24780314,2020,CY_1141,FALSE
CY_1142,33.55119248394459,35.23856447984896,CY,CY00,CY000,1142,Πέτρα του Διγενή,0,3.9399091,2020,CY_1142,FALSE
CY_1143,33.54168864431461,35.26327176675087,CY,CY00,CY000,1143,Καλυβάκια,0,9.11331399,2020,CY_1143,FALSE
CY_1144,33.55692601608861,35.22469751545247,CY,CY00,CY000,1144,Κουρού Μοναστήρι,0,3.62991004,2020,CY_1144,FALSE
CY_1200,33.133860709350444,34.91344143035127,CY,CY00,CY000,1200,Καμπί,97,5.23393398,2020,CY_1200,TRUE
CY_1201,33.134156711107885,34.91429149932252,CY,CY00,CY000,1201,Φαρμακάς,480,15.35834692,2020,CY_1201,TRUE
CY_1202,33.11592327130233,34.92837943209665,CY,CY00,CY000,1202,Απλίκι,87,3.71996085,2020,CY_1202,TRUE
CY_1203,33.18748899707688,34.938115193424714,CY,CY00,CY000,1203,Λαζανιάς,39,40.90617343,2020,CY_1203,TRUE
CY_1204,33.158748784515076,34.95489779657413,CY,CY00,CY000,1204,Γούρρη,196,16.70556377,2020,CY_1204,TRUE
CY_1205,33.19108490884939,34.9840909320948,CY,CY00,CY000,1205,Φικάρδου,15,6.61215269,2020,CY_1205,TRUE
CY_1206,33.11566618569185,34.99437701032046,CY,CY00,CY000,1206,Άγιος Επιφάνιος Ορεινής,412,17.20034138,2020,CY_1206,TRUE
CY_1207,33.16485259850021,35.00902654656543,CY,CY00,CY000,1207,Καλό Χωριό Ορεινής,734,8.59843283,2020,CY_1207,TRUE
CY_1208,33.184667485566834,35.03488095375098,CY,CY00,CY000,1208,Μαλούντα,490,6.51383271,2020,CY_1208,TRUE
CY_1209,33.17889981454326,35.02077066140482,CY,CY00,CY000,1209,Κλήρου,1847,18.53395734,2020,CY_1209,TRUE
CY_1210,33.199023670048966,35.047930242525986,CY,CY00,CY000,1210,Αρεδιού,1225,12.65634721,2020,CY_1210,TRUE
CY_1211,33.18360088797642,35.06592822256553,CY,CY00,CY000,1211,Άγιος Ιωάννης Μαλούντας,472,14.08086994,2020,CY_1211,TRUE
CY_1212,33.152641746193645,35.0415678265238,CY,CY00,CY000,1212,Αγροκηπιά,509,9.16320376,2020,CY_1212,TRUE
CY_1213,33.128045229887796,35.040548938298606,CY,CY00,CY000,1213,Μιτσερό,860,24.70354217,2020,CY_1213,TRUE
CY_1220,33.25698782819506,34.97646157030131,CY,CY00,CY000,1220,Καπέδες,572,21.03457967,2020,CY_1220,TRUE
CY_1221,33.297198953817784,34.99428245408429,CY,CY00,CY000,1221,Καταλιόντας,24,4.84142018,2020,CY_1221,TRUE
CY_1222,33.289541254098616,35.0058528266284,CY,CY00,CY000,1222,Αναλιόντας,443,10.80128689,2020,CY_1222,TRUE
CY_1223,33.25500697864822,35.0050541745723,CY,CY00,CY000,1223,Καμπιά,475,13.21555728,2020,CY_1223,TRUE
CY_1224,33.327593555631786,35.023050084633816,CY,CY00,CY000,1224,Μαργί,146,9.49507749,2020,CY_1224,TRUE
CY_1225,33.32517481118552,35.074429028657534,CY,CY00,CY000,1225,Τσέρι,7035,27.11855848,2020,CY_1225,TRUE
CY_1226,33.23978086887373,35.02838168729705,CY,CY00,CY000,1226,Πολιτικό,419,18.39921715,2020,CY_1226,TRUE
CY_1227,33.253045002374634,35.03381836093356,CY,CY00,CY000,1227,Πέρα,1372,22.34777925,2020,CY_1227,TRUE
CY_1228,33.2453389292319,35.045443174470954,CY,CY00,CY000,1228,Επισκοπειό,524,4.33116407,2020,CY_1228,TRUE
CY_1229,33.26152365397486,35.06004515141749,CY,CY00,CY000,1229,Ψιμολόφου,1626,8.96673262,2020,CY_1229,TRUE
CY_1230,33.24135230642021,35.05657006668158,CY,CY00,CY000,1230,Εργάτες,1792,11.62063231,2020,CY_1230,TRUE
CY_1231,33.24771177244037,35.07290412377668,CY,CY00,CY000,1231,Ανάγεια,1514,4.0462558,2020,CY_1231,TRUE
CY_1232,33.26877494070061,35.08164833096427,CY,CY00,CY000,1232,Πάνω Δευτερά,2789,18.06816567,2020,CY_1232,TRUE
CY_1233,33.2839931977184,35.09528880283936,CY,CY00,CY000,1233,Κάτω Δευτερά,2054,7.02445837,2020,CY_1233,TRUE
CY_1240,33.21434605346858,35.11620205724458,CY,CY00,CY000,1240,Άγιοι Τριμιθιάς,1529,19.06655275,2020,CY_1240,TRUE
CY_1241,33.19281494824643,35.12608539846226,CY,CY00,CY000,1241,Παλαιομέτοχο,4145,36.16542835,2020,CY_1241,TRUE
CY_1242,33.147252235075044,35.16434275972578,CY,CY00,CY000,1242,Δένεια,373,13.6227728,2020,CY_1242,TRUE
CY_1243,33.20137316296652,35.15234183674366,CY,CY00,CY000,1243,Κοκκινοτριμιθιά,4077,23.80224993,2020,CY_1243,TRUE
CY_1244,33.20486237318515,35.17450342513284,CY,CY00,CY000,1244,Μάμμαρη,1592,19.53899235,2020,CY_1244,TRUE
CY_1245,33.29428556772057,35.163084098566706,CY,CY00,CY000,1245,Γερόλακκος,0,45.61629866,2020,CY_1245,TRUE
CY_1246,33.12625123616754,35.227578059283594,CY,CY00,CY000,1246,Αγία Μαρίνα Σκυλλούρας,0,19.83556519,2020,CY_1246,FALSE
CY_1247,33.16443039019638,35.23562771724521,CY,CY00,CY000,1247,Σκυλλούρα,0,17.83259877,2020,CY_1247,FALSE
CY_1248,33.19181894014295,35.215354789774096,CY,CY00,CY000,1248,Άγιος Βασίλειος,0,14.51262954,2020,CY_1248,FALSE
CY_1249,33.08705267060491,35.24404341713211,CY,CY00,CY000,1249,Δύο Ποταμοί,0,5.18479609,2020,CY_1249,FALSE
CY_1250,33.25589775462008,35.23373167241251,CY,CY00,CY000,1250,Κανλί (Κανλίκιογιου),0,8.01414201,2020,CY_1250,FALSE
CY_1251,33.294883249425844,35.22302556659166,CY,CY00,CY000,1251,Κιόνελι,0,24.36875307,2020,CY_1251,FALSE
CY_1300,33.091811300614864,34.924387162739706,CY,CY00,CY000,1300,Παλαιχώρι Μόρφου,686,16.72372507,2020,CY_1300,TRUE
CY_1301,33.081388172551016,34.928021773921834,CY,CY00,CY000,1301,Ασκάς,170,8.3856617,2020,CY_1301,TRUE
CY_1302,33.038006504540746,34.934075943596376,CY,CY00,CY000,1302,Άλωνα,67,7.59566876,2020,CY_1302,TRUE
CY_1303,33.0633547815101,34.94185951108275,CY,CY00,CY000,1303,Φτερικούδι,90,14.04868216,2020,CY_1303,TRUE
CY_1304,33.0170487158724,34.93972632348645,CY,CY00,CY000,1304,Πολύστυπος,128,2.38861332,2020,CY_1304,TRUE
CY_1305,33.01318764784933,34.964068300250204,CY,CY00,CY000,1305,Λαγουδερά,84,8.06324176,2020,CY_1305,TRUE
CY_1306,33.00297706134643,34.96667611246864,CY,CY00,CY000,1306,Σαράντι,44,9.12425462,2020,CY_1306,TRUE
CY_1307,33.01937057414813,34.946776708545414,CY,CY00,CY000,1307,Λιβάδια Λευκωσίας,18,3.15535641,2020,CY_1307,TRUE
CY_1308,33.03208940939651,34.94986072216987,CY,CY00,CY000,1308,Αληθινού,9,3.11744956,2020,CY_1308,TRUE
CY_1309,33.04283416377871,34.94839615963951,CY,CY00,CY000,1309,Πλατανιστάσα,117,21.05781518,2020,CY_1309,TRUE
CY_1310,33.09576678845778,34.923055421128154,CY,CY00,CY000,1310,Παλαιχώρι Ορεινής,333,18.99599188,2020,CY_1310,TRUE
CY_1320,33.045899528489215,35.02933152447891,CY,CY00,CY000,1320,Ξυλιάτος,138,16.21888178,2020,CY_1320,TRUE
CY_1321,33.0148866002764,35.038642253061575,CY,CY00,CY000,1321,Άγιος Γεώργιος Καυκάλλου,26,21.01790685,2020,CY_1321,TRUE
CY_1322,32.991620358600215,35.07241620357433,CY,CY00,CY000,1322,Νικητάρι,447,33.16588577,2020,CY_1322,TRUE
CY_1323,33.01564407047097,35.076233268245936,CY,CY00,CY000,1323,Βυζακιά,347,7.99433501,2020,CY_1323,TRUE
CY_1324,33.05251740230638,35.047977204786804,CY,CY00,CY000,1324,Αγία Μαρίνα Ξυλιάτου,568,20.6632093,2020,CY_1324,TRUE
CY_1325,33.10424588071868,35.06774727727136,CY,CY00,CY000,1325,Άγιοι Ηλιόφωτοι,60,4.98935994,2020,CY_1325,TRUE
CY_1326,33.0915585798543,35.06299569906411,CY,CY00,CY000,1326,Κάτω Μονή,339,13.25154299,2020,CY_1326,TRUE
CY_1327,33.09283461204129,35.10277294896862,CY,CY00,CY000,1327,Ορούντα,604,19.96901352,2020,CY_1327,TRUE
CY_1328,32.987412492994956,35.094642834612664,CY,CY00,CY000,1328,Πάνω Κουτραφάς,4,4.30148614,2020,CY_1328,TRUE
CY_1329,32.97583668760337,35.100706702392394,CY,CY00,CY000,1329,Κάτω Κουτραφάς,17,23.56521139,2020,CY_1329,TRUE
CY_1330,33.02696110168692,35.10647147559512,CY,CY00,CY000,1330,Ποτάμι,558,10.95216788,2020,CY_1330,TRUE
CY_1340,32.97598762648819,35.2196995490971,CY,CY00,CY000,1340,Μόρφου,0,58.43165391,2020,CY_1340,FALSE
CY_1350,33.01945258813912,35.15811710419562,CY,CY00,CY000,1350,Πάνω Ζώδεια,15,16.25778114,2020,CY_1350,TRUE
CY_1351,32.981513092237485,35.16195510756988,CY,CY00,CY000,1351,Κάτω Ζώδεια,0,23.50347264,2020,CY_1351,FALSE
CY_1352,32.9117366132385,35.174465788504264,CY,CY00,CY000,1352,Καζιβερά,0,6.27923276,2020,CY_1352,FALSE
CY_1353,32.932906776875186,35.17787624774372,CY,CY00,CY000,1353,Πραστιό Λευκωσίας,0,10.39904978,2020,CY_1353,FALSE
CY_1354,32.94605569804998,35.18249451791007,CY,CY00,CY000,1354,Νικήτας,0,4.12101414,2020,CY_1354,FALSE
CY_1355,32.933056670119115,35.22001027166941,CY,CY00,CY000,1355,Συριανοχώρι,0,8.65617956,2020,CY_1355,FALSE
CY_1357,33.03072418209285,35.24165892365076,CY,CY00,CY000,1357,Καλό Χωριό Καπούτη,0,26.56316805,2020,CY_1357,FALSE
CY_1360,33.12995306847859,35.13423898224456,CY,CY00,CY000,1360,Ακάκι,3003,25.63150515,2020,CY_1360,TRUE
CY_1361,33.07907854171478,35.12948368336625,CY,CY00,CY000,1361,Περιστερώνα Λευκωσίας,2226,24.47089562,2020,CY_1361,TRUE
CY_1362,33.03626913723823,35.13786421174634,CY,CY00,CY000,1362,Αστρομερίτης,2307,18.24510908,2020,CY_1362,TRUE
CY_1363,33.10567658723309,35.15076093266461,CY,CY00,CY000,1363,Αυλώνα,0,7.74721149,2020,CY_1363,TRUE
CY_1364,33.05954588188068,35.16972176599852,CY,CY00,CY000,1364,Κατωκοπιά,0,10.24140386,2020,CY_1364,FALSE
CY_1365,33.03508863577855,35.18991986662596,CY,CY00,CY000,1365,Αργάκι,0,10.03714298,2020,CY_1365,FALSE
CY_1366,33.07669275624899,35.18456590356831,CY,CY00,CY000,1366,Μάσαρη,0,3.96627377,2020,CY_1366,FALSE
CY_1367,33.104910399212116,35.19700397346135,CY,CY00,CY000,1367,Φυλλιά,0,18.67685922,2020,CY_1367,FALSE
CY_1368,33.14257868527937,35.11138817466518,CY,CY00,CY000,1368,Μένικο,1023,22.89481275,2020,CY_1368,TRUE
CY_1369,33.069009726825584,35.21549741158299,CY,CY00,CY000,1369,Κυρά,0,16.73199761,2020,CY_1369,FALSE
CY_1400,32.95806625690546,34.968755339216145,CY,CY00,CY000,1400,Σπήλια,123,13.76760112,2020,CY_1400,TRUE
CY_1402,32.97108514036908,34.98436428240995,CY,CY00,CY000,1402,Αγία Ειρήνη Λευκωσίας,27,5.22755327,2020,CY_1402,TRUE
CY_1403,32.97419199315366,34.98339609740622,CY,CY00,CY000,1403,Καννάβια,129,16.88126824,2020,CY_1403,TRUE
CY_1404,32.90683713004045,34.98935542779005,CY,CY00,CY000,1404,Κακοπετριά,1274,32.53383511,2020,CY_1404,TRUE
CY_1405,32.92500820735854,35.044178806650216,CY,CY00,CY000,1405,Άγιος Θεόδωρος Σολέας,49,21.4084321,2020,CY_1405,TRUE
CY_1406,32.897971797733845,34.99418837727376,CY,CY00,CY000,1406,Γαλάτα,581,8.4510499,2020,CY_1406,TRUE
CY_1407,32.90321840944375,35.01080935952544,CY,CY00,CY000,1407,Σιναόρος,228,3.49550514,2020,CY_1407,TRUE
CY_1408,32.88465935307233,35.01529524641106,CY,CY00,CY000,1408,Καλιάνα,200,9.77778032,2020,CY_1408,TRUE
CY_1409,32.89201214843097,35.02359349577544,CY,CY00,CY000,1409,Τεμβριά,498,5.48047486,2020,CY_1409,TRUE
CY_1410,32.89012083073147,35.04164631703437,CY,CY00,CY000,1410,Κοράκου,521,9.62686573,2020,CY_1410,TRUE
CY_1411,32.900927940224406,35.041286139967774,CY,CY00,CY000,1411,Ευρύχου,827,13.75682414,2020,CY_1411,TRUE
CY_1412,32.887783614069455,35.06866489898369,CY,CY00,CY000,1412,Φλάσου,240,4.89788122,2020,CY_1412,TRUE
CY_1414,32.880986396195574,35.0625033379434,CY,CY00,CY000,1414,Άγιος Επιφάνιος Σολέας,0,7.3592645,2020,CY_1414,TRUE
CY_1415,32.88980040814406,35.074544219063775,CY,CY00,CY000,1415,Ληνού,161,5.36020889,2020,CY_1415,TRUE
CY_1416,32.888354447526545,35.08151916218922,CY,CY00,CY000,1416,Κατύδατα,114,6.70675015,2020,CY_1416,TRUE
CY_1417,32.88345126745882,35.09083404830298,CY,CY00,CY000,1417,Σκουριώτισσα (Φουκάσα),11,0.9636985,2020,CY_1417,TRUE
CY_1420,32.83107489188467,34.96353136335336,CY,CY00,CY000,1420,Πεδουλάς,132,10.43550049,2020,CY_1420,TRUE
CY_1421,32.751787032782886,34.96489896424048,CY,CY00,CY000,1421,Μυλικούρι,17,95.37348239,2020,CY_1421,TRUE
CY_1422,32.826113851589064,34.98353383105813,CY,CY00,CY000,1422,Μουτουλλάς,174,8.24047267,2020,CY_1422,TRUE
CY_1423,32.83167753945705,35.00086366161513,CY,CY00,CY000,1423,Οίκος,158,3.68393025,2020,CY_1423,TRUE
CY_1424,32.8285272257306,34.99299710127915,CY,CY00,CY000,1424,Καλοπαναγιώτης,263,33.9686957,2020,CY_1424,TRUE
CY_1425,32.80771552224816,34.99755771819633,CY,CY00,CY000,1425,Γερακιές,75,26.34662585,2020,CY_1425,TRUE
CY_1426,32.744622015352746,34.99006636929187,CY,CY00,CY000,1426,Τσακίστρα,79,31.9538757,2020,CY_1426,TRUE
CY_1427,32.7308006193563,35.04160566675219,CY,CY00,CY000,1427,Κάμπος,271,69.16973772,2020,CY_1427,TRUE
CY_1430,32.870980674698025,35.10015735655305,CY,CY00,CY000,1430,Άγιος Νικόλαος Σολέας,0,2.47945175,2020,CY_1430,FALSE
CY_1431,32.88728582341595,35.11039454640283,CY,CY00,CY000,1431,Άγιος Γεώργιος Σολέας,0,3.06617279,2020,CY_1431,FALSE
CY_1432,32.900295473478,35.09117237727267,CY,CY00,CY000,1432,Πέτρα,0,16.19901813,2020,CY_1432,TRUE
CY_1433,32.871229654638526,35.11814981396193,CY,CY00,CY000,1433,Καλό Χωριό Σολέας,0,4.85414473,2020,CY_1433,FALSE
CY_1435,32.83186752731777,35.09398510726301,CY,CY00,CY000,1435,Λεύκα,0,27.37566085,2020,CY_1435,FALSE
CY_1436,32.80052080653129,35.10296385219648,CY,CY00,CY000,1436,Αμπελικού,0,25.27690162,2020,CY_1436,FALSE
CY_1437,32.86102666195978,35.13979203369357,CY,CY00,CY000,1437,Περιστερωνάρι,0,4.5681165,2020,CY_1437,FALSE
CY_1438,32.92110223665133,35.1431126233924,CY,CY00,CY000,1438,Ελιά Λευκωσίας,0,13.35686731,2020,CY_1438,FALSE
CY_1439,32.82033290134125,35.14066689691104,CY,CY00,CY000,1439,Καραβοστάσι,0,5.07760582,2020,CY_1439,FALSE
CY_1441,32.8847310246732,35.15087384568375,CY,CY00,CY000,1441,Πεντάγεια,0,9.94592915,2020,CY_1441,FALSE
CY_1443,32.94589446607649,35.11739967828861,CY,CY00,CY000,1443,Αγγολέμι,0,9.39624854,2020,CY_1443,FALSE
CY_1450,32.744825213743,35.11343571890457,CY,CY00,CY000,1450,Βαρίσεια,0,12.46596426,2020,CY_1450,FALSE
CY_1451,32.77994798227477,35.13263734333759,CY,CY00,CY000,1451,Γαληνή,0,15.10577539,2020,CY_1451,FALSE
CY_1452,32.72389297191078,35.12870292713675,CY,CY00,CY000,1452,Ξερόβουνος,0,26.92467554,2020,CY_1452,FALSE
CY_1453,32.76001698301773,35.15577676997421,CY,CY00,CY000,1453,Λουτρός,0,8.52147451,2020,CY_1453,FALSE
CY_1454,32.69880387575816,35.139442085498644,CY,CY00,CY000,1454,Άγιος Ιωάννης Σελέμανη,0,3.52923273,2020,CY_1454,FALSE
CY_1455,32.711724580622864,35.1666203550428,CY,CY00,CY000,1455,Αμμαδιές,0,5.49354588,2020,CY_1455,FALSE
CY_1456,32.68395728717877,35.15073207770561,CY,CY00,CY000,1456,Πάνω Πύργος,22,28.30488155,2020,CY_1456,TRUE
CY_1457,32.682879623462995,35.179100177060185,CY,CY00,CY000,1457,Κάτω Πύργος,1036,6.43737841,2020,CY_1457,TRUE
CY_1458,32.619995898429735,35.15276122640376,CY,CY00,CY000,1458,Σελλάδι του 'Αππη (και Άγιο Γεωργούδι),0,4.4174014,2020,CY_1458,FALSE
CY_1459,32.608377333410694,35.15072187384841,CY,CY00,CY000,1459,Αλεύγα,0,2.90015174,2020,CY_1459,FALSE
CY_1460,32.66037952515668,35.17781242643194,CY,CY00,CY000,1460,Πηγένια,107,16.88681393,2020,CY_1460,TRUE
CY_1461,32.59043558735021,35.17325128129649,CY,CY00,CY000,1461,Παχύαμμος,70,4.00490476,2020,CY_1461,TRUE
CY_1464,32.593965035931376,35.17430917843138,CY,CY00,CY000,1464,Κόκκινα,0,5.38307586,2020,CY_1464,TRUE
CY_1465,32.66465794682152,35.07812259758283,CY,CY00,CY000,1465,Φροδίσια (Βροΐσια),0,47.95519057,2020,CY_1465,FALSE
CY_1466,32.63940534402691,35.18357813259076,CY,CY00,CY000,1466,Άγιος Θεόδωρος Τιλλιρίας,0,10.20622505,2020,CY_1466,TRUE
CY_1467,32.628373755130404,35.186260284562444,CY,CY00,CY000,1467,Μανσούρα,9,1.86398111,2020,CY_1467,TRUE
CY_1468,32.627904062596045,35.1833431197189,CY,CY00,CY000,1468,Μοσφίλι,20,1.79499723,2020,CY_1468,TRUE
CY_2000,33.31362070961682,35.32892188222599,CY,CY00,CY000,2000,Κερύνεια,0,10.46912122,2020,CY_2000,FALSE
CY_2100,33.32318801383183,35.282884603521815,CY,CY00,CY000,2100,Πάνω Δίκωμο,0,15.49956327,2020,CY_2100,FALSE
CY_2101,33.315129438269615,35.25767762844769,CY,CY00,CY000,2101,Κάτω Δίκωμο,0,27.96148651,2020,CY_2101,FALSE
CY_2102,33.424477722221866,35.26617354335331,CY,CY00,CY000,2102,Κουτσοβέντης,0,14.22386292,2020,CY_2102,FALSE
CY_2103,33.395237700488074,35.261689527347826,CY,CY00,CY000,2103,Βουνό,0,8.77550131,2020,CY_2103,FALSE
CY_2104,33.375119245534606,35.265863221636074,CY,CY00,CY000,2104,Σιχαρί,0,13.25472193,2020,CY_2104,FALSE
CY_2110,33.2227688170671,35.255451523724375,CY,CY00,CY000,2110,Φότα,0,12.66788467,2020,CY_2110,FALSE
CY_2111,33.247070820365785,35.27682078681685,CY,CY00,CY000,2111,Κρηνί,0,16.06975676,2020,CY_2111,FALSE
CY_2112,33.21226533789177,35.290386907063464,CY,CY00,CY000,2112,Πιλερί,0,10.78396386,2020,CY_2112,FALSE
CY_2113,33.257963334079555,35.29107375846886,CY,CY00,CY000,2113,Κιόμουρτζου,0,2.23977315,2020,CY_2113,FALSE
CY_2114,33.27704641907817,35.292588255385816,CY,CY00,CY000,2114,Αγίρδα,0,7.58611993,2020,CY_2114,FALSE
CY_2120,33.17708931607138,35.26840165744181,CY,CY00,CY000,2120,Άγιος Ερμόλαος,0,13.25571531,2020,CY_2120,FALSE
CY_2121,33.179721829202514,35.29697278669329,CY,CY00,CY000,2121,Σύσκληπος,0,11.03679292,2020,CY_2121,FALSE
CY_2122,33.13383966250804,35.26622433595728,CY,CY00,CY000,2122,Κοντεμένος,0,11.85345887,2020,CY_2122,FALSE
CY_2123,33.08467825769393,35.26925085693278,CY,CY00,CY000,2123,Ασώματος Κερύνειας,0,21.78659206,2020,CY_2123,FALSE
CY_2124,33.10413168341488,35.304780293118746,CY,CY00,CY000,2124,Καμπυλή,0,7.60475263,2020,CY_2124,FALSE
CY_2125,33.068010446044866,35.287465675104244,CY,CY00,CY000,2125,Καρπάσεια,0,6.91121679,2020,CY_2125,FALSE
CY_2126,33.076425345816006,35.32189113840344,CY,CY00,CY000,2126,Μύρτου,0,14.97952672,2020,CY_2126,FALSE
CY_2127,33.029668074388475,35.29672873637469,CY,CY00,CY000,2127,Διόριος,0,37.03563312,2020,CY_2127,FALSE
CY_2128,32.97285532135737,35.29117727680754,CY,CY00,CY000,2128,Αγία Ειρήνη Κερύνειας,0,34.35218447,2020,CY_2128,FALSE
CY_2129,32.97787059421285,35.34257740265159,CY,CY00,CY000,2129,Κορμακίτης,0,50.23286981,2020,CY_2129,FALSE
CY_2130,32.949014496689514,35.379647676731665,CY,CY00,CY000,2130,Λιβερά,0,14.35092324,2020,CY_2130,FALSE
CY_2200,33.63194337274792,35.34102463237724,CY,CY00,CY000,2200,Καλογραία,0,17.14304736,2020,CY_2200,FALSE
CY_2201,33.54596357609261,35.328214318002615,CY,CY00,CY000,2201,Άγιος Αμβρόσιος Κερύνειας,0,36.52771577,2020,CY_2201,FALSE
CY_2202,33.53368979688074,35.308235937716894,CY,CY00,CY000,2202,Χάρκεια (Χάρτσεια),0,29.84361557,2020,CY_2202,FALSE
CY_2203,33.47495671464145,35.302523310404666,CY,CY00,CY000,2203,Τραπέζα,0,6.98270299,2020,CY_2203,FALSE
CY_2204,33.45003279802318,35.29890160657732,CY,CY00,CY000,2204,Κλεπίνη,0,22.06306188,2020,CY_2204,FALSE
CY_2205,33.41080481476655,35.31822570265081,CY,CY00,CY000,2205,Άγιος Επίκτητος,0,20.18797231,2020,CY_2205,FALSE
CY_2206,33.35005650065165,35.302073690679165,CY,CY00,CY000,2206,Μπέλαπαϊς,0,23.53519803,2020,CY_2206,FALSE
CY_2207,33.35674862433116,35.32565606903284,CY,CY00,CY000,2207,Καζάφανι,0,7.99629991,2020,CY_2207,FALSE
CY_2208,33.33211863779318,35.325335177383266,CY,CY00,CY000,2208,Θέρμεια,0,1.00225367,2020,CY_2208,FALSE
CY_2209,33.34063851841389,35.33471062045546,CY,CY00,CY000,2209,Καράκουμι,0,0.35848581,2020,CY_2209,FALSE
CY_2210,33.29098230754308,35.330415183085265,CY,CY00,CY000,2210,Τέμπλος,0,4.157532,2020,CY_2210,FALSE
CY_2211,33.26409369332605,35.31765530390865,CY,CY00,CY000,2211,Κάρμι,0,14.75033489,2020,CY_2211,FALSE
CY_2212,33.226738737514545,35.31795002356456,CY,CY00,CY000,2212,Φτέριχα,0,3.47236327,2020,CY_2212,FALSE
CY_2213,33.25690553800437,35.33605666222355,CY,CY00,CY000,2213,Τριμίθι,0,3.14279026,2020,CY_2213,FALSE
CY_2214,33.209612724093255,35.317629016905656,CY,CY00,CY000,2214,Παλαιόσοφος,0,2.6536885,2020,CY_2214,FALSE
CY_2215,33.2106568950867,35.33135414031494,CY,CY00,CY000,2215,Μότηδες,0,1.09955617,2020,CY_2215,FALSE
CY_2216,33.21893497405193,35.33995555405425,CY,CY00,CY000,2216,Ελιά Κερύνειας,0,0.996134,2020,CY_2216,FALSE
CY_2217,33.214700653766705,35.339588322958704,CY,CY00,CY000,2217,Καραβάς,0,13.94148027,2020,CY_2217,FALSE
CY_2218,33.26968330597006,35.3430572492472,CY,CY00,CY000,2218,Άγιος Γεώργιος Κερύνειας,0,1.92438083,2020,CY_2218,FALSE
CY_2220,33.15463903336024,35.302085068081695,CY,CY00,CY000,2220,Αγριδάκι,0,6.3537417,2020,CY_2220,FALSE
CY_2221,33.131744338711655,35.307936142246604,CY,CY00,CY000,2221,Λάρνακας Λαπήθου,0,14.64490948,2020,CY_2221,FALSE
CY_2222,33.16718007094041,35.33556762265436,CY,CY00,CY000,2222,Λάπηθος,0,18.28331111,2020,CY_2222,FALSE
CY_2223,33.10520958253071,35.34541328260305,CY,CY00,CY000,2223,Βασίλεια,0,20.85858054,2020,CY_2223,FALSE
CY_2224,33.068504514283156,35.34361024890572,CY,CY00,CY000,2224,Πάναγρα,0,1.98028601,2020,CY_2224,FALSE
CY_2226,33.0314619402871,35.359351645345,CY,CY00,CY000,2226,Όργα,0,3.5644428,2020,CY_2226,FALSE
CY_3000,33.90382891572353,35.09817925320741,CY,CY00,CY000,3000,Αμμόχωστος,0,37.74096122,2020,CY_3000,TRUE
CY_3100,33.99428896877549,34.991020147633265,CY,CY00,CY000,3100,Αγία Νάπα,3212,31.29465842,2020,CY_3100,TRUE
CY_3101,33.98634898626374,35.04343376330179,CY,CY00,CY000,3101,Παραλίμνι,14963,50.03695415,2020,CY_3101,TRUE
CY_3102,33.96086451444939,35.06215512612412,CY,CY00,CY000,3102,Δερύνεια,5844,32.47070987,2020,CY_3102,TRUE
CY_3103,33.945072371456945,35.02081186307699,CY,CY00,CY000,3103,Σωτήρα Αμμοχώστου,5474,25.65139122,2020,CY_3103,TRUE
CY_3104,33.893587403642044,35.00632394816926,CY,CY00,CY000,3104,Λιοπέτρι,4591,23.87980485,2020,CY_3104,TRUE
CY_3105,33.914765914811554,35.045721092339456,CY,CY00,CY000,3105,Φρέναρος,4298,29.3799928,2020,CY_3105,TRUE
CY_3110,33.83719273931673,35.038315849778506,CY,CY00,CY000,3110,Αυγόρου,4604,34.25415487,2020,CY_3110,TRUE
CY_3111,33.773369814402386,35.029558536353306,CY,CY00,CY000,3111,Άχνα,2087,34.62348886,2020,CY_3111,TRUE
CY_3112,33.75373551547153,35.071933987409516,CY,CY00,CY000,3112,Μακράσυκα,0,12.12737032,2020,CY_3112,FALSE
CY_3113,33.79883105495356,35.10506569702506,CY,CY00,CY000,3113,Καλοψίδα,0,29.19215866,2020,CY_3113,FALSE
CY_3114,33.878279652710944,35.08383064724505,CY,CY00,CY000,3114,Αχερίτου,1556,40.37024897,2020,CY_3114,TRUE
CY_3120,33.88470296858087,35.15889232842999,CY,CY00,CY000,3120,Έγκωμη Αμμοχώστου,0,14.47742893,2020,CY_3120,FALSE
CY_3121,33.88860066104797,35.199680795053446,CY,CY00,CY000,3121,Άγιος Σέργιος,0,16.90259336,2020,CY_3121,FALSE
CY_3122,33.829460915130234,35.16466589402011,CY,CY00,CY000,3122,Στύλλοι,0,19.86208401,2020,CY_3122,FALSE
CY_3123,33.85177325647259,35.193080168687395,CY,CY00,CY000,3123,Λιμνιά,0,23.27887344,2020,CY_3123,FALSE
CY_3124,33.82636396851639,35.21101755298688,CY,CY00,CY000,3124,Αλόδα,0,5.19295495,2020,CY_3124,FALSE
CY_3130,33.882505585557695,35.23442310292401,CY,CY00,CY000,3130,Σπαθαρικό,0,7.07478634,2020,CY_3130,FALSE
CY_3131,33.850140867540304,35.2361111548831,CY,CY00,CY000,3131,Αρναδί,0,6.9465384,2020,CY_3131,FALSE
CY_3132,33.866939950850394,35.2533967300631,CY,CY00,CY000,3132,Άγιος Γεώργιος Αμμοχώστου,0,8.38580024,2020,CY_3132,FALSE
CY_3133,33.91341820700794,35.2828779614629,CY,CY00,CY000,3133,Περιβόλια Τρικώμου,0,2.45918169,2020,CY_3133,FALSE
CY_3134,33.84982712198322,35.28703499621624,CY,CY00,CY000,3134,Σύγκραση,0,11.7036582,2020,CY_3134,FALSE
CY_3135,33.827512618606725,35.274929860443,CY,CY00,CY000,3135,Λάπαθος,0,15.14568784,2020,CY_3135,FALSE
CY_3136,33.89246164639373,35.291422570215,CY,CY00,CY000,3136,Τρίκωμο,0,38.50149001,2020,CY_3136,FALSE
CY_3200,33.75567663074477,35.11409927383506,CY,CY00,CY000,3200,Κούκλια Αμμοχώστου,0,15.34703147,2020,CY_3200,FALSE
CY_3201,33.72547240884047,35.10347831174494,CY,CY00,CY000,3201,Κοντέα,0,19.98810101,2020,CY_3201,FALSE
CY_3202,33.70361402594072,35.06166564347899,CY,CY00,CY000,3202,Λύση,0,43.0926876,2020,CY_3202,TRUE
CY_3203,33.66025052423669,35.14034654341893,CY,CY00,CY000,3203,Βατιλή,0,34.58682655,2020,CY_3203,FALSE
CY_3204,33.646576433603876,35.17261289567229,CY,CY00,CY000,3204,Στρογγυλός,0,7.38866183,2020,CY_3204,FALSE
CY_3205,33.7020398854512,35.15973805743963,CY,CY00,CY000,3205,Σίντα,0,19.40594474,2020,CY_3205,FALSE
CY_3210,33.802414877613174,35.1506127324176,CY,CY00,CY000,3210,Γαϊδουράς (Νέα Σπάρτη),0,15.41574418,2020,CY_3210,FALSE
CY_3211,33.76140559852298,35.16289748730516,CY,CY00,CY000,3211,Πραστιό Αμμοχώστου,0,22.56111677,2020,CY_3211,FALSE
CY_3212,33.72145859430535,35.1878535555124,CY,CY00,CY000,3212,Πυργά (η) Αμμοχώστου,0,10.80538859,2020,CY_3212,FALSE
CY_3213,33.644387466555614,35.19070114048545,CY,CY00,CY000,3213,Μουσουλίτα,0,3.93420539,2020,CY_3213,FALSE
CY_3214,33.802843235611874,35.20736844772921,CY,CY00,CY000,3214,Σανταλάρης,0,5.99816892,2020,CY_3214,FALSE
CY_3215,33.777747548813686,35.206140222038485,CY,CY00,CY000,3215,Μαράθα,0,1.28811402,2020,CY_3215,FALSE
CY_3216,33.7570523118032,35.20282401514359,CY,CY00,CY000,3216,Περιστερώνα Αμμοχώστου,0,15.55324783,2020,CY_3216,FALSE
CY_3217,33.76435747952489,35.220782379673075,CY,CY00,CY000,3217,Πηγή,0,11.82433032,2020,CY_3217,FALSE
CY_3218,33.691688865046636,35.21090745563769,CY,CY00,CY000,3218,Γέναγρα,0,14.55812014,2020,CY_3218,FALSE
CY_3219,33.79863934857719,35.23271506433599,CY,CY00,CY000,3219,Μηλιά Αμμοχώστου,0,22.53522727,2020,CY_3219,FALSE
CY_3220,33.791049385592316,35.278965269169476,CY,CY00,CY000,3220,Γύψου,0,24.63638637,2020,CY_3220,FALSE
CY_3221,33.73447346525117,35.269355376961954,CY,CY00,CY000,3221,Λευκόνοικο,0,53.98084862,2020,CY_3221,FALSE
CY_3222,33.68700407610931,35.24761794124,CY,CY00,CY000,3222,Ψυλλάτος,0,8.43839891,2020,CY_3222,FALSE
CY_3223,33.655389320073354,35.26928217635632,CY,CY00,CY000,3223,Κνώδαρα,0,23.53840086,2020,CY_3223,FALSE
CY_3224,33.69277879312309,35.28463723476757,CY,CY00,CY000,3224,Γούφες,0,10.86259739,2020,CY_3224,FALSE
CY_3231,33.61093495944602,35.151753421458196,CY,CY00,CY000,3231,Άσκεια (Άσσεια),0,31.36318911,2020,CY_3231,FALSE
CY_3232,33.57096591693595,35.150964613825316,CY,CY00,CY000,3232,Αφάντεια-Ορνίθι,0,18.91705079,2020,CY_3232,FALSE
CY_3233,33.58464233421728,35.205964806179104,CY,CY00,CY000,3233,Αγγαστίνα,0,21.58761166,2020,CY_3233,FALSE
CY_3234,33.63147702973039,35.215714193168665,CY,CY00,CY000,3234,Μαραθόβουνος,0,28.70936763,2020,CY_3234,FALSE
CY_3235,33.64966667311329,35.237269591611145,CY,CY00,CY000,3235,Βιτσάδα,0,9.33493108,2020,CY_3235,FALSE
CY_3236,33.6043288416382,35.256416433535854,CY,CY00,CY000,3236,Κίαδος (Τζιάος),0,15.63494614,2020,CY_3236,FALSE
CY_3237,33.57283682758808,35.273758008755344,CY,CY00,CY000,3237,Κορνόκηπος,0,20.60649089,2020,CY_3237,FALSE
CY_3238,33.600508583372125,35.29906243551278,CY,CY00,CY000,3238,Άγιος Χαρίτων,0,8.2298778,2020,CY_3238,FALSE
CY_3239,33.63732562671271,35.305092383111536,CY,CY00,CY000,3239,Τρυπημένη,0,21.18904855,2020,CY_3239,FALSE
CY_3300,33.71695756425604,35.322977547122456,CY,CY00,CY000,3300,Άρτεμι,0,10.29151705,2020,CY_3300,FALSE
CY_3301,33.67596867041678,35.32306130288086,CY,CY00,CY000,3301,Άγιος Νικόλαος Αμμοχώστου,0,9.79996508,2020,CY_3301,FALSE
CY_3303,33.760816083256415,35.33180623167516,CY,CY00,CY000,3303,Πλατάνι,0,21.063183,2020,CY_3303,FALSE
CY_3304,33.7588082167972,35.37816024176149,CY,CY00,CY000,3304,Ακανθού,0,78.25043504,2020,CY_3304,FALSE
CY_3305,33.69941462614073,35.32994914457124,CY,CY00,CY000,3305,Μελούντα,0,10.16997032,2020,CY_3305,FALSE
CY_3310,33.81904095910854,35.32062301382081,CY,CY00,CY000,3310,Άγιος Ιάκωβος,0,12.36262256,2020,CY_3310,FALSE
CY_3311,33.85800237881308,35.3400158411504,CY,CY00,CY000,3311,Άγιος Ανδρόνικος Tρικώμου (Τοπσούκιογιου ή Άγιο Ανδρονικούδι),0,18.44659316,2020,CY_3311,FALSE
CY_3312,33.81098976604984,35.3478916692794,CY,CY00,CY000,3312,Μάνδρες Αμμοχώστου,0,18.51716066,2020,CY_3312,FALSE
CY_3313,33.89034804340174,35.35441338699579,CY,CY00,CY000,3313,Άρδανα,0,22.37904169,2020,CY_3313,FALSE
CY_3314,33.86007430796361,35.39449181097541,CY,CY00,CY000,3314,Φλαμούδι,0,19.67170045,2020,CY_3314,FALSE
CY_3320,33.95248299550031,35.31531352112563,CY,CY00,CY000,3320,Μπογάζι,0,1.03414461,2020,CY_3320,FALSE
CY_3321,33.944368717243364,35.31565324938553,CY,CY00,CY000,3321,Μοναργά,0,1.153091,2020,CY_3321,FALSE
CY_3322,33.933522096240495,35.327186921015496,CY,CY00,CY000,3322,Άγιος Ηλίας,0,14.69415593,2020,CY_3322,FALSE
CY_3323,33.9910319809029,35.33574290471511,CY,CY00,CY000,3323,Γαστριά,0,14.25687657,2020,CY_3323,FALSE
CY_3324,33.95848259759374,35.353469514001624,CY,CY00,CY000,3324,Αυγολίδα,0,3.4031058,2020,CY_3324,FALSE
CY_3325,33.98838603265738,35.35993438929911,CY,CY00,CY000,3325,Πατρίκι,0,12.28613113,2020,CY_3325,FALSE
CY_3326,33.91984195562214,35.36343331958466,CY,CY00,CY000,3326,Γεράνι,0,11.27499103,2020,CY_3326,FALSE
CY_3327,33.93623305831639,35.379451439618045,CY,CY00,CY000,3327,Όβγορος,0,15.60190562,2020,CY_3327,FALSE
CY_3328,33.91394638295224,35.41612016433338,CY,CY00,CY000,3328,Δαυλός,0,21.66241306,2020,CY_3328,FALSE
CY_3330,34.03877867372345,35.352313525370164,CY,CY00,CY000,3330,Άγιος Θεόδωρος Αμμοχώστου,0,26.50330509,2020,CY_3330,FALSE
CY_3331,34.06932098353819,35.37233831711868,CY,CY00,CY000,3331,Βοκολίδα,0,12.60574096,2020,CY_3331,FALSE
CY_3332,34.07770775464999,35.39489050968871,CY,CY00,CY000,3332,Ταύρου,0,7.67249391,2020,CY_3332,FALSE
CY_3333,34.01797152376079,35.38646057970013,CY,CY00,CY000,3333,Άγιος Ευστάθιος,0,2.47469927,2020,CY_3333,FALSE
CY_3334,34.03469001271274,35.39653816463332,CY,CY00,CY000,3334,Λιβάδια Αμμοχώστου,0,5.83505611,2020,CY_3334,FALSE
CY_3335,33.95585658189061,35.39427129177211,CY,CY00,CY000,3335,Κρίδεια,0,12.18450244,2020,CY_3335,FALSE
CY_3336,33.98907864306233,35.41195731111406,CY,CY00,CY000,3336,Κώμη (Κώμη Κεπίρ),0,36.72168224,2020,CY_3336,FALSE
CY_3337,34.075500886153065,35.4242333413149,CY,CY00,CY000,3337,Γαλάτεια,0,25.76024576,2020,CY_3337,FALSE
CY_3338,34.0362948734327,35.44891514345221,CY,CY00,CY000,3338,Επτακώμη,0,34.25875703,2020,CY_3338,FALSE
CY_3340,34.12562981319717,35.42632144930057,CY,CY00,CY000,3340,Κώμα του Γιαλού,0,20.82338164,2020,CY_3340,FALSE
CY_3341,34.22270491249481,35.46850227082326,CY,CY00,CY000,3341,Νέτα,0,6.5465322,2020,CY_3341,FALSE
CY_3342,34.19373333664593,35.47237364296814,CY,CY00,CY000,3342,Βοθύλακας,0,11.08369019,2020,CY_3342,FALSE
CY_3343,34.17361185569414,35.46801483733498,CY,CY00,CY000,3343,Λυθράγκωμη,0,7.36583272,2020,CY_3343,FALSE
CY_3344,34.16025342838971,35.457038782532756,CY,CY00,CY000,3344,Βασίλι,0,8.37724249,2020,CY_3344,FALSE
CY_3345,34.12603583158111,35.46252907213677,CY,CY00,CY000,3345,Λεονάρισσο,0,16.26189075,2020,CY_3345,FALSE
CY_3346,34.093346990802445,35.480460388867876,CY,CY00,CY000,3346,Πλατανισσός,0,16.44106344,2020,CY_3346,FALSE
CY_3347,34.13416566436639,35.49220391757952,CY,CY00,CY000,3347,Κοιλάνεμος,0,3.95732513,2020,CY_3347,FALSE
CY_3348,34.181208593467296,35.50219444293699,CY,CY00,CY000,3348,Άγιος Ανδρόνικος Καρπασίας,0,24.71710839,2020,CY_3348,FALSE
CY_3350,34.23351580419014,35.4870902266104,CY,CY00,CY000,3350,Άγιος Συμεών,0,12.47412605,2020,CY_3350,FALSE
CY_3351,34.204440909432826,35.50864365824229,CY,CY00,CY000,3351,Μελάναργα,0,5.07155662,2020,CY_3351,FALSE
CY_3352,34.23364085225019,35.54570058029951,CY,CY00,CY000,3352,Αιγιαλούσα,0,48.54041408,2020,CY_3352,FALSE
CY_3353,34.24121110265542,35.534271936733695,CY,CY00,CY000,3353,Αγία Τριάς,0,18.8385512,2020,CY_3353,FALSE
CY_3354,34.276101031339486,35.50611151588137,CY,CY00,CY000,3354,Κορόβεια,0,16.2370152,2020,CY_3354,FALSE
CY_3355,34.31002549468746,35.52907572369383,CY,CY00,CY000,3355,Γαληνόπωρνη,0,21.80139622,2020,CY_3355,FALSE
CY_3356,34.427616593999495,35.61235885334049,CY,CY00,CY000,3356,Ριζοκάρπασο,0,151.59491197,2020,CY_3356,FALSE
CY_4000,33.622193499797696,34.92216757377731,CY,CY00,CY000,4000,Λάρνακα,51468,32.89931305,2020,CY_4000,TRUE
CY_4010,33.59516487870615,34.939082578899644,CY,CY00,CY000,4010,Αραδίππου,19228,55.89993173,2020,CY_4010,TRUE
CY_4011,33.62705129883448,34.94962683650835,CY,CY00,CY000,4011,Λιβάδια Λάρνακας,7206,8.65998411,2020,CY_4011,TRUE
CY_4014,33.58811606470775,34.87100655243808,CY,CY00,CY000,4014,Δρομολαξιά -Μενεού,6689,21.19145534,2020,CY_4014,TRUE
CY_4100,33.62218541312608,34.97542101003176,CY,CY00,CY000,4100,Κελλιά,387,12.56261892,2020,CY_4100,TRUE
CY_4101,33.617905502311274,35.03156295878577,CY,CY00,CY000,4101,Τρούλλοι,1175,28.43864285,2020,CY_4101,TRUE
CY_4102,33.65617099149672,34.98133375956496,CY,CY00,CY000,4102,Βορόκληνη (Ορόκληνη),6134,15.37481015,2020,CY_4102,TRUE
CY_4103,33.57052839892517,35.00764684502621,CY,CY00,CY000,4103,Αβδελλερό,218,20.04769739,2020,CY_4103,TRUE
CY_4104,33.691843215081896,35.006122361342356,CY,CY00,CY000,4104,Πύλα,2771,28.77845238,2020,CY_4104,TRUE
CY_4105,33.74252685305117,35.016560155013536,CY,CY00,CY000,4105,Ξυλοτύμβου,3655,24.75044997,2020,CY_4105,TRUE
CY_4106,33.77458192381804,34.99160810416514,CY,CY00,CY000,4106,Ορμίδεια,4189,21.23716966,2020,CY_4106,TRUE
CY_4107,33.848754197268086,34.977513220957405,CY,CY00,CY000,4107,Ξυλοφάγου,6231,36.64057562,2020,CY_4107,TRUE
CY_4108,33.70265894370046,35.0430808943521,CY,CY00,CY000,4108,Πέργαμος,193,22.73250522,2020,CY_4108,TRUE
CY_4110,33.57406497623405,34.848206917181855,CY,CY00,CY000,4110,Κίτι,4252,8.77595196,2020,CY_4110,TRUE
CY_4111,33.584410224730554,34.83034721060442,CY,CY00,CY000,4111,Περιβόλια Λάρνακας,3009,8.54656425,2020,CY_4111,TRUE
CY_4112,33.54873504930341,34.85395868446409,CY,CY00,CY000,4112,Τερσεφάνου,1299,19.18524514,2020,CY_4112,TRUE
CY_4113,33.55316746255049,34.828174565590245,CY,CY00,CY000,4113,Σοφτάδες,62,6.98557343,2020,CY_4113,TRUE
CY_4120,33.48875343447942,34.80350598753517,CY,CY00,CY000,4120,Μαζωτός,832,14.63612301,2020,CY_4120,TRUE
CY_4121,33.43210934065638,34.8089240782158,CY,CY00,CY000,4121,Αλαμινός,345,9.61313678,2020,CY_4121,TRUE
CY_4122,33.46238717787964,34.82824193481059,CY,CY00,CY000,4122,Αναφωτίδα,790,11.89678977,2020,CY_4122,TRUE
CY_4123,33.473430262035244,34.828398723353125,CY,CY00,CY000,4123,Απλάντα,6,3.13961039,2020,CY_4123,TRUE
CY_4124,33.50758597014503,34.83619610069658,CY,CY00,CY000,4124,Κιβισίλι,233,13.71079974,2020,CY_4124,TRUE
CY_4125,33.49364991609462,34.86233789596113,CY,CY00,CY000,4125,Αλεθρικό,1101,18.47236593,2020,CY_4125,TRUE
CY_4126,33.51530741610739,34.890899082052876,CY,CY00,CY000,4126,Κλαυδιά,427,21.052043,2020,CY_4126,TRUE
CY_4127,33.45611323502372,34.85119196994708,CY,CY00,CY000,4127,Αγγλισίδες,1146,15.86321183,2020,CY_4127,TRUE
CY_4128,33.44228700739954,34.846325197547486,CY,CY00,CY000,4128,Μενόγεια,50,7.54789647,2020,CY_4128,TRUE
CY_4201,33.51717026718575,35.04756295363689,CY,CY00,CY000,4201,Πετροφάνι,0,7.33673907,2020,CY_4201,TRUE
CY_4202,33.54087975919167,35.06176483450825,CY,CY00,CY000,4202,Αθιένου,5017,64.83224322,2020,CY_4202,TRUE
CY_4203,33.58627642824024,35.07566536351267,CY,CY00,CY000,4203,Μελούσεια,0,7.10582472,2020,CY_4203,FALSE
CY_4204,33.605352511964504,35.08470548764045,CY,CY00,CY000,4204,Τρεμετουσιά,0,15.27367794,2020,CY_4204,FALSE
CY_4205,33.65166547167856,35.04651993841114,CY,CY00,CY000,4205,Άρσος Λάρνακας,0,21.39154517,2020,CY_4205,TRUE
CY_4210,33.538670767468034,34.931051105207644,CY,CY00,CY000,4210,Καλό Χωριό Λάρνακας,1518,27.20521744,2020,CY_4210,TRUE
CY_4211,33.48613564185694,34.944834437482854,CY,CY00,CY000,4211,Αγία Άννα,339,12.10553671,2020,CY_4211,TRUE
CY_4212,33.42598044812248,34.951393397881404,CY,CY00,CY000,4212,Μοσφιλωτή,1365,12.2197185,2020,CY_4212,TRUE
CY_4213,33.46372652842859,34.94614941175294,CY,CY00,CY000,4213,Ψευδάς,1261,13.07272511,2020,CY_4213,TRUE
CY_4214,33.43441936607969,34.92607018333739,CY,CY00,CY000,4214,Πυργά (τα) Λάρνακας,812,39.54375618,2020,CY_4214,TRUE
CY_4215,33.39866204788714,34.92089590356647,CY,CY00,CY000,4215,Κόρνος,2083,30.98974068,2020,CY_4215,TRUE
CY_4216,33.33858025951661,34.91134525227382,CY,CY00,CY000,4216,Δελίκηπος,23,16.73639135,2020,CY_4216,TRUE
CY_4217,33.5157270045251,34.971894278465044,CY,CY00,CY000,4217,Κόση,0,13.66021226,2020,CY_4217,FALSE
CY_4300,33.3362239296292,34.73074973610004,CY,CY00,CY000,4300,Ζύγι,589,2.27919402,2020,CY_4300,TRUE
CY_4301,33.29535401946374,34.73961302510913,CY,CY00,CY000,4301,Μαρί,158,11.23550538,2020,CY_4301,TRUE
CY_4302,33.29593885792379,34.7698518637541,CY,CY00,CY000,4302,Καλαβασός,737,20.78752317,2020,CY_4302,TRUE
CY_4303,33.321124026853894,34.776076193855516,CY,CY00,CY000,4303,Τόχνη,424,17.46869099,2020,CY_4303,TRUE
CY_4304,33.33553282487363,34.79708478106723,CY,CY00,CY000,4304,Χοιροκoιτία,632,17.2446417,2020,CY_4304,TRUE
CY_4305,33.34720105208736,34.76482104918724,CY,CY00,CY000,4305,Ψεματισμένος,271,7.98170397,2020,CY_4305,TRUE
CY_4306,33.35570276696458,34.75484633729162,CY,CY00,CY000,4306,Μαρώνι,710,14.28690703,2020,CY_4306,TRUE
CY_4307,33.38361071231078,34.79996726993316,CY,CY00,CY000,4307,Άγιος Θεόδωρος Λάρνακας,663,37.75168084,2020,CY_4307,TRUE
CY_4308,33.356309373648664,34.820022879135266,CY,CY00,CY000,4308,Σκαρίνου,393,11.70498059,2020,CY_4308,TRUE
CY_4309,33.389916868644534,34.82488036482425,CY,CY00,CY000,4309,Κοφίνου,1312,27.21451206,2020,CY_4309,TRUE
CY_4310,33.319250068038336,34.858042664595054,CY,CY00,CY000,4310,Κάτω Λεύκαρα,128,11.20046573,2020,CY_4310,TRUE
CY_4311,33.31143984827957,34.87315856630276,CY,CY00,CY000,4311,Πάνω Λεύκαρα,762,61.81314052,2020,CY_4311,TRUE
CY_4312,33.30703042936056,34.85107258951713,CY,CY00,CY000,4312,Κάτω Δρυς,129,13.97377917,2020,CY_4312,TRUE
CY_4313,33.27000887872865,34.84175698697578,CY,CY00,CY000,4313,Βάβλα,52,9.77811652,2020,CY_4313,TRUE
CY_4314,33.24880539726146,34.84659165531066,CY,CY00,CY000,4314,Λάγεια,28,10.16040598,2020,CY_4314,TRUE
CY_4315,33.196558448561305,34.860712994279254,CY,CY00,CY000,4315,Ορά,206,27.23972604,2020,CY_4315,TRUE
CY_4316,33.15483675074182,34.87140464513553,CY,CY00,CY000,4316,Μελίνη,59,7.47249269,2020,CY_4316,TRUE
CY_4317,33.14686985575516,34.882868177671405,CY,CY00,CY000,4317,Οδού,213,12.37692234,2020,CY_4317,TRUE
CY_4318,33.19159554813885,34.880772586738914,CY,CY00,CY000,4318,Άγιοι Βαβατσινιάς,131,15.75897812,2020,CY_4318,TRUE
CY_4319,33.22878792713066,34.890002303372825,CY,CY00,CY000,4319,Βαβατσινιά,81,14.5559364,2020,CY_4319,TRUE
CY_5000,33.02822592148739,34.68611165589895,CY,CY00,CY000,5000,Λεμεσός,101000,35.46238849,2020,CY_5000,TRUE
CY_5011,33.04700531702694,34.70177127006047,CY,CY00,CY000,5011,Μέσα Γειτονιά,14477,3.62517215,2020,CY_5011,TRUE
CY_5012,33.057394398115235,34.708873223493846,CY,CY00,CY000,5012,Άγιος Αθανάσιος,14347,14.34413198,2020,CY_5012,TRUE
CY_5013,33.08477772900422,34.70644241224838,CY,CY00,CY000,5013,Γερμασόγεια,13421,15.72635216,2020,CY_5013,TRUE
CY_5020,32.99388683771366,34.706283498587155,CY,CY00,CY000,5020,Πάνω Πολεμίδια,3470,3.20392916,2020,CY_5020,TRUE
CY_5021,32.96139750108373,34.688493718509505,CY,CY00,CY000,5021,'Υψωνας,11117,32.37807534,2020,CY_5021,TRUE
CY_5022,33.00154483712338,34.685023801249855,CY,CY00,CY000,5022,Κάτω Πολεμίδια,22369,20.34815825,2020,CY_5022,TRUE
CY_5100,33.006169704861854,34.7431238202345,CY,CY00,CY000,5100,Παλόδεια,1568,8.89785733,2020,CY_5100,TRUE
CY_5101,32.99358402017285,34.762134148783055,CY,CY00,CY000,5101,Παραμύθα,569,10.37116056,2020,CY_5101,TRUE
CY_5102,33.00543760047655,34.7625547061768,CY,CY00,CY000,5102,Σπιτάλι,316,2.59004533,2020,CY_5102,TRUE
CY_5103,33.02777272894316,34.75368377411677,CY,CY00,CY000,5103,Φασούλα Λεμεσού,560,15.33697409,2020,CY_5103,TRUE
CY_5104,33.04787222804213,34.77702555576271,CY,CY00,CY000,5104,Μαθικολώνη,174,14.35075886,2020,CY_5104,TRUE
CY_5105,32.994781155629354,34.799997405088874,CY,CY00,CY000,5105,Γεράσα,69,10.6092979,2020,CY_5105,TRUE
CY_5106,33.016098362225335,34.79562088099041,CY,CY00,CY000,5106,Αψιού,208,20.52280806,2020,CY_5106,TRUE
CY_5107,32.97719191686963,34.786698379216716,CY,CY00,CY000,5107,Απεσιά,474,9.29929127,2020,CY_5107,TRUE
CY_5108,32.96037028273367,34.797673632584285,CY,CY00,CY000,5108,Κορφή,199,6.23012683,2020,CY_5108,TRUE
CY_5109,32.95231715743524,34.810639272166206,CY,CY00,CY000,5109,Λιμνάτης,314,10.91240645,2020,CY_5109,TRUE
CY_5110,32.95825080782888,34.82807589687566,CY,CY00,CY000,5110,Καπηλειό,34,9.56721427,2020,CY_5110,TRUE
CY_5120,33.104005899292446,34.715064619996106,CY,CY00,CY000,5120,Μουτταγιάκα,2939,4.80748978,2020,CY_5120,TRUE
CY_5121,33.12617351192045,34.748040952729184,CY,CY00,CY000,5121,Αρμενοχώρι,218,8.47700533,2020,CY_5121,TRUE
CY_5122,33.10238321626492,34.753424769796,CY,CY00,CY000,5122,Φοινικάρια,339,12.57264154,2020,CY_5122,TRUE
CY_5123,33.08509777414329,34.765517024419395,CY,CY00,CY000,5123,Ακρούντα,455,12.53157609,2020,CY_5123,TRUE
CY_5124,33.12948482680482,34.71703854057666,CY,CY00,CY000,5124,Άγιος Τύχων,3455,9.77255006,2020,CY_5124,TRUE
CY_5125,33.15890158371734,34.74431544755016,CY,CY00,CY000,5125,Παρεκκλησιά,2738,25.51075389,2020,CY_5125,TRUE
CY_5126,33.238250932100016,34.737630849629795,CY,CY00,CY000,5126,Πεντάκωμο,644,19.29266155,2020,CY_5126,TRUE
CY_5127,33.21594677986654,34.745706759854464,CY,CY00,CY000,5127,Μοναγρούλλι,536,17.57569378,2020,CY_5127,TRUE
CY_5128,33.20126490229348,34.73675162897865,CY,CY00,CY000,5128,Μονή,622,7.89183062,2020,CY_5128,TRUE
CY_5129,33.18073940585881,34.741056735532034,CY,CY00,CY000,5129,Πύργος Λεμεσού,2363,14.46488057,2020,CY_5129,TRUE
CY_5130,33.2525447163154,34.7808907345197,CY,CY00,CY000,5130,Ασγάτα,417,19.81279847,2020,CY_5130,TRUE
CY_5131,33.21124827381155,34.80082528001126,CY,CY00,CY000,5131,Βάσα Κελλακίου,73,17.0384147,2020,CY_5131,TRUE
CY_5132,33.18946623544921,34.80627969646105,CY,CY00,CY000,5132,Σανίδα,42,10.77235322,2020,CY_5132,TRUE
CY_5133,33.145470050894204,34.80884536391336,CY,CY00,CY000,5133,Πραστιό Κελλακίου,103,17.82206659,2020,CY_5133,TRUE
CY_5134,33.186307800744686,34.831076078389614,CY,CY00,CY000,5134,Κλωνάρι,18,3.22234497,2020,CY_5134,TRUE
CY_5135,33.193380279249496,34.825907726190444,CY,CY00,CY000,5135,Βίκλα,1,4.07001125,2020,CY_5135,TRUE
CY_5136,33.15880273640534,34.81393962793104,CY,CY00,CY000,5136,Κελλάκι,299,9.28984853,2020,CY_5136,TRUE
CY_5137,33.188884541732065,34.83765564525396,CY,CY00,CY000,5137,Ακαπνού,20,7.05697444,2020,CY_5137,TRUE
CY_5138,33.1568718405918,34.844120475335195,CY,CY00,CY000,5138,Επταγώνεια,353,12.69115323,2020,CY_5138,TRUE
CY_5140,33.106510271498024,34.827817237423794,CY,CY00,CY000,5140,Διερώνα,192,23.20217959,2020,CY_5140,TRUE
CY_5141,33.111674203238465,34.845053407628114,CY,CY00,CY000,5141,Αρακαπάς,307,12.30490331,2020,CY_5141,TRUE
CY_5142,33.04946229497564,34.861622678881844,CY,CY00,CY000,5142,Άγιος Παύλος,135,5.651079,2020,CY_5142,TRUE
CY_5143,33.062013231463794,34.86718174225143,CY,CY00,CY000,5143,Άγιος Κωνσταντίνος,137,8.84635067,2020,CY_5143,TRUE
CY_5144,33.1114662392533,34.88375599747441,CY,CY00,CY000,5144,Συκόπετρα,120,14.56588184,2020,CY_5144,TRUE
CY_5145,33.04020539498353,34.835256689414095,CY,CY00,CY000,5145,Λουβαράς,363,10.61381548,2020,CY_5145,TRUE
CY_5146,33.02654042537889,34.84825014786772,CY,CY00,CY000,5146,Καλό Χωριό Λεμεσού,497,24.22926108,2020,CY_5146,TRUE
CY_5147,33.01429934389329,34.86065340813982,CY,CY00,CY000,5147,Ζωοπηγή,140,10.82456224,2020,CY_5147,TRUE
CY_5200,32.97115011588887,34.58610421781549,CY,CY00,CY000,5200,Ακρωτήρι,870,49.2211637,2020,CY_5200,TRUE
CY_5201,32.95930748225608,34.640125768169625,CY,CY00,CY000,5201,Ασώματος Λεμεσού,726,14.34197383,2020,CY_5201,TRUE
CY_5202,32.98445583174235,34.65267545030825,CY,CY00,CY000,5202,Τσερκέζοι,50,5.49735871,2020,CY_5202,TRUE
CY_5203,32.961749291205855,34.65835707460297,CY,CY00,CY000,5203,Τραχώνι Λεμεσού,3952,4.38663385,2020,CY_5203,TRUE
CY_5210,32.9353806033466,34.67698205682394,CY,CY00,CY000,5210,Κολόσσι,5651,10.04403271,2020,CY_5210,TRUE
CY_5211,32.92245536852023,34.67983684704782,CY,CY00,CY000,5211,Ερήμη,2432,6.37323678,2020,CY_5211,TRUE
CY_5212,32.89823769183104,34.67349297507245,CY,CY00,CY000,5212,Επισκοπή Λεμεσού,3681,23.33997829,2020,CY_5212,TRUE
CY_5213,32.905760783496945,34.69273705013171,CY,CY00,CY000,5213,Καντού,349,11.63840433,2020,CY_5213,TRUE
CY_5214,32.842015939232496,34.67948470563668,CY,CY00,CY000,5214,Σωτήρα Λεμεσού,143,28.30691783,2020,CY_5214,TRUE
CY_5220,32.779540823959124,34.73167248916452,CY,CY00,CY000,5220,Πραστιό Αυδήμου,245,13.46728071,2020,CY_5220,TRUE
CY_5221,32.7977477598827,34.67323433106793,CY,CY00,CY000,5221,Παραμάλι,220,19.05475637,2020,CY_5221,TRUE
CY_5222,32.76406579611646,34.69202132120011,CY,CY00,CY000,5222,Αυδήμου,535,19.14182072,2020,CY_5222,TRUE
CY_5223,32.707652197668274,34.71358377618949,CY,CY00,CY000,5223,Πλατανίστεια,45,13.46252885,2020,CY_5223,TRUE
CY_5224,32.72975425964598,34.71734914212332,CY,CY00,CY000,5224,Άγιος Θωμάς,50,4.27871584,2020,CY_5224,TRUE
CY_5225,32.68225873572306,34.7105426060033,CY,CY00,CY000,5225,Αλέκτορα,64,19.06080187,2020,CY_5225,TRUE
CY_5226,32.736274390016945,34.73774825233865,CY,CY00,CY000,5226,Ανώγυρα,301,21.11918405,2020,CY_5226,TRUE
CY_5227,32.702218536862375,34.66551903293669,CY,CY00,CY000,5227,Πισσούρι,1819,37.9190823,2020,CY_5227,TRUE
CY_5300,32.88905761953802,34.73377402452953,CY,CY00,CY000,5300,Σούνι-Ζανακιά,837,20.94825306,2020,CY_5300,TRUE
CY_5302,32.92554737952962,34.761539567943096,CY,CY00,CY000,5302,Άλασσα,282,10.57390942,2020,CY_5302,TRUE
CY_5303,32.85885034118236,34.75965241125037,CY,CY00,CY000,5303,Κάτω Κιβίδες,5,5.63859848,2020,CY_5303,TRUE
CY_5304,32.85510856467069,34.759029176040926,CY,CY00,CY000,5304,Πάνω Κιβίδες,707,17.12047354,2020,CY_5304,TRUE
CY_5305,32.828285823126215,34.777086086190366,CY,CY00,CY000,5305,Άγιος Αμβρόσιος Λεμεσού,323,14.90139404,2020,CY_5305,TRUE
CY_5306,32.837486629915595,34.79327108475222,CY,CY00,CY000,5306,Άγιος Θεράπων,125,16.25696246,2020,CY_5306,TRUE
CY_5307,32.87396216575969,34.813362965293116,CY,CY00,CY000,5307,Λόφου,46,12.8421239,2020,CY_5307,TRUE
CY_5308,32.79388545857797,34.776149051596555,CY,CY00,CY000,5308,Πάχνα,865,28.5764835,2020,CY_5308,TRUE
CY_5310,32.89834376033284,34.815582813169605,CY,CY00,CY000,5310,Άγιος Γεώργιος Λεμεσού,111,6.05331616,2020,CY_5310,TRUE
CY_5311,32.90898022250873,34.81284268288322,CY,CY00,CY000,5311,Δωρός,135,4.9447966,2020,CY_5311,TRUE
CY_5312,32.91948626263961,34.82567181816115,CY,CY00,CY000,5312,Λάνεια,281,8.00596699,2020,CY_5312,TRUE
CY_5313,32.891320286987984,34.83168027398516,CY,CY00,CY000,5313,Σιλίκου,137,7.38946797,2020,CY_5313,TRUE
CY_5314,32.909141123105265,34.81014334286491,CY,CY00,CY000,5314,Μονάγρι,175,6.66948378,2020,CY_5314,TRUE
CY_5315,32.91424560103385,34.85178618876872,CY,CY00,CY000,5315,Τριμήκληνη,307,7.77080937,2020,CY_5315,TRUE
CY_5316,32.9500717039242,34.848900653302564,CY,CY00,CY000,5316,Άγιος Μάμας,114,15.06119098,2020,CY_5316,TRUE
CY_5317,32.890628253383966,34.85383211649446,CY,CY00,CY000,5317,Κουκά,27,1.32876432,2020,CY_5317,TRUE
CY_5318,32.902233137197,34.86916820550668,CY,CY00,CY000,5318,Μονιάτης,275,14.53683684,2020,CY_5318,TRUE
CY_5320,32.738604324435926,34.780743080638516,CY,CY00,CY000,5320,Δωρά,145,17.48511183,2020,CY_5320,TRUE
CY_5321,32.726027961591804,34.81263068170246,CY,CY00,CY000,5321,Γεροβάσα (Τρόζενα),0,4.40818876,2020,CY_5321,TRUE
CY_5322,32.76844545904745,34.83881594851155,CY,CY00,CY000,5322,Άρσος Λεμεσού,202,10.45474661,2020,CY_5322,TRUE
CY_5323,32.79538740531861,34.80975738936336,CY,CY00,CY000,5323,Κισσούσα,6,2.74722123,2020,CY_5323,TRUE
CY_5324,32.78394759608368,34.816146796989806,CY,CY00,CY000,5324,Μαλιά,64,12.84495763,2020,CY_5324,TRUE
CY_5325,32.789494386202335,34.833472672835605,CY,CY00,CY000,5325,Βάσα Κοιλανίου,163,8.41088793,2020,CY_5325,TRUE
CY_5326,32.83157255670819,34.8224188218635,CY,CY00,CY000,5326,Βουνί,149,14.32927646,2020,CY_5326,TRUE
CY_5327,32.874221124524475,34.858800505735886,CY,CY00,CY000,5327,Πέρα Πεδί,120,7.39367131,2020,CY_5327,TRUE
CY_5328,32.83412606363444,34.86890958697685,CY,CY00,CY000,5328,Μανδριά Λεμεσού,107,6.5113468900000004,2020,CY_5328,TRUE
CY_5329,32.807655512616165,34.82013281099151,CY,CY00,CY000,5329,Ποταμιού,36,3.51163686,2020,CY_5329,TRUE
CY_5330,32.80561662455193,34.848291339001094,CY,CY00,CY000,5330,Όμοδος,322,13.87579771,2020,CY_5330,TRUE
CY_5331,32.86089149366856,34.843479324837546,CY,CY00,CY000,5331,Κοιλάνι,216,11.90630327,2020,CY_5331,TRUE
CY_5340,32.80666411972083,34.92285353309847,CY,CY00,CY000,5340,Άγιος Δημήτριος,54,3.2220646,2020,CY_5340,TRUE
CY_5341,32.822764443515155,34.93751933696221,CY,CY00,CY000,5341,Παλαιόμυλος,20,4.35527412,2020,CY_5341,TRUE
CY_5342,32.83224181176114,34.9452351214123,CY,CY00,CY000,5342,Πρόδρομος,123,7.80063413,2020,CY_5342,TRUE
CY_5343,32.785610298775886,34.92818288510478,CY,CY00,CY000,5343,Καμινάρια,44,6.9027822,2020,CY_5343,TRUE
CY_5344,32.80261962454395,34.92698122786398,CY,CY00,CY000,5344,Τρεις Ελιές,25,4.92447151,2020,CY_5344,TRUE
CY_5345,32.815042859296256,34.948845950562294,CY,CY00,CY000,5345,Λεμίθου,88,6.3330981,2020,CY_5345,TRUE
CY_5350,32.838229665915634,34.87963694312227,CY,CY00,CY000,5350,Κάτω Πλάτρες (Toρνάρηδες),148,8.88692931,2020,CY_5350,TRUE
CY_5351,32.86392288791592,34.88843852064406,CY,CY00,CY000,5351,Πάνω Πλάτρες,239,16.51969091,2020,CY_5351,TRUE
CY_5352,32.83464538341512,34.89682528818433,CY,CY00,CY000,5352,Φοινί,391,21.94647476,2020,CY_5352,TRUE
CY_5355,32.933068622546045,34.91887672207839,CY,CY00,CY000,5355,Αμίαντος,228,9.44913736,2020,CY_5355,TRUE
CY_5356,32.86841090637577,34.93535197229453,CY,CY00,CY000,5356,Τρόοδος,NA,10.877708609999999,2020,CY_5356,TRUE
CY_5360,33.03320050480984,34.89333330552084,CY,CY00,CY000,5360,Άγιος Θεόδωρος Λεμεσού,65,10.3847412,2020,CY_5360,TRUE
CY_5361,33.023331503472384,34.89581771886884,CY,CY00,CY000,5361,Άγιος Ιωάννης Λεμεσού,339,7.94238854,2020,CY_5361,TRUE
CY_5362,33.00895793060262,34.897409719459986,CY,CY00,CY000,5362,Κάτω Μύλος,50,2.41059014,2020,CY_5362,TRUE
CY_5363,32.98756600847727,34.91061774255122,CY,CY00,CY000,5363,Ποταμίτισσα,62,4.56516675,2020,CY_5363,TRUE
CY_5364,32.985469170152456,34.91512756110238,CY,CY00,CY000,5364,Δύμες,165,6.03097518,2020,CY_5364,TRUE
CY_5365,32.968388561098706,34.897353402526775,CY,CY00,CY000,5365,Πελένδρι,1074,32.18602431,2020,CY_5365,TRUE
CY_5366,33.01784147281671,34.91564599369268,CY,CY00,CY000,5366,Αγρός,806,10.07292586,2020,CY_5366,TRUE
CY_5367,32.99007048124266,34.93243421069423,CY,CY00,CY000,5367,Αγρίδια,104,3.68886548,2020,CY_5367,TRUE
CY_5368,32.993658523230835,34.940591514441145,CY,CY00,CY000,5368,Χανδριά,162,3.18153173,2020,CY_5368,TRUE
CY_5369,32.97089000956751,34.93771264390383,CY,CY00,CY000,5369,Κυπερούντα,1516,10.00584931,2020,CY_5369,TRUE
CY_6000,32.429100519710886,34.77733430580212,CY,CY00,CY000,6000,Πάφος,32892,16.93273318,2020,CY_6000,TRUE
CY_6010,32.45143404762036,34.75991180233606,CY,CY00,CY000,6010,Γεροσκήπου,7878,14.41202866,2020,CY_6010,TRUE
CY_6011,32.455877344269176,34.784359783235345,CY,CY00,CY000,6011,Κονιά,2209,6.24558406,2020,CY_6011,TRUE
CY_6012,32.47150513975314,34.76110411897393,CY,CY00,CY000,6012,Αγία Μαρινούδα,266,1.62773235,2020,CY_6012,TRUE
CY_6014,32.482162287794566,34.741820207369784,CY,CY00,CY000,6014,Αχέλεια,145,9.33706302,2020,CY_6014,TRUE
CY_6020,32.411095291196276,34.79718061422475,CY,CY00,CY000,6020,Χλώρακας,5356,4.87040698,2020,CY_6020,TRUE
CY_6021,32.40693719892697,34.80871929380151,CY,CY00,CY000,6021,Λέμπα,506,1.18234373,2020,CY_6021,TRUE
CY_6022,32.42273913648259,34.8027565708985,CY,CY00,CY000,6022,Έμπα,4855,6.64195857,2020,CY_6022,TRUE
CY_6023,32.44388734085628,34.81779982666995,CY,CY00,CY000,6023,Τρεμιθούσα,1041,5.34614342,2020,CY_6023,TRUE
CY_6024,32.46312812215874,34.81076749480656,CY,CY00,CY000,6024,Μέσα Χωριό,586,3.99542546,2020,CY_6024,TRUE
CY_6025,32.45241036006339,34.81265003283138,CY,CY00,CY000,6025,Μεσόγη,1689,4.35805914,2020,CY_6025,TRUE
CY_6026,32.43266722505861,34.83676676928484,CY,CY00,CY000,6026,Τάλα,2695,9.48448005,2020,CY_6026,TRUE
CY_6027,32.40168752491703,34.82200235599471,CY,CY00,CY000,6027,Κισσόνεργα,2004,8.80340431,2020,CY_6027,TRUE
CY_6100,32.588767051047036,34.70198519956829,CY,CY00,CY000,6100,Κούκλια Πάφου,892,41.37411894,2020,CY_6100,TRUE
CY_6101,32.53445465399941,34.7107559587344,CY,CY00,CY000,6101,Μανδριά Πάφου,893,7.13090178,2020,CY_6101,TRUE
CY_6102,32.57425754053409,34.72825940747452,CY,CY00,CY000,6102,Νικόκλεια,121,2.85397107,2020,CY_6102,TRUE
CY_6103,32.595680950892145,34.72347888469566,CY,CY00,CY000,6103,Σουσκιού,10,16.81488595,2020,CY_6103,TRUE
CY_6104,32.51916402251948,34.73270224668458,CY,CY00,CY000,6104,Τίμη,1220,11.03466034,2020,CY_6104,TRUE
CY_6106,32.513573834803765,34.752716036024246,CY,CY00,CY000,6106,Αγία Βαρβάρα Πάφου,172,7.81066239,2020,CY_6106,TRUE
CY_6107,32.53319309238648,34.73851779033905,CY,CY00,CY000,6107,Αναρίτα,876,15.50319871,2020,CY_6107,TRUE
CY_6108,32.55790925224952,34.731575086637655,CY,CY00,CY000,6108,Φοίνικας,0,5.25871892,2020,CY_6108,TRUE
CY_6110,32.48633484382962,34.78808411024617,CY,CY00,CY000,6110,Μαραθούντα,309,12.4633256,2020,CY_6110,TRUE
CY_6111,32.48197474452347,34.797725779203525,CY,CY00,CY000,6111,Άρμου,600,6.78852313,2020,CY_6111,TRUE
CY_6112,32.527152088848695,34.79592935421238,CY,CY00,CY000,6112,Επισκοπή Πάφου,220,13.24236729,2020,CY_6112,TRUE
CY_6113,32.5672299052668,34.77715744485081,CY,CY00,CY000,6113,Νατά,181,12.14955715,2020,CY_6113,TRUE
CY_6114,32.59602863940351,34.76059839805901,CY,CY00,CY000,6114,Χολέτρια,264,7.41408569,2020,CY_6114,TRUE
CY_6115,32.564901184491625,34.805748823207736,CY,CY00,CY000,6115,Αξύλου,61,6.33594208,2020,CY_6115,TRUE
CY_6116,32.56594035945632,34.80904801246644,CY,CY00,CY000,6116,Ελεδιό,44,3.66450977,2020,CY_6116,TRUE
CY_6120,32.47178906576518,34.83482753113571,CY,CY00,CY000,6120,Τσάδα,1043,17.52585257,2020,CY_6120,TRUE
CY_6121,32.43643298739682,34.850784409147685,CY,CY00,CY000,6121,Κοίλη,466,16.44231914,2020,CY_6121,TRUE
CY_6122,32.48197683248423,34.884047769589976,CY,CY00,CY000,6122,Στρουμπί,540,13.20611917,2020,CY_6122,TRUE
CY_6123,32.510444021797916,34.885239039107454,CY,CY00,CY000,6123,Πολέμι,848,12.32593653,2020,CY_6123,TRUE
CY_6124,32.49854729256905,34.847376080271175,CY,CY00,CY000,6124,Καλλέπεια,326,12.12801763,2020,CY_6124,TRUE
CY_6125,32.51287411168767,34.856236426304086,CY,CY00,CY000,6125,Λετύμβου,249,10.17485921,2020,CY_6125,TRUE
CY_6126,32.53241739597249,34.83947466543469,CY,CY00,CY000,6126,Πιταργού,0,6.03212632,2020,CY_6126,TRUE
CY_6127,32.536980743356835,34.85969372829774,CY,CY00,CY000,6127,Κούρδακα,7,1.48668187,2020,CY_6127,FALSE
CY_6128,32.56028586430622,34.863087068567935,CY,CY00,CY000,6128,Λεμώνα,51,7.6381848,2020,CY_6128,TRUE
CY_6129,32.56123174431425,34.87199818591865,CY,CY00,CY000,6129,Χούλου,147,11.83434547,2020,CY_6129,TRUE
CY_6130,32.420684313057876,34.88861518977656,CY,CY00,CY000,6130,Ακουρσός,22,8.2606962,2020,CY_6130,TRUE
CY_6132,32.42801098346636,34.913507163230335,CY,CY00,CY000,6132,Κάθικας,438,18.07477181,2020,CY_6132,TRUE
CY_6133,32.37699782330098,34.87873904401337,CY,CY00,CY000,6133,Πέγεια,3953,47.05936086,2020,CY_6133,TRUE
CY_6200,32.67242143961562,34.74882415949929,CY,CY00,CY000,6200,Πάνω Aρχιμανδρίτα,43,17.79644405,2020,CY_6200,TRUE
CY_6201,32.628690638527075,34.75872683445818,CY,CY00,CY000,6201,Φασούλα Πάφου,56,7.07885333,2020,CY_6201,TRUE
CY_6202,32.71208295007765,34.76872153690376,CY,CY00,CY000,6202,Μούσερε,2,8.28860719,2020,CY_6202,TRUE
CY_6203,32.656785178990866,34.773296457332094,CY,CY00,CY000,6203,Μάρωνας,0,7.05837463,2020,CY_6203,TRUE
CY_6204,32.63318030470261,34.76711212341679,CY,CY00,CY000,6204,Μαμώνια,51,8.18173381,2020,CY_6204,TRUE
CY_6205,32.646725822766875,34.776106174797164,CY,CY00,CY000,6205,Άγιος Γεώργιος Πάφου,101,4.69542357,2020,CY_6205,TRUE
CY_6206,32.61531949510743,34.783728593425586,CY,CY00,CY000,6206,Σταυροκόννου,56,9.2446356,2020,CY_6206,TRUE
CY_6207,32.69656702166308,34.791377216933334,CY,CY00,CY000,6207,Πραστιό Πάφου,8,5.80116777,2020,CY_6207,TRUE
CY_6208,32.67703040067872,34.80135654637472,CY,CY00,CY000,6208,Τραχυπέδουλα,64,8.8537796,2020,CY_6208,TRUE
CY_6210,32.65024402172558,34.812367940151816,CY,CY00,CY000,6210,Κελοκέδαρα,193,17.79800501,2020,CY_6210,TRUE
CY_6211,32.689327165875994,34.84005521045455,CY,CY00,CY000,6211,Σαλαμιού,265,16.17696631,2020,CY_6211,TRUE
CY_6212,32.71269673140958,34.806140941179834,CY,CY00,CY000,6212,Κιδάσι,11,5.82601937,2020,CY_6212,TRUE
CY_6213,32.734137946660994,34.838072911629766,CY,CY00,CY000,6213,Κέδαρες,80,5.03285937,2020,CY_6213,TRUE
CY_6214,32.70260634761442,34.84616436789621,CY,CY00,CY000,6214,Μέσανα,31,4.08470241,2020,CY_6214,TRUE
CY_6215,32.7423138132893,34.842583991135335,CY,CY00,CY000,6215,Πραιτώρι,23,4.24393263,2020,CY_6215,TRUE
CY_6216,32.73647283504302,34.855393241046585,CY,CY00,CY000,6216,Φιλούσα Κελοκεδάρων,17,3.27975429,2020,CY_6216,TRUE
CY_6217,32.720745964842706,34.86230266483104,CY,CY00,CY000,6217,Αρμίνου,24,9.00951813,2020,CY_6217,TRUE
CY_6218,32.753083619430704,34.861581089277664,CY,CY00,CY000,6218,Άγιος Νικόλαος Πάφου,61,27.80269622,2020,CY_6218,TRUE
CY_6219,32.68710926326652,34.86871614922033,CY,CY00,CY000,6219,Άγιος Ιωάννης Πάφου,29,19.79818675,2020,CY_6219,TRUE
CY_6220,32.58204603874962,34.82230578060955,CY,CY00,CY000,6220,Αμαργέτη,209,15.38663592,2020,CY_6220,TRUE
CY_6221,32.61792757509958,34.82990642108693,CY,CY00,CY000,6221,Αγία Μαρίνα Κελοκεδάρων,37,8.00980763,2020,CY_6221,TRUE
CY_6222,32.60055102004745,34.83845748804688,CY,CY00,CY000,6222,Πενταλιά,63,14.09413635,2020,CY_6222,TRUE
CY_6223,32.59461080171639,34.86386743979054,CY,CY00,CY000,6223,Φάλεια,2,4.23626129,2020,CY_6223,TRUE
CY_6224,32.63010708125854,34.876088029036126,CY,CY00,CY000,6224,Γαλαταριά,56,7.94251676,2020,CY_6224,TRUE
CY_6225,32.62774053124517,34.88557417327377,CY,CY00,CY000,6225,Κοιλίνεια,39,5.18345403,2020,CY_6225,TRUE
CY_6226,32.668759683952,34.88270558080243,CY,CY00,CY000,6226,Βρέτσια,1,11.17208981,2020,CY_6226,TRUE
CY_6227,32.62376269956709,34.88472291359859,CY,CY00,CY000,6227,Στατός-Άγιος Φώτιος,243,16.38399261,2020,CY_6227,TRUE
CY_6228,32.592144985609686,34.9036778200768,CY,CY00,CY000,6228,Λαπηθιού,0,4.61389704,2020,CY_6228,FALSE
CY_6229,32.61896408138119,34.92023140043415,CY,CY00,CY000,6229,Μαμούνταλη,18,1.76069672,2020,CY_6229,TRUE
CY_6230,32.63237335830905,34.919956800640804,CY,CY00,CY000,6230,Πάνω Παναγιά,481,53.60933874,2020,CY_6230,TRUE
CY_6231,32.613850895001725,34.924608173097,CY,CY00,CY000,6231,Ασπρογιά,60,11.50584476,2020,CY_6231,TRUE
CY_6300,32.53120730181051,34.89847984832828,CY,CY00,CY000,6300,Ψάθι,110,2.29418856,2020,CY_6300,TRUE
CY_6301,32.5500791376668,34.90310863118432,CY,CY00,CY000,6301,Άγιος Δημητριανός,91,5.40826059,2020,CY_6301,TRUE
CY_6302,32.57675684493878,34.915176069986046,CY,CY00,CY000,6302,Κανναβιού,175,5.1180281,2020,CY_6302,TRUE
CY_6303,32.53177060171273,34.91693165919241,CY,CY00,CY000,6303,Θρινιά,55,5.25292424,2020,CY_6303,TRUE
CY_6304,32.5288690863098,34.906422898392385,CY,CY00,CY000,6304,Μηλιά Πάφου,14,2.07600533,2020,CY_6304,TRUE
CY_6305,32.56211850499236,34.92781746527026,CY,CY00,CY000,6305,Κρίτου Μαρόττου,85,15.72153377,2020,CY_6305,TRUE
CY_6306,32.5478422834105,34.931179933777,CY,CY00,CY000,6306,Φύτη,150,4.74619264,2020,CY_6306,TRUE
CY_6307,32.524101265204294,34.928366873820124,CY,CY00,CY000,6307,Λάσα,67,4.34981373,2020,CY_6307,TRUE
CY_6308,32.51084375981993,34.9224493072908,CY,CY00,CY000,6308,Δρύμου,110,6.7494594,2020,CY_6308,TRUE
CY_6310,32.50576058730431,34.94229795523566,CY,CY00,CY000,6310,Σίμου,185,5.95508115,2020,CY_6310,TRUE
CY_6311,32.563899345464066,34.94646637096549,CY,CY00,CY000,6311,Αναδιού,17,12.55396189,2020,CY_6311,TRUE
CY_6312,32.53544352849164,34.960854380488456,CY,CY00,CY000,6312,Σαραμά,2,3.75184001,2020,CY_6312,FALSE
CY_6313,32.48181563634189,34.961076807869865,CY,CY00,CY000,6313,Ευρέτου,3,3.33570473,2020,CY_6313,FALSE
CY_6314,32.48695844132,34.980353558673876,CY,CY00,CY000,6314,Τριμιθούσα,0,2.47707712,2020,CY_6314,TRUE
CY_6315,32.50344061241598,34.970975171135336,CY,CY00,CY000,6315,Φιλούσα Χρυσοχούς,31,5.10610284,2020,CY_6315,TRUE
CY_6316,32.529348806919415,34.97081624332586,CY,CY00,CY000,6316,Κιός,0,4.4496846,2020,CY_6316,FALSE
CY_6317,32.546088302444375,34.98645143040973,CY,CY00,CY000,6317,Ζαχαριά,0,4.24563093,2020,CY_6317,FALSE
CY_6318,32.50710840251308,34.98873679672476,CY,CY00,CY000,6318,Μελάδεια,17,3.40981866,2020,CY_6318,TRUE
CY_6319,32.53453025781299,34.99074176768971,CY,CY00,CY000,6319,Μελάνδρα,2,3.84823059,2020,CY_6319,FALSE
CY_6320,32.51167556921071,34.997001948242946,CY,CY00,CY000,6320,Λυσός,205,95.2307022,2020,CY_6320,TRUE
CY_6321,32.48766678919608,34.993314577009194,CY,CY00,CY000,6321,Περιστερώνα Πάφου,302,6.06595963,2020,CY_6321,TRUE
CY_6330,32.449943494357726,34.90940271675657,CY,CY00,CY000,6330,Θελέτρα,269,8.78124314,2020,CY_6330,TRUE
CY_6331,32.47647644306553,34.92154577852989,CY,CY00,CY000,6331,Γιόλου,762,9.601873,2020,CY_6331,TRUE
CY_6332,32.44822438015891,34.939637041659196,CY,CY00,CY000,6332,Πάνω Ακουρδάλεια,44,2.6544826,2020,CY_6332,TRUE
CY_6333,32.46009025544193,34.94099644987295,CY,CY00,CY000,6333,Μηλιού,89,2.67703318,2020,CY_6333,TRUE
CY_6334,32.45305917675148,34.95540694375287,CY,CY00,CY000,6334,Κάτω Ακουρδάλεια,65,2.91988831,2020,CY_6334,TRUE
CY_6335,32.435477596044706,34.97675397440382,CY,CY00,CY000,6335,Τέρα,36,6.56301637,2020,CY_6335,TRUE
CY_6336,32.41856193911796,34.95571895463035,CY,CY00,CY000,6336,Κρίτου Τέρα,86,10.59680117,2020,CY_6336,TRUE
CY_6337,32.4519113215489,34.98061506808648,CY,CY00,CY000,6337,Σκούλλη,65,1.88516077,2020,CY_6337,TRUE
CY_6338,32.450039993045415,34.983764439136216,CY,CY00,CY000,6338,Χόλη,83,1.6246605,2020,CY_6338,TRUE
CY_6339,32.46552339951057,34.95191764076677,CY,CY00,CY000,6339,Λουκρούνου,4,2.00488743,2020,CY_6339,TRUE
CY_6340,32.44432979645713,34.99987206378448,CY,CY00,CY000,6340,Καραμούλληδες,33,0.30227844,2020,CY_6340,TRUE
CY_6341,32.44130096062557,35.00518283907147,CY,CY00,CY000,6341,Χρυσοχού,132,6.61924472,2020,CY_6341,TRUE
CY_6343,32.42685957610817,35.03448255382073,CY,CY00,CY000,6343,Πόλις,2018,19.56918933,2020,CY_6343,TRUE
CY_6344,32.36431848031234,35.02972009601094,CY,CY00,CY000,6344,Νέο Χωριό Πάφου,519,42.73151007,2020,CY_6344,TRUE
CY_6345,32.44524454355942,34.99295703091817,CY,CY00,CY000,6345,Γουδί,204,5.10795691,2020,CY_6345,TRUE
CY_6350,32.402868359978,34.94024468734967,CY,CY00,CY000,6350,Κάτω Αρόδες,39,10.66252719,2020,CY_6350,TRUE
CY_6351,32.41100097894088,34.93780237649786,CY,CY00,CY000,6351,Πάνω Αρόδες,135,14.61886808,2020,CY_6351,TRUE
CY_6352,32.395452802246695,34.955807292081914,CY,CY00,CY000,6352,'Ινεια,385,34.12679728,2020,CY_6352,TRUE
CY_6353,32.397628946713866,34.96012890147938,CY,CY00,CY000,6353,Δρούσεια,405,35.4174185,2020,CY_6353,TRUE
CY_6354,32.35204277505529,34.99478404152612,CY,CY00,CY000,6354,Φάσλι,0,5.44779491,2020,CY_6354,TRUE
CY_6355,32.35329427213265,34.99912332112054,CY,CY00,CY000,6355,Ανδρολίκου,34,19.91163363,2020,CY_6355,TRUE
CY_6360,32.47494924291836,35.02490237276089,CY,CY00,CY000,6360,Πελαθούσα,57,7.38825954,2020,CY_6360,TRUE
CY_6361,32.51176889286103,35.03443850490053,CY,CY00,CY000,6361,Κυνούσα,71,8.5625131,2020,CY_6361,TRUE
CY_6362,32.48361251632794,35.05411141253407,CY,CY00,CY000,6362,Μακούντα,116,6.73172368,2020,CY_6362,TRUE
CY_6363,32.488959494672685,35.06870203686114,CY,CY00,CY000,6363,Αργάκα,1078,16.15975854,2020,CY_6363,TRUE
CY_6364,32.50616538099351,35.098551211791886,CY,CY00,CY000,6364,Γιαλιά,202,36.87147099,2020,CY_6364,TRUE
CY_6365,32.51609782935078,35.11845646438618,CY,CY00,CY000,6365,Αγία Μαρίνα Χρυσοχούς,647,12.13456814,2020,CY_6365,TRUE
CY_6366,32.521268945109405,35.13507158838401,CY,CY00,CY000,6366,Νέα Δήμματα,50,3.00549623,2020,CY_6366,TRUE
CY_6367,32.55176495355248,35.16511803199484,CY,CY00,CY000,6367,Πομός,448,18.79636201,2020,CY_6367,TRUE
CY_6368,32.47026447950615,34.99801943386265,CY,CY00,CY000,6368,Στενή,173,7.88798512,2020,CY_6368,TRUE
CY_6369,32.46794155691801,35.00306300068823,CY,CY00,CY000,6369,Άγιος Ισίδωρος,7,1.21658319,2020,CY_6369,TRUE
CY_6370,32.60115530956921,35.099001785248454,CY,CY00,CY000,6370,Λιβάδι,0,40.2764204,2020,CY_6370,FALSE
