gisco_id,longitude,latitude,country,nuts_2,nuts_3,lau_id,lau_name,population,area_km2,year,fid,pop_weighted
LV_0010000,24.136696852700986,56.95357860578663,LV,LV00,LV006,0010000,Rīga,627487,304.15523163,2020,LV_0010000,TRUE
LV_0050000,26.540413930287507,55.882925322509585,LV,LV00,LV005,0050000,Daugavpils,82046,72.38305633,2020,LV_0050000,TRUE
LV_0090000,23.71784997472457,56.65241828926798,LV,LV00,LV009,0090000,Jelgava,56062,60.55100502,2020,LV_0090000,TRUE
LV_0110000,25.865751175084654,56.496111569039996,LV,LV00,LV009,0110000,Jēkabpils,21928,25.47897611,2020,LV_0110000,TRUE
LV_0130000,23.63127173526471,56.95895159299518,LV,LV00,LV007,0130000,Jūrmala,49687,100.40074938,2020,LV_0130000,TRUE
LV_0170000,21.013813754434878,56.51228527248475,LV,LV00,LV003,0170000,Liepāja,68535,60.99230974,2020,LV_0170000,TRUE
LV_0210000,27.341240305167922,56.51556991669019,LV,LV00,LV005,0210000,Rēzekne,27613,17.4861816,2020,LV_0210000,TRUE
LV_0250000,25.419944327396866,57.53575792590576,LV,LV00,LV008,0250000,Valmiera,23050,19.37371717,2020,LV_0250000,TRUE
LV_0270000,21.576274527121736,57.393243732202755,LV,LV00,LV003,0270000,Ventspils,33906,57.97216115,2020,LV_0270000,TRUE
LV_0320200,25.25796250721876,56.6019928311913,LV,LV00,LV009,0320200,Aizkraukles novads,8024,102.24102684,2020,LV_0320200,TRUE
LV_0321000,25.149968061465884,56.58966564805361,LV,LV00,LV009,0321000,Jaunjelgavas novads,5061,684.7071147,2020,LV_0321000,TRUE
LV_0321400,25.721049688856958,56.618840346093705,LV,LV00,LV009,0321400,Pļaviņu novads,4808,375.96773008,2020,LV_0321400,TRUE
LV_0326100,25.43966281408959,56.65770343334183,LV,LV00,LV009,0326100,Kokneses novads,4922,360.78599013,2020,LV_0326100,TRUE
LV_0327100,25.26859107256928,56.22170665312705,LV,LV00,LV009,0327100,Neretas novads,3284,645.03388531,2020,LV_0327100,TRUE
LV_0328200,25.12163578971668,56.64679829858769,LV,LV00,LV009,0328200,Skrīveru novads,3337,105.42405669,2020,LV_0328200,TRUE
LV_0360200,27.050759581233244,57.4208601088043,LV,LV00,LV008,0360200,Alūksnes novads,13895,1698.22390706,2020,LV_0360200,TRUE
LV_0360800,26.599226270755135,57.51254769792308,LV,LV00,LV008,0360800,Apes novads,3220,545.12867306,2020,LV_0360800,TRUE
LV_0380200,27.268030319418013,57.12662101004869,LV,LV00,LV005,0380200,Balvu novads,11715,1044.96870204,2020,LV_0380200,TRUE
LV_0381600,27.655310194828594,57.19302597445335,LV,LV00,LV005,0381600,Viļakas novads,4472,640.5446871,2020,LV_0381600,TRUE
LV_0384400,27.646391975060087,56.943439078453615,LV,LV00,LV005,0384400,Baltinavas novads,947,186.51887485,2020,LV_0384400,TRUE
LV_0387500,27.12660594454502,56.98439990432389,LV,LV00,LV005,0387500,Rugāju novads,2061,514.8897801,2020,LV_0387500,TRUE
LV_0400200,24.1960988821302,56.40492151969589,LV,LV00,LV009,0400200,Bauskas novads,22442,786.58491285,2020,LV_0400200,TRUE
LV_0406400,24.200530304094023,56.59657481675755,LV,LV00,LV009,0406400,Iecavas novads,8353,312.09312061,2020,LV_0406400,TRUE
LV_0407700,24.00205485809723,56.40829985051646,LV,LV00,LV009,0407700,Rundāles novads,3307,231.42290595,2020,LV_0407700,TRUE
LV_0409500,24.51632490170616,56.566584862567915,LV,LV00,LV009,0409500,Vecumnieku novads,7665,845.04180631,2020,LV_0409500,TRUE
LV_0420200,25.274733245372545,57.31099126605788,LV,LV00,LV008,0420200,Cēsu novads,16291,172.93462866,2020,LV_0420200,TRUE
LV_0421200,25.039373635198455,57.204711798841984,LV,LV00,LV008,0421200,Līgatnes novads,3266,167.62625826,2020,LV_0421200,TRUE
LV_0424701,25.256583145854123,57.16504446176163,LV,LV00,LV008,0424701,Amatas novads,4979,745.87919335,2020,LV_0424701,TRUE
LV_0425700,26.01669677418822,57.174003194689654,LV,LV00,LV008,0425700,Jaunpiebalgas novads,1982,251.28765919,2020,LV_0425700,TRUE
LV_0427300,25.40228512339684,57.36574941636412,LV,LV00,LV008,0427300,Priekuļu novads,7556,301.6735485,2020,LV_0427300,TRUE
LV_0427500,25.038897372808712,57.35272782218503,LV,LV00,LV008,0427500,Pārgaujas novads,3576,486.55298904,2020,LV_0427500,TRUE
LV_0427700,25.609446796793122,57.33310022275598,LV,LV00,LV008,0427700,Raunas novads,3019,308.99669695,2020,LV_0427700,TRUE
LV_0429300,25.747829897575986,57.105165387175596,LV,LV00,LV008,0429300,Vecpiebalgas novads,3555,542.1949453,2020,LV_0429300,TRUE
LV_0440200,26.610403643673088,55.908369995190654,LV,LV00,LV005,0440200,Daugavpils novads,19639,1876.16466457,2020,LV_0440200,TRUE
LV_0440801,26.256879589786088,55.98082060697512,LV,LV00,LV005,0440801,Ilūkstes novads,6412,647.40526793,2020,LV_0440801,TRUE
LV_0460200,23.28019364255481,56.622604679035106,LV,LV00,LV009,0460200,Dobeles novads,19286,888.56094228,2020,LV_0460200,TRUE
LV_0460800,22.928629633457852,56.46718865298066,LV,LV00,LV009,0460800,Auces novads,6009,516.96263562,2020,LV_0460800,TRUE
LV_0468900,23.34074007758587,56.4656141002168,LV,LV00,LV009,0468900,Tērvetes novads,3302,223.78501436,2020,LV_0468900,TRUE
LV_0500200,26.749094705537313,57.16923901121496,LV,LV00,LV008,0500200,Gulbenes novads,19771,1872.19958827,2020,LV_0500200,TRUE
LV_0540200,23.645934026665866,56.61282140715945,LV,LV00,LV009,0540200,Jelgavas novads,21738,1317.99920908,2020,LV_0540200,TRUE
LV_0546701,23.80058969286271,56.678118906038385,LV,LV00,LV009,0546701,Ozolnieku novads,10019,286.12079868,2020,LV_0546701,TRUE
LV_0560200,25.98197273276646,56.361591186820604,LV,LV00,LV009,0560200,Jēkabpils novads,4156,905.72679761,2020,LV_0560200,TRUE
LV_0560800,25.769575958594388,56.14722526338912,LV,LV00,LV009,0560800,Aknīstes novads,2520,284.68804046,2020,LV_0560800,TRUE
LV_0561800,25.554124866984022,56.335474716053696,LV,LV00,LV009,0561800,Viesītes novads,3500,651.2471488,2020,LV_0561800,TRUE
LV_0566900,26.01952178970449,56.52757577533484,LV,LV00,LV009,0566900,Krustpils novads,5453,811.69245405,2020,LV_0566900,TRUE
LV_0568700,25.761984309345568,56.49852499255011,LV,LV00,LV009,0568700,Salas novads,3233,317.34130388,2020,LV_0568700,TRUE
LV_0600202,27.18205876269843,55.89610505886162,LV,LV00,LV005,0600202,Krāslavas novads,13770,1078.93191425,2020,LV_0600202,TRUE
LV_0601000,27.544849168374395,56.100547281340546,LV,LV00,LV005,0601000,Dagdas novads,6549,949.15009202,2020,LV_0601000,TRUE
LV_0604300,27.037546699284103,56.12129574946449,LV,LV00,LV005,0604300,Aglonas novads,3099,392.5468882,2020,LV_0604300,TRUE
LV_0620200,21.96295801670977,56.96717771085751,LV,LV00,LV003,0620200,Kuldīgas novads,22028,1757.40823271,2020,LV_0620200,TRUE
LV_0621200,22.01161938455842,56.6690457154546,LV,LV00,LV003,0621200,Skrundas novads,4543,556.92303131,2020,LV_0621200,TRUE
LV_0624200,21.567274652942437,56.977675790151935,LV,LV00,LV003,0624200,Alsungas novads,1268,190.91034005,2020,LV_0624200,TRUE
LV_0640600,21.603929910840826,56.71817403867919,LV,LV00,LV003,0640600,Aizputes novads,8057,640.03846121,2020,LV_0640600,TRUE
LV_0640801,21.35432953774593,56.59458012952199,LV,LV00,LV003,0640801,Durbes novads,2601,320.47811924,2020,LV_0640801,TRUE
LV_0641000,21.174743278363064,56.534235463131736,LV,LV00,LV003,0641000,Grobiņas novads,8347,489.90537057,2020,LV_0641000,TRUE
LV_0641401,21.196519597479412,56.83203606502756,LV,LV00,LV003,0641401,Pāvilostas novads,2524,515.06145688,2020,LV_0641401,TRUE
LV_0641600,21.581911042912203,56.4435805778106,LV,LV00,LV003,0641600,Priekules novads,4997,519.83931162,2020,LV_0641600,TRUE
LV_0647900,21.027169972169574,56.45758078837232,LV,LV00,LV003,0647900,Nīcas novads,3100,350.8948715,2020,LV_0647900,TRUE
LV_0648500,21.180422982754056,56.18070971483722,LV,LV00,LV003,0648500,Rucavas novads,1451,448.21675534,2020,LV_0648500,TRUE
LV_0649300,21.854407374493896,56.42349771906462,LV,LV00,LV003,0649300,Vaiņodes novads,2235,306.93019483,2020,LV_0649300,TRUE
LV_0660200,24.710021928039833,57.50867464601574,LV,LV00,LV007,0660200,Limbažu novads,16507,1171.13746823,2020,LV_0660200,TRUE
LV_0661000,24.851935439792786,57.77378473256693,LV,LV00,LV007,0661000,Alojas novads,4492,631.37364878,2020,LV_0661000,TRUE
LV_0661400,24.370684412792386,57.74574060835682,LV,LV00,LV007,0661400,Salacgrīvas novads,7152,637.91419188,2020,LV_0661400,TRUE
LV_0680200,27.716059118115922,56.540320215072605,LV,LV00,LV005,0680200,Ludzas novads,11920,964.78342654,2020,LV_0680200,TRUE
LV_0681000,27.683498387017686,56.779968853042874,LV,LV00,LV005,0681000,Kārsavas novads,5193,628.16727816,2020,LV_0681000,TRUE
LV_0681801,28.12286649843255,56.377192455467366,LV,LV00,LV005,0681801,Zilupes novads,2575,308.92954632,2020,LV_0681801,TRUE
LV_0684901,27.764909387834866,56.570957495119806,LV,LV00,LV005,0684901,Ciblas novads,2355,509.56789501,2020,LV_0684901,TRUE
LV_0700200,26.215955333960206,56.84616168783372,LV,LV00,LV008,0700200,Madonas novads,21879,2160.12527851,2020,LV_0700200,TRUE
LV_0700800,26.30567444644826,56.97035096971119,LV,LV00,LV008,0700800,Cesvaines novads,2266,190.38798589,2020,LV_0700800,TRUE
LV_0701400,26.715462140059774,56.90309521006118,LV,LV00,LV008,0701400,Lubānas novads,2148,347.04152549,2020,LV_0701400,TRUE
LV_0701800,26.746782264110333,56.6123835885092,LV,LV00,LV008,0701800,Varakļānu novads,2990,277.97086237,2020,LV_0701800,TRUE
LV_0705500,25.63686019655088,56.89615392004626,LV,LV00,LV008,0705500,Ērgļu novads,2611,379.13478594,2020,LV_0705500,TRUE
LV_0740202,24.613896354034136,56.81805454138062,LV,LV00,LV007,0740202,Ogres novads,32987,991.15361736,2020,LV_0740202,TRUE
LV_0740600,24.529895273536333,56.832591477993375,LV,LV00,LV007,0740600,Ikšķiles novads,9888,130.66243916,2020,LV_0740600,TRUE
LV_0741001,24.754667087008244,56.734145087384036,LV,LV00,LV007,0741001,Ķeguma novads,5281,491.90172535,2020,LV_0741001,TRUE
LV_0741401,24.83468835888488,56.717612523971965,LV,LV00,LV007,0741401,Lielvārdes novads,9597,225.62092845,2020,LV_0741401,TRUE
LV_0760202,26.72457703031115,56.29388856878595,LV,LV00,LV005,0760202,Preiļu novads,9054,364.01945722,2020,LV_0760202,TRUE
LV_0761201,26.18114844950812,56.351442598052145,LV,LV00,LV005,0761201,Līvānu novads,10698,622.60045349,2020,LV_0761201,TRUE
LV_0766300,26.794794779620222,56.33923001468379,LV,LV00,LV005,0766300,Riebiņu novads,4513,629.82810289,2020,LV_0766300,TRUE
LV_0769101,26.508209525010802,56.224412549809074,LV,LV00,LV005,0769101,Vārkavas novads,1793,287.65024683,2020,LV_0769101,TRUE
LV_0780200,27.269203742031582,56.4761588563695,LV,LV00,LV005,0780200,Rēzeknes novads,24127,2524.12878053,2020,LV_0780200,TRUE
LV_0781800,26.92370022111192,56.548599636895155,LV,LV00,LV005,0781800,Viļānu novads,5417,286.82575351,2020,LV_0781800,TRUE
LV_0800600,24.388139331409185,56.742153790364185,LV,LV00,LV007,0800600,Baldones novads,5387,179.05583089,2020,LV_0800600,TRUE
LV_0800800,24.18162416297634,56.86025107012408,LV,LV00,LV007,0800800,Ķekavas novads,24306,275.40185648,2020,LV_0800800,TRUE
LV_0801000,23.942078665425953,56.788387326519974,LV,LV00,LV007,0801000,Olaines novads,19667,298.62878158,2020,LV_0801000,TRUE
LV_0801200,24.340236895473353,56.857658545796006,LV,LV00,LV007,0801200,Salaspils novads,22758,122.8525555,2020,LV_0801200,TRUE
LV_0801400,24.4210824824235,57.2677786802009,LV,LV00,LV007,0801400,Saulkrastu novads,6735,47.65115539,2020,LV_0801400,TRUE
LV_0801601,24.865976475627082,57.15238522859409,LV,LV00,LV007,0801601,Siguldas novads,17992,361.13072052,2020,LV_0801601,TRUE
LV_0801800,24.58311716993473,57.0981130302164,LV,LV00,LV007,0801800,Inčukalna novads,7640,111.83940613,2020,LV_0801800,TRUE
LV_0804400,24.33691957487393,57.078529606790916,LV,LV00,LV007,0804400,Ādažu novads,11625,162.63314466,2020,LV_0804400,TRUE
LV_0804900,23.91895514940672,56.94961669232619,LV,LV00,LV007,0804900,Babītes novads,11131,243.40518144,2020,LV_0804900,TRUE
LV_0805200,24.26649530793284,57.12391766075216,LV,LV00,LV007,0805200,Carnikavas novads,8934,80.74340036,2020,LV_0805200,TRUE
LV_0806000,24.344395964151065,57.01507893701648,LV,LV00,LV007,0806000,Garkalnes novads,8923,152.50421632,2020,LV_0806000,TRUE
LV_0806900,24.732519292998024,57.20355757860195,LV,LV00,LV007,0806900,Krimuldas novads,4807,341.28219028,2020,LV_0806900,TRUE
LV_0807400,24.950141677950445,57.00786421803616,LV,LV00,LV007,0807400,Mālpils novads,3331,220.84815691,2020,LV_0807400,TRUE
LV_0807600,24.034094008883073,56.89497563341704,LV,LV00,LV007,0807600,Mārupes novads,20753,103.830468,2020,LV_0807600,TRUE
LV_0808400,24.488028064187287,56.96798625808498,LV,LV00,LV007,0808400,Ropažu novads,6835,325.00014139,2020,LV_0808400,TRUE
LV_0809200,24.61265862989136,57.204351706812,LV,LV00,LV007,0809200,Sējas novads,2156,230.17272402,2020,LV_0809200,TRUE
LV_0809600,24.29229716636826,56.93387062292929,LV,LV00,LV007,0809600,Stopiņu novads,11458,53.4545538,2020,LV_0809600,TRUE
LV_0840200,22.474709423123077,56.658421226563654,LV,LV00,LV003,0840200,Saldus novads,21587,1683.04407109,2020,LV_0840200,TRUE
LV_0840601,22.572141483343582,56.68049970559838,LV,LV00,LV003,0840601,Brocēnu novads,5633,496.62417761,2020,LV_0840601,TRUE
LV_0880200,22.58541945808094,57.24215839990135,LV,LV00,LV003,0880200,Talsu novads,27425,1763.94094296,2020,LV_0880200,TRUE
LV_0885100,22.36899131546176,57.52836436552809,LV,LV00,LV003,0885100,Dundagas novads,3571,675.85827037,2020,LV_0885100,TRUE
LV_0887600,23.114690714564706,57.33836626254002,LV,LV00,LV003,0887600,Mērsraga novads,1407,109.33371277,2020,LV_0887600,TRUE
LV_0888301,22.79750920987367,57.500660159913856,LV,LV00,LV003,0888301,Rojas novads,3368,200.75257218,2020,LV_0888301,TRUE
LV_0900200,23.159409113507596,56.96670274593725,LV,LV00,LV007,0900200,Tukuma novads,27613,1195.15583727,2020,LV_0900200,TRUE
LV_0901201,22.770343805500673,57.03167039515255,LV,LV00,LV007,0901201,Kandavas novads,7559,648.9578348,2020,LV_0901201,TRUE
LV_0905100,23.29294047427751,57.02111717915621,LV,LV00,LV007,0905100,Engures novads,7124,396.37696223,2020,LV_0905100,TRUE
LV_0905700,23.00475538533981,56.73263594293097,LV,LV00,LV007,0905700,Jaunpils novads,2141,209.47079169,2020,LV_0905700,TRUE
LV_0940200,26.01447791852625,57.77521450474556,LV,LV00,LV008,0940200,Valkas novads,7603,908.81231591,2020,LV_0940200,TRUE
LV_0941600,25.91475891719276,57.420931485929614,LV,LV00,LV008,0941600,Smiltenes novads,11985,947.26712993,2020,LV_0941600,TRUE
LV_0941800,25.726209606425872,57.64284711508789,LV,LV00,LV008,0941800,Strenču novads,2838,375.49141178,2020,LV_0941800,TRUE
LV_0960200,25.28831217328631,57.52560148381494,LV,LV00,LV008,0960200,Kocēnu novads,5783,498.83251204,2020,LV_0960200,TRUE
LV_0961000,25.056001142904623,57.865983402874306,LV,LV00,LV008,0961000,Mazsalacas novads,2880,417.39137252,2020,LV_0961000,TRUE
LV_0961600,25.33646904298447,57.89524000936209,LV,LV00,LV008,0961600,Rūjienas novads,4824,352.81718089,2020,LV_0961600,TRUE
LV_0964700,25.550114671810828,57.504036857976125,LV,LV00,LV008,0964700,Beverīnas novads,2927,300.6406835,2020,LV_0964700,TRUE
LV_0967101,25.40982496781502,57.58859418272432,LV,LV00,LV008,0967101,Burtnieku novads,7369,702.6039762,2020,LV_0967101,TRUE
LV_0967300,25.433277500838763,57.888328503196036,LV,LV00,LV008,0967300,Naukšēnu novads,1675,280.66157992,2020,LV_0967300,TRUE
LV_0980200,21.78223291729563,57.27800519247876,LV,LV00,LV003,0980200,Ventspils novads,10824,2458.00600808,2020,LV_0980200,TRUE
