gisco_id,longitude,latitude,country,nuts_2,nuts_3,lau_id,lau_name,population,area_km2,year,fid,pop_weighted
UK_E06000001,-1.228383247760887,54.68192697832553,UK,UKC1,UKC11,E06000001,Hartlepool,93242,93.91347565,2020,UK_E06000001,TRUE
UK_E06000002,-1.2305962606967387,54.555543754044194,UK,UKC1,UKC12,E06000002,Middlesbrough,140545,54.59449838,2020,UK_E06000002,TRUE
UK_E06000003,-1.075630185064375,54.57396411044671,UK,UKC1,UKC12,E06000003,Redcar and Cleveland,136718,246.39713566,2020,UK_E06000003,TRUE
UK_E06000004,-1.319683301381912,54.56706545212115,UK,UKC1,UKC11,E06000004,Stockton-on-Tees,197213,207.23128285,2020,UK_E06000004,TRUE
UK_E06000005,-1.5519303553833002,54.53111521896139,UK,UKC1,UKC13,E06000005,Darlington,106566,197.6103177,2020,UK_E06000005,TRUE
UK_E06000006,-2.7218286360880732,53.35150568761544,UK,UKD7,UKD71,E06000006,Halton,128432,82.180164,2020,UK_E06000006,TRUE
UK_E06000007,-2.584783559326961,53.39728956415456,UK,UKD6,UKD61,E06000007,Warrington,209547,182.50827777,2020,UK_E06000007,TRUE
UK_E06000008,-2.4809319050842387,53.73823719543612,UK,UKD4,UKD41,E06000008,Blackburn with Darwen,148942,137.12426333,2020,UK_E06000008,TRUE
UK_E06000009,-3.0356944078902752,53.815483399692766,UK,UKD4,UKD42,E06000009,Blackpool,139305,34.89214667,2020,UK_E06000009,TRUE
UK_E06000010,-0.3434857360730969,53.763729847379835,UK,UKE1,UKE11,E06000010,"Kingston upon Hull, City of",260645,71.89417273,2020,UK_E06000010,TRUE
UK_E06000011,-0.45858090795449435,53.843766979872854,UK,UKE1,UKE12,E06000011,East Riding of Yorkshire,339614,2417.25629342,2020,UK_E06000011,TRUE
UK_E06000012,-0.0819169020677611,53.55904311121981,UK,UKE1,UKE13,E06000012,North East Lincolnshire,159821,192.71253963,2020,UK_E06000012,TRUE
UK_E06000013,-0.6286896047531563,53.58405447090302,UK,UKE1,UKE13,E06000013,North Lincolnshire,172005,854.65211139,2020,UK_E06000013,TRUE
UK_E06000014,-1.0843032676210165,53.96230195049296,UK,UKE2,UKE21,E06000014,York,209893,272.17365049,2020,UK_E06000014,TRUE
UK_E06000015,-1.4743246382237667,52.91107504189358,UK,UKF1,UKF11,E06000015,Derby,257174,78.08656495,2020,UK_E06000015,TRUE
UK_E06000016,-1.1224683991936844,52.635294206237894,UK,UKF2,UKF21,E06000016,Leicester,355218,73.39136784,2020,UK_E06000016,TRUE
UK_E06000017,-0.698890857491011,52.65923200229907,UK,UKF2,UKF22,E06000017,Rutland,39697,393.96708067,2020,UK_E06000017,TRUE
UK_E06000018,-1.1684664048912892,52.96370459155106,UK,UKF1,UKF14,E06000018,Nottingham,331069,74.65998703,2020,UK_E06000018,TRUE
UK_E06000019,-2.6944074330212686,52.06270336790865,UK,UKG1,UKG11,E06000019,"Herefordshire, County of",192107,2181.24110764,2020,UK_E06000019,TRUE
UK_E06000020,-2.459338588468381,52.68851053100063,UK,UKG2,UKG21,E06000020,Telford and Wrekin,177799,290.53483889,2020,UK_E06000020,TRUE
UK_E06000021,-2.1621875150673096,53.01871094283231,UK,UKG2,UKG23,E06000021,Stoke-on-Trent,255833,93.52116488,2020,UK_E06000021,TRUE
UK_E06000022,-2.402588518065369,51.37132238821643,UK,UKK1,UKK12,E06000022,Bath and North East Somerset,192106,351.38256433,2020,UK_E06000022,TRUE
UK_E06000023,-2.585460348179151,51.45972023379338,UK,UKK1,UKK11,E06000023,"Bristol, City of",463405,111.21698888,2020,UK_E06000023,TRUE
UK_E06000024,-2.878021221967253,51.38757723606193,UK,UKK1,UKK12,E06000024,North Somerset,213919,375.03963533,2020,UK_E06000024,TRUE
UK_E06000025,-2.5026057658995122,51.50112467369611,UK,UKK1,UKK12,E06000025,South Gloucestershire,282644,497.44614654,2020,UK_E06000025,TRUE
UK_E06000026,-4.134623742913605,50.38769340432153,UK,UKK4,UKK41,E06000026,Plymouth,263100,80.22673816,2020,UK_E06000026,TRUE
UK_E06000027,-3.547369321690784,50.4547702833781,UK,UKK4,UKK42,E06000027,Torbay,135780,63.00080673,2020,UK_E06000027,TRUE
UK_E06000030,-1.7845772524137637,51.57082788818871,UK,UKK1,UKK14,E06000030,Swindon,221996,230.26201488,2020,UK_E06000030,TRUE
UK_E06000031,-0.2546882850328775,52.58097966795199,UK,UKH1,UKH11,E06000031,Peterborough,201041,343.60906801,2020,UK_E06000031,TRUE
UK_E06000032,-0.4311568784006841,51.891920238930936,UK,UKH2,UKH21,E06000032,Luton,214109,43.37639785,2020,UK_E06000032,TRUE
UK_E06000033,0.7039806389599811,51.54578234516864,UK,UKH3,UKH31,E06000033,Southend-on-Sea,182463,41.71712141,2020,UK_E06000033,TRUE
UK_E06000034,0.3437867266273926,51.49433479937604,UK,UKH3,UKH32,E06000034,Thurrock,172525,170.26754214,2020,UK_E06000034,TRUE
UK_E06000035,0.5384403435245352,51.377063500211825,UK,UKJ4,UKJ41,E06000035,Medway,277855,197.04505622,2020,UK_E06000035,TRUE
UK_E06000036,-0.7565744674536462,51.39694440905411,UK,UKJ1,UKJ11,E06000036,Bracknell Forest,121676,109.43611846,2020,UK_E06000036,TRUE
UK_E06000037,-1.2513816750014966,51.41497524537628,UK,UKJ1,UKJ11,E06000037,West Berkshire,158527,704.68285099,2020,UK_E06000037,TRUE
UK_E06000038,-0.980528757754982,51.45115928523831,UK,UKJ1,UKJ11,E06000038,Reading,163203,40.4244528,2020,UK_E06000038,TRUE
UK_E06000039,-0.5968135356818707,51.51312682295231,UK,UKJ1,UKJ11,E06000039,Slough,149112,32.55882241,2020,UK_E06000039,TRUE
UK_E06000040,-0.6874865100033254,51.4979927407664,UK,UKJ1,UKJ11,E06000040,Windsor and Maidenhead,150906,198.53343853,2020,UK_E06000040,TRUE
UK_E06000041,-0.8888716669046606,51.42990656513459,UK,UKJ1,UKJ11,E06000041,Wokingham,167979,179.07458399,2020,UK_E06000041,TRUE
UK_E06000042,-0.7543097191113073,52.03503069359966,UK,UKJ1,UKJ12,E06000042,Milton Keynes,268607,308.81282904,2020,UK_E06000042,TRUE
UK_E06000043,-0.14652768559289486,50.833948524520345,UK,UKJ2,UKJ21,E06000043,Brighton and Hove,290395,82.86861144,2020,UK_E06000043,TRUE
UK_E06000044,-1.075559559464764,50.80528182434904,UK,UKJ3,UKJ31,E06000044,Portsmouth,215133,40.40356598,2020,UK_E06000044,TRUE
UK_E06000045,-1.3980825700127424,50.91887848457852,UK,UKJ3,UKJ32,E06000045,Southampton,252796,52.10491277,2020,UK_E06000045,TRUE
UK_E06000046,-1.2348296165658177,50.70259030547115,UK,UKJ3,UKJ34,E06000046,Isle of Wight,141538,382.1417467,2020,UK_E06000046,TRUE
UK_E06000047,-1.5901421285578676,54.76467917093254,UK,UKC1,UKC14,E06000047,County Durham,526980,2233.10672164,2020,UK_E06000047,TRUE
UK_E06000049,-2.321991550696841,53.18194981196269,UK,UKD6,UKD62,E06000049,Cheshire East,380790,1167.19899252,2020,UK_E06000049,TRUE
UK_E06000050,-2.795552146609067,53.23181268149137,UK,UKD6,UKD63,E06000050,Cheshire West and Chester,340502,919.73635828,2020,UK_E06000050,TRUE
UK_E06000051,-2.7239306440691107,52.7208495146284,UK,UKG2,UKG22,E06000051,Shropshire,320274,3199.45446391,2020,UK_E06000051,TRUE
UK_E06000052,-4.96571045022085,50.31098179364939,UK,UKK3,UKK30,E06000052,Cornwall,565968,3561.62309893,2020,UK_E06000052,TRUE
UK_E06000053,-6.306006935494783,49.91350002977732,UK,UKK3,UKK30,E06000053,Isles of Scilly,2242,17.06905579,2020,UK_E06000053,TRUE
UK_E06000054,-2.016621546309775,51.31299833580565,UK,UKK1,UKK15,E06000054,Wiltshire,498064,3257.83390237,2020,UK_E06000054,TRUE
UK_E06000055,-0.4697484220881338,52.13503543665242,UK,UKH2,UKH24,E06000055,Bedford,171623,476.63646203,2020,UK_E06000055,TRUE
UK_E06000056,-0.48110426840602166,51.96364022683941,UK,UKH2,UKH25,E06000056,Central Bedfordshire,283606,716.00712427,2020,UK_E06000056,TRUE
UK_E06000057,-1.6463633140221847,55.15241710992181,UK,UKC2,UKC21,E06000057,Northumberland,320274,5039.11139594,2020,UK_E06000057,TRUE
UK_E06000058,-1.8822537320457944,50.73680309249569,UK,UKK2,UKK24,E06000058,"Bournemouth, Christchurch and Poole",NA,164.37177089,2020,UK_E06000058,TRUE
UK_E06000059,-2.27020284215871,50.75136789462012,UK,UKK2,UKK25,E06000059,Dorset,NA,2498.96334791,2020,UK_E06000059,TRUE
UK_E07000004,-0.8265142603059521,51.83445146015073,UK,UKJ1,UKJ13,E07000004,Aylesbury Vale,199448,903.32206421,2020,UK_E07000004,TRUE
UK_E07000005,-0.6094902350747416,51.680880534683816,UK,UKJ1,UKJ13,E07000005,Chiltern,95927,196.45336351,2020,UK_E07000005,TRUE
UK_E07000006,-0.6054857342394734,51.549500764460575,UK,UKJ1,UKJ13,E07000006,South Bucks,70043,141.35747471,2020,UK_E07000006,TRUE
UK_E07000007,-0.7537066417324632,51.62828214937543,UK,UKJ1,UKJ13,E07000007,Wycombe,174641,324.7605202,2020,UK_E07000007,TRUE
UK_E07000008,0.13341042028468492,52.20467853551664,UK,UKH1,UKH12,E07000008,Cambridge,125758,40.7057044,2020,UK_E07000008,TRUE
UK_E07000009,0.2861686125979888,52.37711770656701,UK,UKH1,UKH12,E07000009,East Cambridgeshire,89362,651.81827415,2020,UK_E07000009,TRUE
UK_E07000010,0.0773495921205171,52.58121030707288,UK,UKH1,UKH12,E07000010,Fenland,101491,547.49444341,2020,UK_E07000010,TRUE
UK_E07000011,-0.1875169339099707,52.326662146637155,UK,UKH1,UKH12,E07000011,Huntingdonshire,177352,912.91219769,2020,UK_E07000011,TRUE
UK_E07000012,0.07563651681855811,52.204452767563836,UK,UKH1,UKH12,E07000012,South Cambridgeshire,157519,901.95290986,2020,UK_E07000012,TRUE
UK_E07000026,-3.4513758630031113,54.67143954611022,UK,UKD1,UKD11,E07000026,Allerdale,97527,1259.89615176,2020,UK_E07000026,TRUE
UK_E07000027,-3.2127073733992524,54.12381012849033,UK,UKD1,UKD11,E07000027,Barrow-in-Furness,67137,78.0779498,2020,UK_E07000027,TRUE
UK_E07000028,-2.929930752626105,54.89158262245386,UK,UKD1,UKD12,E07000028,Carlisle,108387,1046.30056908,2020,UK_E07000028,TRUE
UK_E07000029,-3.5203845427670046,54.483786793198774,UK,UKD1,UKD11,E07000029,Copeland,68424,738.3167307,2020,UK_E07000029,TRUE
UK_E07000030,-2.707677651796967,54.65184914367868,UK,UKD1,UKD12,E07000030,Eden,52881,2157.96269943,2020,UK_E07000030,TRUE
UK_E07000031,-2.830512410027338,54.2934066362131,UK,UKD1,UKD12,E07000031,South Lakeland,104532,1557.71863951,2020,UK_E07000031,TRUE
UK_E07000032,-1.4014194275317027,53.039894698309645,UK,UKF1,UKF13,E07000032,Amber Valley,126678,265.62326115,2020,UK_E07000032,TRUE
UK_E07000033,-1.2761527517183588,53.19239072333369,UK,UKF1,UKF12,E07000033,Bolsover,79530,160.44532797,2020,UK_E07000033,TRUE
UK_E07000034,-1.4229594873501141,53.24548241189156,UK,UKF1,UKF12,E07000034,Chesterfield,104628,66.07510015,2020,UK_E07000034,TRUE
UK_E07000035,-1.6314572768541484,53.11702548332073,UK,UKF1,UKF13,E07000035,Derbyshire Dales,71977,795.90321018,2020,UK_E07000035,TRUE
UK_E07000036,-1.304367116863584,52.92739633777944,UK,UKF1,UKF13,E07000036,Erewash,115490,109.70772848,2020,UK_E07000036,TRUE
UK_E07000037,-1.9421204594405304,53.36123616626261,UK,UKF1,UKF13,E07000037,High Peak,92221,540.65228358,2020,UK_E07000037,TRUE
UK_E07000038,-1.393377290652685,53.23562683638063,UK,UKF1,UKF12,E07000038,North East Derbyshire,101125,275.82228694,2020,UK_E07000038,TRUE
UK_E07000039,-1.5591287003197385,52.81078502858606,UK,UKF1,UKF13,E07000039,South Derbyshire,104493,338.36926133,2020,UK_E07000039,TRUE
UK_E07000040,-3.3001046241733007,50.688128988839445,UK,UKK4,UKK43,E07000040,East Devon,144317,814.92826141,2020,UK_E07000040,TRUE
UK_E07000041,-3.518284902303396,50.72403622500242,UK,UKK4,UKK43,E07000041,Exeter,130428,47.63486869,2020,UK_E07000041,TRUE
UK_E07000042,-3.484994648521593,50.87448968359237,UK,UKK4,UKK43,E07000042,Mid Devon,81695,913.3259228,2020,UK_E07000042,TRUE
UK_E07000043,-4.0633192348891765,51.09535623848762,UK,UKK4,UKK43,E07000043,North Devon,96110,1091.55284354,2020,UK_E07000043,TRUE
UK_E07000044,-3.8423641912452853,50.379038632575174,UK,UKK4,UKK43,E07000044,South Hams,86221,890.73522765,2020,UK_E07000044,TRUE
UK_E07000045,-3.573353985879985,50.553142482836876,UK,UKK4,UKK43,E07000045,Teignbridge,132844,677.57221191,2020,UK_E07000045,TRUE
UK_E07000046,-4.210818861984717,50.99259559371825,UK,UKK4,UKK43,E07000046,Torridge,68143,986.67102375,2020,UK_E07000046,TRUE
UK_E07000047,-4.077445457982948,50.62275824020691,UK,UKK4,UKK43,E07000047,West Devon,55528,1162.26360907,2020,UK_E07000047,TRUE
UK_E07000061,0.28502812625065643,50.783046337005054,UK,UKJ2,UKJ22,E07000061,Eastbourne,103160,44.18921201,2020,UK_E07000061,TRUE
UK_E07000062,0.5703742637510646,50.86554865476033,UK,UKJ2,UKJ22,E07000062,Hastings,92855,29.80083301,2020,UK_E07000062,TRUE
UK_E07000063,0.03876134416020959,50.81675699937394,UK,UKJ2,UKJ22,E07000063,Lewes,102744,293.1783506,2020,UK_E07000063,TRUE
UK_E07000064,0.4910542691248194,50.86705281579507,UK,UKJ2,UKJ22,E07000064,Rother,95656,512.14473216,2020,UK_E07000064,TRUE
UK_E07000065,0.2101766183272328,50.92873568264491,UK,UKJ2,UKJ22,E07000065,Wealden,160175,835.1685432,2020,UK_E07000065,TRUE
UK_E07000066,0.46996817571706595,51.58503782822127,UK,UKH3,UKH37,E07000066,Basildon,185862,110.3912995,2020,UK_E07000066,TRUE
UK_E07000067,0.5922281980246226,51.86644473974973,UK,UKH3,UKH34,E07000067,Braintree,151561,611.6906706,2020,UK_E07000067,TRUE
UK_E07000068,0.3145807297961711,51.62631798691988,UK,UKH3,UKH36,E07000068,Brentwood,76550,153.14214647,2020,UK_E07000068,TRUE
UK_E07000069,0.5811398831965574,51.54230725110934,UK,UKH3,UKH37,E07000069,Castle Point,90070,44.89792869,2020,UK_E07000069,TRUE
UK_E07000070,0.49097024505077524,51.72528324759758,UK,UKH3,UKH36,E07000070,Chelmsford,177079,343.01841009,2020,UK_E07000070,TRUE
UK_E07000071,0.9005562725209064,51.881944168200974,UK,UKH3,UKH34,E07000071,Colchester,192523,333.28930243,2020,UK_E07000071,TRUE
UK_E07000072,0.06754449529032899,51.66412305702904,UK,UKH3,UKH35,E07000072,Epping Forest,131137,339.06085139,2020,UK_E07000072,TRUE
UK_E07000073,0.10858835404825704,51.76263495151523,UK,UKH3,UKH35,E07000073,Harlow,86594,30.54636911,2020,UK_E07000073,TRUE
UK_E07000074,0.7229960742826829,51.712074125867595,UK,UKH3,UKH36,E07000074,Maldon,64425,362.81020153,2020,UK_E07000074,TRUE
UK_E07000075,0.6464133776005357,51.59172986695843,UK,UKH3,UKH37,E07000075,Rochford,86981,173.02831025,2020,UK_E07000075,TRUE
UK_E07000076,1.1575671588950032,51.83057010676198,UK,UKH3,UKH34,E07000076,Tendring,145803,337.93187776,2020,UK_E07000076,TRUE
UK_E07000077,0.26576766804853014,51.951441228764935,UK,UKH3,UKH35,E07000077,Uttlesford,89179,641.26414834,2020,UK_E07000077,TRUE
UK_E07000078,-2.085092497037781,51.89921287188382,UK,UKK1,UKK13,E07000078,Cheltenham,117090,46.62930248,2020,UK_E07000078,TRUE
UK_E07000079,-1.9255313867865087,51.75687190745967,UK,UKK1,UKK13,E07000079,Cotswold,89022,1165.43305198,2020,UK_E07000079,TRUE
UK_E07000080,-2.521659733386497,51.79768612101556,UK,UKK1,UKK13,E07000080,Forest of Dean,86543,530.71691362,2020,UK_E07000080,TRUE
UK_E07000081,-2.237002163143252,51.84912732114434,UK,UKK1,UKK13,E07000081,Gloucester,129285,40.85843734,2020,UK_E07000081,TRUE
UK_E07000082,-2.2680350702679997,51.73070674249344,UK,UKK1,UKK13,E07000082,Stroud,119019,465.11390158,2020,UK_E07000082,TRUE
UK_E07000083,-2.123645969718379,51.93479106675028,UK,UKK1,UKK13,E07000083,Tewkesbury,92599,415.29295924,2020,UK_E07000083,TRUE
UK_E07000084,-1.1146347678801538,51.27113856953091,UK,UKJ3,UKJ37,E07000084,Basingstoke and Deane,175729,634.24340008,2020,UK_E07000084,TRUE
UK_E07000085,-0.9357933928191382,51.06144377881103,UK,UKJ3,UKJ36,E07000085,East Hampshire,120681,514.75393664,2020,UK_E07000085,TRUE
UK_E07000086,-1.3400861234110202,50.952245064837214,UK,UKJ3,UKJ35,E07000086,Eastleigh,131819,80.66451022,2020,UK_E07000086,TRUE
UK_E07000087,-1.2153991314618542,50.852579215575076,UK,UKJ3,UKJ35,E07000087,Fareham,116339,75.05324579,2020,UK_E07000087,TRUE
UK_E07000088,-1.1562181177566502,50.80369384193061,UK,UKJ3,UKJ35,E07000088,Gosport,85283,25.43429038,2020,UK_E07000088,TRUE
UK_E07000089,-0.8504524054071417,51.29343312399695,UK,UKJ3,UKJ37,E07000089,Hart,96293,215.40119833,2020,UK_E07000089,TRUE
UK_E07000090,-1.0025799469863679,50.87116176246516,UK,UKJ3,UKJ35,E07000090,Havant,125813,55.6360716,2020,UK_E07000090,TRUE
UK_E07000091,-1.5522905861263183,50.8397888376819,UK,UKJ3,UKJ36,E07000091,New Forest,179753,757.59215926,2020,UK_E07000091,TRUE
UK_E07000092,-0.7634689166459744,51.274471193687425,UK,UKJ3,UKJ37,E07000092,Rushmoor,95142,39.06560297,2020,UK_E07000092,TRUE
UK_E07000093,-1.4766569864209715,51.13669435355841,UK,UKJ3,UKJ36,E07000093,Test Valley,125169,628.09428364,2020,UK_E07000093,TRUE
UK_E07000094,-1.2887580607399969,51.03807856491539,UK,UKJ3,UKJ36,E07000094,Winchester,124295,661.51700179,2020,UK_E07000094,TRUE
UK_E07000095,-0.03346984227654551,51.723579812139796,UK,UKH2,UKH23,E07000095,Broxbourne,96876,51.45296955,2020,UK_E07000095,TRUE
UK_E07000096,-0.4920880281898342,51.75748077719107,UK,UKH2,UKH23,E07000096,Dacorum,154280,212.57536151,2020,UK_E07000096,TRUE
UK_E07000098,-0.28329673275338363,51.66531111268945,UK,UKH2,UKH23,E07000098,Hertsmere,104205,101.16498367,2020,UK_E07000098,TRUE
UK_E07000099,-0.2103246238947214,51.97194247902442,UK,UKH2,UKH23,E07000099,North Hertfordshire,133214,375.51546975,2020,UK_E07000099,TRUE
UK_E07000102,-0.43723876477492374,51.65095468936788,UK,UKH2,UKH23,E07000102,Three Rivers,93045,88.87217101,2020,UK_E07000102,TRUE
UK_E07000103,-0.4012013616892612,51.66605962143876,UK,UKH2,UKH23,E07000103,Watford,96767,21.43689935,2020,UK_E07000103,TRUE
UK_E07000105,0.8589780954316326,51.139791256225415,UK,UKJ4,UKJ45,E07000105,Ashford,129281,580.50402898,2020,UK_E07000105,TRUE
UK_E07000106,1.082176028908462,51.31273986662828,UK,UKJ4,UKJ44,E07000106,Canterbury,164553,309.03827122,2020,UK_E07000106,TRUE
UK_E07000107,0.2363972804175702,51.44302878451437,UK,UKJ4,UKJ43,E07000107,Dartford,109709,76.31851217,2020,UK_E07000107,TRUE
UK_E07000108,1.3276401625840297,51.17147820979211,UK,UKJ4,UKJ44,E07000108,Dover,116969,315.76166642,2020,UK_E07000108,TRUE
UK_E07000109,0.3699658186833189,51.42940362688294,UK,UKJ4,UKJ43,E07000109,Gravesham,106385,101.13522583,2020,UK_E07000109,TRUE
UK_E07000110,0.5297426868785535,51.26247549288698,UK,UKJ4,UKJ45,E07000110,Maidstone,169955,393.32935881,2020,UK_E07000110,TRUE
UK_E07000111,0.18669004934752112,51.323816461949754,UK,UKJ4,UKJ46,E07000111,Sevenoaks,120293,370.42188457,2020,UK_E07000111,TRUE
UK_E07000112,1.1448575260303622,51.08060685596304,UK,UKJ4,UKJ44,E07000112,Folkestone and Hythe,112578,356.80487059,2020,UK_E07000112,TRUE
UK_E07000113,0.7731233351151334,51.3586651526764,UK,UKJ4,UKJ43,E07000113,Swale,148519,374.07469413,2020,UK_E07000113,TRUE
UK_E07000114,1.3957425824857026,51.36192212862835,UK,UKJ4,UKJ44,E07000114,Thanet,141819,103.71166205,2020,UK_E07000114,TRUE
UK_E07000115,0.3652159907705676,51.258411490600274,UK,UKJ4,UKJ46,E07000115,Tonbridge and Malling,130508,241.00694552,2020,UK_E07000115,TRUE
UK_E07000116,0.28390689281563763,51.14074559521579,UK,UKJ4,UKJ46,E07000116,Tunbridge Wells,118054,331.3423307,2020,UK_E07000116,TRUE
UK_E07000117,-2.251897623846283,53.794420211585994,UK,UKD4,UKD46,E07000117,Burnley,88527,110.76455772,2020,UK_E07000117,TRUE
UK_E07000118,-2.6438838259473525,53.6537758137966,UK,UKD4,UKD47,E07000118,Chorley,116821,203.04453454,2020,UK_E07000118,TRUE
UK_E07000119,-2.9703361651484683,53.759940912715415,UK,UKD4,UKD45,E07000119,Fylde,79770,167.01693223,2020,UK_E07000119,TRUE
UK_E07000120,-2.3835653247353665,53.75867290623928,UK,UKD4,UKD46,E07000120,Hyndburn,80815,73.0505233,2020,UK_E07000120,TRUE
UK_E07000121,-2.821075470038029,54.0547325788443,UK,UKD4,UKD44,E07000121,Lancaster,144246,568.14429882,2020,UK_E07000121,TRUE
UK_E07000122,-2.2008672826058455,53.850167385437004,UK,UKD4,UKD46,E07000122,Pendle,91405,169.50342606,2020,UK_E07000122,TRUE
UK_E07000123,-2.7010622236213955,53.77135494396701,UK,UKD4,UKD45,E07000123,Preston,141818,143.04264243,2020,UK_E07000123,TRUE
UK_E07000124,-2.4306189861107916,53.85099295075284,UK,UKD4,UKD45,E07000124,Ribble Valley,60057,584.87272556,2020,UK_E07000124,TRUE
UK_E07000125,-2.273297598241524,53.69842120558078,UK,UKD4,UKD46,E07000125,Rossendale,70895,138.13852817,2020,UK_E07000125,TRUE
UK_E07000126,-2.7021152718281494,53.71884352720482,UK,UKD4,UKD45,E07000126,South Ribble,110527,114.52691621,2020,UK_E07000126,TRUE
UK_E07000127,-2.8179171541801336,53.568136338502335,UK,UKD4,UKD47,E07000127,West Lancashire,113949,347.66776281,2020,UK_E07000127,TRUE
UK_E07000128,-3.001117636836242,53.88888978340474,UK,UKD4,UKD44,E07000128,Wyre,111223,284.12249804,2020,UK_E07000128,TRUE
UK_E07000129,-1.1933545514449844,52.59407045647494,UK,UKF2,UKF22,E07000129,Blaby,100421,130.55551367,2020,UK_E07000129,TRUE
UK_E07000130,-1.187229837803056,52.74367582920688,UK,UKF2,UKF22,E07000130,Charnwood,182643,279.2181126,2020,UK_E07000130,TRUE
UK_E07000131,-1.0260682929784473,52.513561218093976,UK,UKF2,UKF22,E07000131,Harborough,92499,593.07626613,2020,UK_E07000131,TRUE
UK_E07000132,-1.3506992003051106,52.564012367185,UK,UKF2,UKF22,E07000132,Hinckley and Bosworth,112423,297.55742995,2020,UK_E07000132,TRUE
UK_E07000133,-0.8882547400489454,52.7769785259986,UK,UKF2,UKF22,E07000133,Melton,51100,481.6786926,2020,UK_E07000133,TRUE
UK_E07000134,-1.399010648658366,52.73904743584715,UK,UKF2,UKF22,E07000134,North West Leicestershire,102126,279.52877158,2020,UK_E07000134,TRUE
UK_E07000135,-1.0948873402044665,52.59007095666895,UK,UKF2,UKF22,E07000135,Oadby and Wigston,57056,23.54223779,2020,UK_E07000135,TRUE
UK_E07000136,-0.02811196752353257,52.97309071021272,UK,UKF3,UKF30,E07000136,Boston,69366,366.94662536,2020,UK_E07000136,TRUE
UK_E07000137,0.11738332764226724,53.254656390346355,UK,UKF3,UKF30,E07000137,East Lindsey,140741,1768.00347294,2020,UK_E07000137,TRUE
UK_E07000138,-0.5502449007477074,53.2265909126012,UK,UKF3,UKF30,E07000138,Lincoln,99039,35.70391012,2020,UK_E07000138,TRUE
UK_E07000139,-0.48547986993575587,53.10194547090294,UK,UKF3,UKF30,E07000139,North Kesteven,115985,922.91016114,2020,UK_E07000139,TRUE
UK_E07000140,-0.11046471191473503,52.787024120203206,UK,UKF3,UKF30,E07000140,South Holland,93980,752.76018452,2020,UK_E07000140,TRUE
UK_E07000141,-0.5229368065182307,52.80908612910543,UK,UKF3,UKF30,E07000141,South Kesteven,141853,943.07956434,2020,UK_E07000141,TRUE
UK_E07000142,-0.623714760620381,53.36195128199037,UK,UKF3,UKF30,E07000142,West Lindsey,94869,1158.20500512,2020,UK_E07000142,TRUE
UK_E07000143,0.8365968935512653,52.53239624036736,UK,UKH1,UKH17,E07000143,Breckland,139329,1304.92464958,2020,UK_E07000143,TRUE
UK_E07000144,1.3003551275583796,52.67277485587477,UK,UKH1,UKH15,E07000144,Broadland,129464,552.95933549,2020,UK_E07000144,TRUE
UK_E07000145,1.7176007088851668,52.59853640000981,UK,UKH1,UKH15,E07000145,Great Yarmouth,99370,180.43675155,2020,UK_E07000145,TRUE
UK_E07000146,0.41365013675669304,52.736468351092554,UK,UKH1,UKH16,E07000146,King's Lynn and West Norfolk,151811,1444.5584279,2020,UK_E07000146,TRUE
UK_E07000147,1.2361987949265707,52.85643747578694,UK,UKH1,UKH16,E07000147,North Norfolk,104552,969.66999335,2020,UK_E07000147,TRUE
UK_E07000148,1.280197277423619,52.632690685363045,UK,UKH1,UKH15,E07000148,Norwich,141137,40.55973467,2020,UK_E07000148,TRUE
UK_E07000149,1.2091587462657416,52.55279302449022,UK,UKH1,UKH17,E07000149,South Norfolk,138017,908.47803453,2020,UK_E07000149,TRUE
UK_E07000150,-0.709723133763061,52.48715788548363,UK,UKF2,UKF25,E07000150,Corby,70827,80.32419749,2020,UK_E07000150,TRUE
UK_E07000151,-1.101000276609445,52.27969028164444,UK,UKF2,UKF24,E07000151,Daventry,84484,666.03818109,2020,UK_E07000151,TRUE
UK_E07000152,-0.5791088715020994,52.325323356614895,UK,UKF2,UKF25,E07000152,East Northamptonshire,93906,510.03441099,2020,UK_E07000152,TRUE
UK_E07000153,-0.7305224984557814,52.40234392261537,UK,UKF2,UKF25,E07000153,Kettering,101266,233.63032357,2020,UK_E07000153,TRUE
UK_E07000154,-0.8851433391006556,52.247164377195105,UK,UKF2,UKF24,E07000154,Northampton,225146,80.81743687,2020,UK_E07000154,TRUE
UK_E07000155,-1.0369879783694893,52.09982776120119,UK,UKF2,UKF24,E07000155,South Northamptonshire,92515,634.43990498,2020,UK_E07000155,TRUE
UK_E07000156,-0.699280206530502,52.30070020323964,UK,UKF2,UKF25,E07000156,Wellingborough,79478,163.13989831,2020,UK_E07000156,TRUE
UK_E07000163,-2.057264667804099,53.962881125958624,UK,UKE2,UKE22,E07000163,Craven,56832,1179.66173811,2020,UK_E07000163,TRUE
UK_E07000164,-1.3521932619758625,54.30286365641384,UK,UKE2,UKE22,E07000164,Hambleton,91134,1312.0928972,2020,UK_E07000164,TRUE
UK_E07000165,-1.523123497265164,54.015378808834406,UK,UKE2,UKE22,E07000165,Harrogate,160533,1310.04781123,2020,UK_E07000165,TRUE
UK_E07000166,-1.718398647548517,54.3832630848326,UK,UKE2,UKE22,E07000166,Richmondshire,53244,1319.676538,2020,UK_E07000166,TRUE
UK_E07000167,-0.8073751711181226,54.1752165319637,UK,UKE2,UKE22,E07000167,Ryedale,54920,1507.50158349,2020,UK_E07000167,TRUE
UK_E07000168,-0.4326657982452577,54.29565977910839,UK,UKE2,UKE22,E07000168,Scarborough,108736,816.93159442,2020,UK_E07000168,TRUE
UK_E07000169,-1.1296856487663218,53.78748492115938,UK,UKE2,UKE22,E07000169,Selby,89106,602.61030989,2020,UK_E07000169,TRUE
UK_E07000170,-1.2460457685534498,53.090916109358645,UK,UKF1,UKF15,E07000170,Ashfield,127151,109.63722242,2020,UK_E07000170,TRUE
UK_E07000171,-1.0576813542421792,53.3254957516434,UK,UKF1,UKF15,E07000171,Bassetlaw,116839,639.89498813,2020,UK_E07000171,TRUE
UK_E07000172,-1.2505682610169537,52.94998206868322,UK,UKF1,UKF16,E07000172,Broxtowe,113272,80.15268386,2020,UK_E07000172,TRUE
UK_E07000173,-1.109581956102922,52.99206293759348,UK,UKF1,UKF16,E07000173,Gedling,117786,120.0603055,2020,UK_E07000173,TRUE
UK_E07000174,-1.1887347706518931,53.152068636555306,UK,UKF1,UKF15,E07000174,Mansfield,108841,76.74160164,2020,UK_E07000174,TRUE
UK_E07000175,-0.8945826752649011,53.09887571886221,UK,UKF1,UKF15,E07000175,Newark and Sherwood,121566,652.23750948,2020,UK_E07000175,TRUE
UK_E07000176,-1.100365013944574,52.91909204096795,UK,UKF1,UKF16,E07000176,Rushcliffe,117671,409.49420395,2020,UK_E07000176,TRUE
UK_E07000177,-1.2727733799196714,51.973893025595316,UK,UKJ1,UKJ14,E07000177,Cherwell,149161,589.16702047,2020,UK_E07000177,TRUE
UK_E07000178,-1.231084461848597,51.748951384860334,UK,UKJ1,UKJ14,E07000178,Oxford,154327,45.63048153,2020,UK_E07000178,TRUE
UK_E07000179,-1.1081393732071876,51.626221753571286,UK,UKJ1,UKJ14,E07000179,South Oxfordshire,140504,678.96343761,2020,UK_E07000179,TRUE
UK_E07000180,-1.3455410993955819,51.65977644881844,UK,UKJ1,UKJ14,E07000180,Vale of White Horse,133732,579.0863953,2020,UK_E07000180,TRUE
UK_E07000181,-1.5163822920067302,51.79629827824704,UK,UKJ1,UKJ14,E07000181,West Oxfordshire,109800,714.94795598,2020,UK_E07000181,TRUE
UK_E07000187,-2.4969092085390043,51.200744936981955,UK,UKK2,UKK23,E07000187,Mendip,114881,739.98404464,2020,UK_E07000187,TRUE
UK_E07000188,-2.9816474861653566,51.16031788981217,UK,UKK2,UKK23,E07000188,Sedgemoor,122791,567.93841932,2020,UK_E07000188,TRUE
UK_E07000189,-2.6892298737241034,50.95068049088244,UK,UKK2,UKK23,E07000189,South Somerset,167861,959.71752589,2020,UK_E07000189,TRUE
UK_E07000192,-1.9894246296375329,52.71408151864784,UK,UKG2,UKG24,E07000192,Cannock Chase,100109,78.94514098,2020,UK_E07000192,TRUE
UK_E07000193,-1.6667549378980577,52.81890666959634,UK,UKG2,UKG24,E07000193,East Staffordshire,118574,390.288464,2020,UK_E07000193,TRUE
UK_E07000194,-1.8613054689000554,52.68438789986815,UK,UKG2,UKG24,E07000194,Lichfield,103965,331.54449031,2020,UK_E07000194,TRUE
UK_E07000195,-2.2419172003153975,53.02901398366675,UK,UKG2,UKG24,E07000195,Newcastle-under-Lyme,129490,211.10708254,2020,UK_E07000195,TRUE
UK_E07000196,-2.1586829446918117,52.62267293555091,UK,UKG2,UKG24,E07000196,South Staffordshire,112126,407.62244556,2020,UK_E07000196,TRUE
UK_E07000197,-2.1189684987001143,52.82217117979045,UK,UKG2,UKG24,E07000197,Stafford,135880,598.61656847,2020,UK_E07000197,TRUE
UK_E07000198,-2.070349886393436,53.069053465889915,UK,UKG2,UKG24,E07000198,Staffordshire Moorlands,98397,576.26853489,2020,UK_E07000198,TRUE
UK_E07000199,-1.6758855906822563,52.6244195027827,UK,UKG2,UKG24,E07000199,Tamworth,76678,30.86919606,2020,UK_E07000199,TRUE
UK_E07000200,0.8606461070211429,52.03953722056749,UK,UKH1,UKH14,E07000200,Babergh,91401,595.53505303,2020,UK_E07000200,TRUE
UK_E07000202,1.1582052860008447,52.055627892244196,UK,UKH1,UKH14,E07000202,Ipswich,137532,39.90804991,2020,UK_E07000202,TRUE
UK_E07000203,1.012135498646721,52.19709179852223,UK,UKH1,UKH14,E07000203,Mid Suffolk,102493,870.76576447,2020,UK_E07000203,TRUE
UK_E07000207,-0.3886663237759991,51.377964524433324,UK,UKJ2,UKJ25,E07000207,Elmbridge,136626,96.38227181,2020,UK_E07000207,TRUE
UK_E07000208,-0.2622419552211843,51.348683836751114,UK,UKJ2,UKJ26,E07000208,Epsom and Ewell,79928,34.08980357,2020,UK_E07000208,TRUE
UK_E07000209,-0.5956663814696634,51.24865573493834,UK,UKJ2,UKJ25,E07000209,Guildford,147889,271.07012826,2020,UK_E07000209,TRUE
UK_E07000210,-0.33260081797716873,51.27251053200918,UK,UKJ2,UKJ26,E07000210,Mole Valley,87253,258.44273574,2020,UK_E07000210,TRUE
UK_E07000211,-0.1840398833482854,51.24503542534441,UK,UKJ2,UKJ26,E07000211,Reigate and Banstead,147757,129.18257444,2020,UK_E07000211,TRUE
UK_E07000212,-0.5299476012867328,51.400558526386135,UK,UKJ2,UKJ25,E07000212,Runnymede,88000,78.08341682,2020,UK_E07000212,TRUE
UK_E07000213,-0.46397596384946727,51.42901320646951,UK,UKJ2,UKJ25,E07000213,Spelthorne,99334,51.18485713,2020,UK_E07000213,TRUE
UK_E07000214,-0.7120313409845522,51.332562276317155,UK,UKJ2,UKJ25,E07000214,Surrey Heath,88874,95.14708016,2020,UK_E07000214,TRUE
UK_E07000215,-0.06219812751900697,51.2666979930671,UK,UKJ2,UKJ26,E07000215,Tandridge,87496,248.26905042,2020,UK_E07000215,TRUE
UK_E07000216,-0.6953251993819197,51.18464681733082,UK,UKJ2,UKJ25,E07000216,Waverley,125610,345.36774196,2020,UK_E07000216,TRUE
UK_E07000217,-0.564095854485945,51.318492104613085,UK,UKJ2,UKJ25,E07000217,Woking,101167,63.64132122,2020,UK_E07000217,TRUE
UK_E07000218,-1.6143763118104688,52.56238282022917,UK,UKG1,UKG13,E07000218,North Warwickshire,64850,284.47437658,2020,UK_E07000218,TRUE
UK_E07000219,-1.4806064742820442,52.507166136329054,UK,UKG1,UKG13,E07000219,Nuneaton and Bedworth,128902,79.00445055,2020,UK_E07000219,TRUE
UK_E07000220,-1.2683817805918283,52.37239324446539,UK,UKG1,UKG13,E07000220,Rugby,107194,353.80380715,2020,UK_E07000220,TRUE
UK_E07000221,-1.6994348033529503,52.198383992442636,UK,UKG1,UKG13,E07000221,Stratford-on-Avon,127580,978.59949674,2020,UK_E07000221,TRUE
UK_E07000222,-1.5464346879782127,52.29496724499658,UK,UKG1,UKG13,E07000222,Warwick,142484,283.0949462,2020,UK_E07000222,TRUE
UK_E07000223,-0.2835288934469773,50.8347918232266,UK,UKJ2,UKJ27,E07000223,Adur,63869,42.81368512,2020,UK_E07000223,TRUE
UK_E07000224,-0.6053281320492379,50.80416266948692,UK,UKJ2,UKJ27,E07000224,Arun,159827,222.29225294,2020,UK_E07000224,TRUE
UK_E07000225,-0.7776875137049852,50.847641516730874,UK,UKJ2,UKJ27,E07000225,Chichester,120750,789.76472335,2020,UK_E07000225,TRUE
UK_E07000226,-0.18936146142083898,51.11134923311727,UK,UKJ2,UKJ28,E07000226,Crawley,112448,44.988311,2020,UK_E07000226,TRUE
UK_E07000227,-0.3405018333422793,51.0401708219016,UK,UKJ2,UKJ28,E07000227,Horsham,142217,531.19193583,2020,UK_E07000227,TRUE
UK_E07000228,-0.09482194599203189,51.0156093386707,UK,UKJ2,UKJ28,E07000228,Mid Sussex,149716,334.13107079,2020,UK_E07000228,TRUE
UK_E07000229,-0.39180069905414483,50.822777899683715,UK,UKJ2,UKJ27,E07000229,Worthing,110025,32.53414372,2020,UK_E07000229,TRUE
UK_E07000234,-2.0355197312140882,52.35648965390761,UK,UKG1,UKG12,E07000234,Bromsgrove,98662,217.14447421,2020,UK_E07000234,TRUE
UK_E07000235,-2.3139448725503633,52.132228723254265,UK,UKG1,UKG12,E07000235,Malvern Hills,78113,577.5079982,2020,UK_E07000235,TRUE
UK_E07000236,-1.930198991249292,52.29985143722912,UK,UKG1,UKG12,E07000236,Redditch,84989,54.2933587,2020,UK_E07000236,TRUE
UK_E07000237,-2.212260455723683,52.19729495116925,UK,UKG1,UKG12,E07000237,Worcester,101891,33.30313842,2020,UK_E07000237,TRUE
UK_E07000238,-2.034245970696096,52.15313005737022,UK,UKG1,UKG12,E07000238,Wychavon,127340,664.03748362,2020,UK_E07000238,TRUE
UK_E07000239,-2.25912334056313,52.38008555669718,UK,UKG1,UKG12,E07000239,Wyre Forest,101062,195.54934553,2020,UK_E07000239,TRUE
UK_E07000240,-0.3302746658972906,51.76435052859719,UK,UKH2,UKH23,E07000240,St Albans,147373,161.28558824,2020,UK_E07000240,TRUE
UK_E07000241,-0.20882335764581558,51.77791590961007,UK,UKH2,UKH23,E07000241,Welwyn Hatfield,122746,129.5816341,2020,UK_E07000241,TRUE
UK_E07000242,0.036292109231277535,51.83956131330916,UK,UKH2,UKH23,E07000242,East Hertfordshire,148105,475.82790863,2020,UK_E07000242,TRUE
UK_E07000243,-0.18483981910092404,51.90791869467697,UK,UKH2,UKH23,E07000243,Stevenage,87754,25.97759207,2020,UK_E07000243,TRUE
UK_E07000244,1.546399513248159,52.295572368441924,UK,UKH1,UKH14,E07000244,East Suffolk,NA,1282.69766655,2020,UK_E07000244,TRUE
UK_E07000245,0.5696557868173125,52.238083340464016,UK,UKH1,UKH14,E07000245,West Suffolk,NA,1034.65101936,2020,UK_E07000245,TRUE
UK_E07000246,-3.153266215816182,51.03350701454067,UK,UKK2,UKK23,E07000246,Somerset West and Taunton,NA,1189.88544701,2020,UK_E07000246,TRUE
UK_E08000001,-2.4428292654807198,53.57426233465721,UK,UKD3,UKD36,E08000001,Bolton,285372,139.89336765,2020,UK_E08000001,TRUE
UK_E08000002,-2.3016037851828965,53.57250113418948,UK,UKD3,UKD37,E08000002,Bury,190108,99.53705895,2020,UK_E08000002,TRUE
UK_E08000003,-2.225520856856139,53.457606367240686,UK,UKD3,UKD33,E08000003,Manchester,547627,115.73328326,2020,UK_E08000003,TRUE
UK_E08000004,-2.1144568938184283,53.53956183718521,UK,UKD3,UKD37,E08000004,Oldham,235623,142.44409088,2020,UK_E08000004,TRUE
UK_E08000005,-2.1730850155856625,53.5996902293676,UK,UKD3,UKD37,E08000005,Rochdale,220001,158.24576647,2020,UK_E08000005,TRUE
UK_E08000006,-2.3341282819727405,53.49729671265761,UK,UKD3,UKD34,E08000006,Salford,254408,97.26948001,2020,UK_E08000006,TRUE
UK_E08000007,-2.1586295045540878,53.39991651848063,UK,UKD3,UKD35,E08000007,Stockport,291775,126.13515083,2020,UK_E08000007,TRUE
UK_E08000008,-2.089043308394533,53.47542064953047,UK,UKD3,UKD35,E08000008,Tameside,225197,103.23248512,2020,UK_E08000008,TRUE
UK_E08000009,-2.330817689290342,53.424949801364576,UK,UKD3,UKD34,E08000009,Trafford,236370,106.11642711,2020,UK_E08000009,TRUE
UK_E08000010,-2.5927677899007917,53.52418956316758,UK,UKD3,UKD36,E08000010,Wigan,326088,188.30184696,2020,UK_E08000010,TRUE
UK_E08000011,-2.849135699436669,53.429928437470366,UK,UKD7,UKD71,E08000011,Knowsley,149571,86.56418444,2020,UK_E08000011,TRUE
UK_E08000012,-2.9346900116538497,53.410441677924126,UK,UKD7,UKD72,E08000012,Liverpool,494814,112.07313661,2020,UK_E08000012,TRUE
UK_E08000013,-2.7166297962676578,53.45144224619846,UK,UKD7,UKD71,E08000013,St. Helens,180049,136.4503279,2020,UK_E08000013,TRUE
UK_E08000014,-2.9770008600301145,53.543311470694455,UK,UKD7,UKD73,E08000014,Sefton,275396,156.8134598,2020,UK_E08000014,TRUE
UK_E08000015,-3.0527588668430448,53.38556545227721,UK,UKD7,UKD74,E08000015,Wirral,323235,162.25218501,2020,UK_E08000015,TRUE
UK_E08000016,-1.451223535938904,53.5479736836774,UK,UKE3,UKE31,E08000016,Barnsley,245199,329.30711855,2020,UK_E08000016,TRUE
UK_E08000017,-1.1223473612960766,53.528583098431035,UK,UKE3,UKE31,E08000017,Doncaster,310542,568.90756569,2020,UK_E08000017,TRUE
UK_E08000018,-1.3170386048564364,53.42739642437641,UK,UKE3,UKE31,E08000018,Rotherham,264671,286.73356243,2020,UK_E08000018,TRUE
UK_E08000019,-1.4705490133622166,53.382527741918196,UK,UKE3,UKE32,E08000019,Sheffield,582506,368.18049237,2020,UK_E08000019,TRUE
UK_E08000021,-1.6272721258686196,54.987266535968644,UK,UKC2,UKC22,E08000021,Newcastle upon Tyne,300196,115.19968364,2020,UK_E08000021,TRUE
UK_E08000022,-1.4989302687981054,55.021167593376894,UK,UKC2,UKC22,E08000022,North Tyneside,205985,83.06487992,2020,UK_E08000022,TRUE
UK_E08000023,-1.4433174617850362,54.973272706527645,UK,UKC2,UKC22,E08000023,South Tyneside,150265,65.46478807,2020,UK_E08000023,TRUE
UK_E08000024,-1.4331788465241737,54.89471833118884,UK,UKC2,UKC23,E08000024,Sunderland,277417,138.83557637,2020,UK_E08000024,TRUE
UK_E08000025,-1.8817633027081377,52.478009637968235,UK,UKG3,UKG31,E08000025,Birmingham,1141374,267.98235311,2020,UK_E08000025,TRUE
UK_E08000026,-1.5038056977292587,52.41500210524792,UK,UKG3,UKG33,E08000026,Coventry,366785,98.70376421,2020,UK_E08000026,TRUE
UK_E08000027,-2.111851415068956,52.48689641118746,UK,UKG3,UKG36,E08000027,Dudley,320626,98.02248813,2020,UK_E08000027,TRUE
UK_E08000028,-2.006321626472141,52.51082551501293,UK,UKG3,UKG37,E08000028,Sandwell,327378,85.62614536,2020,UK_E08000028,TRUE
UK_E08000029,-1.7787536311022416,52.43765568003229,UK,UKG3,UKG32,E08000029,Solihull,214909,178.42604664,2020,UK_E08000029,TRUE
UK_E08000030,-1.9895487941589824,52.59418074910321,UK,UKG3,UKG38,E08000030,Walsall,283378,104.05797843,2020,UK_E08000030,TRUE
UK_E08000031,-2.118398792093399,52.58703271503589,UK,UKG3,UKG39,E08000031,Wolverhampton,262008,69.48763257,2020,UK_E08000031,TRUE
UK_E08000032,-1.7845071307365217,53.808951391869975,UK,UKE4,UKE41,E08000032,Bradford,537173,366.69285658,2020,UK_E08000032,TRUE
UK_E08000033,-1.8763056085898755,53.71831374632708,UK,UKE4,UKE44,E08000033,Calderdale,210082,364.22603279,2020,UK_E08000033,TRUE
UK_E08000034,-1.7286138137533256,53.67014671373791,UK,UKE4,UKE44,E08000034,Kirklees,438727,408.84257028,2020,UK_E08000034,TRUE
UK_E08000035,-1.5541311913626192,53.80718028257653,UK,UKE4,UKE42,E08000035,Leeds,789194,552.0994778,2020,UK_E08000035,TRUE
UK_E08000036,-1.42791822279548,53.68024276674781,UK,UKE4,UKE45,E08000036,Wakefield,345038,338.85961966,2020,UK_E08000036,TRUE
UK_E08000037,-1.6191854337788318,54.94484728889618,UK,UKC2,UKC22,E08000037,Gateshead,202508,144.19150865,2020,UK_E08000037,TRUE
UK_E09000001,-0.08926231137693488,51.51665453389671,UK,UKI3,UKI31,E09000001,City of London,8706,3.15368081,2020,UK_E09000001,TRUE
UK_E09000002,0.12495180564505418,51.54592167669389,UK,UKI5,UKI52,E09000002,Barking and Dagenham,211998,37.8094349,2020,UK_E09000002,TRUE
UK_E09000003,-0.20884703045908407,51.60439479982852,UK,UKI7,UKI71,E09000003,Barnet,392140,86.78081083,2020,UK_E09000003,TRUE
UK_E09000004,0.13455109649799127,51.465158794533025,UK,UKI5,UKI51,E09000004,Bexley,247258,64.29728618,2020,UK_E09000004,TRUE
UK_E09000005,-0.25584946080980653,51.552215349883355,UK,UKI7,UKI72,E09000005,Brent,330795,43.24741259,2020,UK_E09000005,TRUE
UK_E09000006,0.020188826386841417,51.39718271881438,UK,UKI6,UKI61,E09000006,Bromley,331096,150.172557,2020,UK_E09000006,TRUE
UK_E09000007,-0.1573142790841122,51.543732854408965,UK,UKI3,UKI31,E09000007,Camden,262226,21.7956856,2020,UK_E09000007,TRUE
UK_E09000008,-0.09250915153312703,51.381300515479666,UK,UKI6,UKI62,E09000008,Croydon,385346,86.53084334,2020,UK_E09000008,TRUE
UK_E09000009,-0.3270564461932429,51.51649778182074,UK,UKI7,UKI73,E09000009,Ealing,341982,55.56194514,2020,UK_E09000009,TRUE
UK_E09000010,-0.07181376414733705,51.63843829563829,UK,UKI5,UKI54,E09000010,Enfield,333869,82.22934597,2020,UK_E09000010,TRUE
UK_E09000011,0.05826098119447011,51.479881646192005,UK,UKI5,UKI51,E09000011,Greenwich,286186,50.46145795,2020,UK_E09000011,TRUE
UK_E09000012,-0.06738897837556046,51.551498267705966,UK,UKI4,UKI41,E09000012,Hackney,279665,19.05398789,2020,UK_E09000012,TRUE
UK_E09000013,-0.21650482260535578,51.49067098571839,UK,UKI3,UKI33,E09000013,Hammersmith and Fulham,185426,17.15930352,2020,UK_E09000013,TRUE
UK_E09000014,-0.0973450806188669,51.59017280446715,UK,UKI4,UKI43,E09000014,Haringey,270624,29.61464382,2020,UK_E09000014,TRUE
UK_E09000015,-0.3362528314703149,51.589490685833624,UK,UKI7,UKI74,E09000015,Harrow,250149,50.49359788,2020,UK_E09000015,TRUE
UK_E09000016,0.20220785678748956,51.57519692913714,UK,UKI5,UKI52,E09000016,Havering,257810,114.47235013,2020,UK_E09000016,TRUE
UK_E09000017,-0.43300978154286984,51.53405121372517,UK,UKI7,UKI74,E09000017,Hillingdon,304824,115.75846955,2020,UK_E09000017,TRUE
UK_E09000018,-0.3587167894869714,51.470214494598814,UK,UKI7,UKI75,E09000018,Hounslow,270782,56.61316903,2020,UK_E09000018,TRUE
UK_E09000019,-0.10999065819758626,51.547801880662036,UK,UKI4,UKI43,E09000019,Islington,239142,14.85913527,2020,UK_E09000019,TRUE
UK_E09000020,-0.19331699121551146,51.500826682917705,UK,UKI3,UKI33,E09000020,Kensington and Chelsea,156197,12.38954956,2020,UK_E09000020,TRUE
UK_E09000021,-0.28705967751527134,51.39796038831631,UK,UKI6,UKI63,E09000021,Kingston upon Thames,175470,37.27385988,2020,UK_E09000021,TRUE
UK_E09000022,-0.11947095990758011,51.45799186274896,UK,UKI4,UKI45,E09000022,Lambeth,325917,27.25472437,2020,UK_E09000022,TRUE
UK_E09000023,-0.02407495285711194,51.45251591434143,UK,UKI4,UKI44,E09000023,Lewisham,303536,35.32878766,2020,UK_E09000023,TRUE
UK_E09000024,-0.1852619241845848,51.41087767387731,UK,UKI6,UKI63,E09000024,Merton,206186,37.64238329,2020,UK_E09000024,TRUE
UK_E09000025,0.03383572289468586,51.53514495021075,UK,UKI4,UKI41,E09000025,Newham,352005,38.58592684,2020,UK_E09000025,TRUE
UK_E09000026,0.07627223485954754,51.57416275164282,UK,UKI5,UKI53,E09000026,Redbridge,303858,56.45589385,2020,UK_E09000026,TRUE
UK_E09000027,-0.31563285158160376,51.44875318495679,UK,UKI7,UKI75,E09000027,Richmond upon Thames,196904,58.78722142,2020,UK_E09000027,TRUE
UK_E09000028,-0.07583008361647203,51.48332450921185,UK,UKI4,UKI44,E09000028,Southwark,317256,29.92020056,2020,UK_E09000028,TRUE
UK_E09000029,-0.18319241175221226,51.367748172478805,UK,UKI6,UKI63,E09000029,Sutton,204525,43.86306215,2020,UK_E09000029,TRUE
UK_E09000030,-0.0403418364126973,51.517871407690016,UK,UKI4,UKI42,E09000030,Tower Hamlets,317705,21.58037174,2020,UK_E09000030,TRUE
UK_E09000031,-0.012191482629514657,51.581799254424816,UK,UKI5,UKI53,E09000031,Waltham Forest,276700,38.8182535,2020,UK_E09000031,TRUE
UK_E09000032,-0.1764672953795641,51.45214250581051,UK,UKI3,UKI34,E09000032,Wandsworth,326474,35.23461066,2020,UK_E09000032,TRUE
UK_E09000033,-0.17070025537749736,51.517305129092094,UK,UKI3,UKI32,E09000033,Westminster,255324,22.04026362,2020,UK_E09000033,TRUE
UK_N09000001,-6.010752802178106,54.69073879780918,UK,UKN0,UKN0D,N09000001,Antrim and Newtownabbey,142492,727.84699189,2020,UK_N09000001,TRUE
UK_N09000002,-6.381780888255526,54.41530685091431,UK,UKN0,UKN07,N09000002,"Armagh City, Banbridge and Craigavon",214090,1435.44022348,2020,UK_N09000002,TRUE
UK_N09000003,-5.939836534635772,54.59161550083138,UK,UKN0,UKN06,N09000003,Belfast,341877,137.70502058,2020,UK_N09000003,TRUE
UK_N09000004,-6.672459673034372,55.10402877790452,UK,UKN0,UKN0C,N09000004,Causeway Coast and Glens,144246,1984.23911128,2020,UK_N09000004,TRUE
UK_N09000005,-7.334868929439095,54.98321619748774,UK,UKN0,UKN0A,N09000005,Derry City and Strabane,150679,1248.82921484,2020,UK_N09000005,TRUE
UK_N09000006,-7.425378504310224,54.495063783678916,UK,UKN0,UKN0G,N09000006,Fermanagh and Omagh,116835,3005.97451213,2020,UK_N09000006,TRUE
UK_N09000007,-5.99316133207764,54.53328336249087,UK,UKN0,UKN0E,N09000007,Lisburn and Castlereagh,144381,510.07664344,2020,UK_N09000007,TRUE
UK_N09000008,-5.997126265895909,54.80725644542316,UK,UKN0,UKN0F,N09000008,Mid and East Antrim,138773,1049.46961555,2020,UK_N09000008,TRUE
UK_N09000009,-6.712855501790485,54.63644431906383,UK,UKN0,UKN0B,N09000009,Mid Ulster,147392,1954.12808788,2020,UK_N09000009,TRUE
UK_N09000010,-6.1079536115223965,54.22006141466988,UK,UKN0,UKN08,N09000010,"Newry, Mourne and Down",180012,1640.63612193,2020,UK_N09000010,TRUE
UK_N09000011,-5.6768998472678724,54.62453569149947,UK,UKN0,UKN09,N09000011,Ards and North Down,160864,460.96033379,2020,UK_N09000011,TRUE
UK_S30000003,-3.7966524212399566,56.13219911277602,UK,UKM7,UKM72,S30000003,Clackmannanshire,51400,163.97502576,2020,UK_S30000003,TRUE
UK_S30000005,-2.9263098511772467,55.957840923013435,UK,UKM7,UKM73,S30000005,East Lothian,105790,679.93562349,2020,UK_S30000005,TRUE
UK_S30000006,-3.1095077713331345,55.86619274360777,UK,UKM7,UKM73,S30000006,Midlothian,91340,355.48056353,2020,UK_S30000006,TRUE
UK_S30000007,-2.7536524097147645,55.59100710149642,UK,UKM9,UKM91,S30000007,Scottish Borders,115270,4742.6922362,2020,UK_S30000007,TRUE
UK_S30000008,-3.2061273306046894,55.94681681187407,UK,UKM7,UKM75,S30000008,City of Edinburgh,518500,263.54605976,2020,UK_S30000008,TRUE
UK_S30000009,-3.7730381792263654,56.00823695133747,UK,UKM7,UKM76,S30000009,Falkirk,160340,299.5303089,2020,UK_S30000009,TRUE
UK_S30000011,-3.965143972111184,56.121394362247486,UK,UKM7,UKM77,S30000011,Stirling,94330,2255.26259764,2020,UK_S30000011,TRUE
UK_S30000012,-3.572445578145768,55.89897027624266,UK,UKM7,UKM78,S30000012,West Lothian,182140,428.97841373,2020,UK_S30000012,TRUE
UK_S30000013,-4.731757360106535,56.01167605362158,UK,UKM8,UKM81,S30000013,Helensburgh and Lomond,25866,382.38671579,2020,UK_S30000013,TRUE
UK_S30000014,-4.488384891494451,55.94096756842277,UK,UKM8,UKM81,S30000014,West Dunbartonshire,89130,178.59845831,2020,UK_S30000014,TRUE
UK_S30000016,-3.7611284742146123,55.03717527066775,UK,UKM9,UKM92,S30000016,Dumfries and Galloway,148790,6448.75376414,2020,UK_S30000016,TRUE
UK_S30000017,-4.447425030005688,55.58402103928285,UK,UKM9,UKM93,S30000017,East Ayrshire,121840,1270.56603587,2020,UK_S30000017,TRUE
UK_S30000018,-4.716178404725901,55.66065519006253,UK,UKM9,UKM93,S30000018,North Ayrshire mainland,129379,441.41675933,2020,UK_S30000018,TRUE
UK_S30000020,-4.329440721831949,55.78913861338991,UK,UKM8,UKM83,S30000020,East Renfrewshire,95170,174.28519062,2020,UK_S30000020,TRUE
UK_S30000021,-4.446423507333592,55.85007557458016,UK,UKM8,UKM83,S30000021,Renfrewshire,177790,263.68737562,2020,UK_S30000021,TRUE
UK_S30000022,-4.7584524552531455,55.938777016662634,UK,UKM8,UKM83,S30000022,Inverclyde,78150,162.03701189,2020,UK_S30000022,TRUE
UK_S30000024,-4.630943327958489,55.45810056326666,UK,UKM9,UKM94,S30000024,South Ayrshire,112550,1224.97144341,2020,UK_S30000024,TRUE
UK_S30000025,-4.1059477992496545,55.77153726966802,UK,UKM9,UKM95,S30000025,South Lanarkshire,319020,1774.71305344,2020,UK_S30000025,TRUE
UK_S30000026,-2.1244035322094517,57.152010764757726,UK,UKM5,UKM50,S30000026,Aberdeen City,227560,186.41893748,2020,UK_S30000026,TRUE
UK_S30000027,-2.2218677932508504,57.31455672330574,UK,UKM5,UKM50,S30000027,Aberdeenshire,261470,6326.38021811,2020,UK_S30000027,TRUE
UK_S30000028,-4.300185951986676,57.67498066379691,UK,UKM6,UKM61,S30000028,Ross and Cromarty,55338,5203.12143673,2020,UK_S30000028,TRUE
UK_S30000029,-3.3799779708681026,58.46694561961901,UK,UKM6,UKM61,S30000029,Caithness and Sutherland,38267,7879.4979934,2020,UK_S30000029,TRUE
UK_S30000030,-4.185601079274723,57.48083332280624,UK,UKM6,UKM62,S30000030,Inverness and Nairn,94947,3361.41703248,2020,UK_S30000030,TRUE
UK_S30000031,-3.8074204681106902,57.21610798495918,UK,UKM6,UKM62,S30000031,Badenoch and Strathspey,13909,2365.34113505,2020,UK_S30000031,TRUE
UK_S30000032,-3.5670552523006775,57.59107923079537,UK,UKM6,UKM62,S30000032,West Moray,24042,1414.88170027,2020,UK_S30000032,TRUE
UK_S30000033,-3.215026733244596,57.65631868551559,UK,UKM6,UKM62,S30000033,North East Moray,71478,824.4911577,2020,UK_S30000033,TRUE
UK_S30000034,-5.153303671977308,55.54206510827539,UK,UKM6,UKM63,S30000034,Arran and Cumbrae,5901,447.40186041,2020,UK_S30000034,TRUE
UK_S30000035,-6.0617174586803015,56.58323881025621,UK,UKM6,UKM63,S30000035,Argyll and Bute Islands,7214,2134.61667324,2020,UK_S30000035,TRUE
UK_S30000036,-5.3121278510981504,56.011801762422486,UK,UKM6,UKM63,S30000036,Argyll and Bute Mainland,53180,4494.40815671,2020,UK_S30000036,TRUE
UK_S30000037,-5.107441797941529,56.82800709718442,UK,UKM6,UKM63,S30000037,Lochaber,19856,4644.78998914,2020,UK_S30000037,TRUE
UK_S30000038,-6.1772695812995035,57.3996320567113,UK,UKM6,UKM63,S30000038,Skye and Lochalsh,13223,2757.26757777,2020,UK_S30000038,TRUE
UK_S30000039,-6.383235858682837,58.220822951872165,UK,UKM6,UKM64,S30000039,Na h-Eileanan Siar,26830,3109.58174016,2020,UK_S30000039,TRUE
UK_S30000040,-2.9962983204040983,58.97491604296158,UK,UKM6,UKM65,S30000040,Orkney Islands,22190,1019.70999678,2020,UK_S30000040,TRUE
UK_S30000041,-1.1902160991318207,60.15152449145523,UK,UKM6,UKM66,S30000041,Shetland Islands,22990,1479.55220068,2020,UK_S30000041,TRUE
UK_S30000042,-3.2194115260769696,56.14897188521458,UK,UKM7,UKM72,S30000042,Fife,371910,1326.81945872,2020,UK_S30000042,TRUE
UK_S30000043,-3.4775629203594844,56.408625103294646,UK,UKM7,UKM77,S30000043,Perth and Kinross,151290,5390.51550311,2020,UK_S30000043,TRUE
UK_S30000048,-2.691774163112094,56.60259443706839,UK,UKM7,UKM71,S30000048,Angus,116040,2194.76727909,2020,UK_S30000048,TRUE
UK_S30000049,-2.970777149942492,56.47340651658945,UK,UKM7,UKM71,S30000049,Dundee City,148750,59.84279915,2020,UK_S30000049,TRUE
UK_S30000050,-4.237907171149028,55.92763030325048,UK,UKM8,UKM81,S30000050,East Dunbartonshire,108330,174.53925249,2020,UK_S30000050,TRUE
UK_S30000052,-4.269457530713686,55.85868349910174,UK,UKM8,UKM82,S30000052,Glasgow City,626410,176.39870689,2020,UK_S30000052,TRUE
UK_S30000053,-3.9934611132915916,55.853683596356156,UK,UKM8,UKM84,S30000053,North Lanarkshire,340180,472.48475122,2020,UK_S30000053,TRUE
UK_W06000001,-4.427084854015427,53.283909812072686,UK,UKL1,UKL11,W06000001,Isle of Anglesey,69961,716.37131045,2020,UK_W06000001,TRUE
UK_W06000002,-4.1722200856393945,53.09015810801215,UK,UKL1,UKL12,W06000002,Gwynedd,124178,2553.34515735,2020,UK_W06000002,TRUE
UK_W06000003,-3.7492450360160037,53.29337272961682,UK,UKL1,UKL13,W06000003,Conwy,117181,1132.07260386,2020,UK_W06000003,TRUE
UK_W06000004,-3.4369462447362635,53.27923329762594,UK,UKL1,UKL13,W06000004,Denbighshire,95330,839.23045047,2020,UK_W06000004,TRUE
UK_W06000005,-3.083028257213656,53.199013420882075,UK,UKL2,UKL23,W06000005,Flintshire,155593,442.34896536,2020,UK_W06000005,TRUE
UK_W06000006,-3.0069560455876068,53.04498448358834,UK,UKL2,UKL23,W06000006,Wrexham,136126,504.09881664,2020,UK_W06000006,TRUE
UK_W06000008,-4.142701877222702,52.31460569242983,UK,UKL1,UKL14,W06000008,Ceredigion,72992,1790.74934055,2020,UK_W06000008,TRUE
UK_W06000009,-4.944817350684173,51.75562912229495,UK,UKL1,UKL14,W06000009,Pembrokeshire,125055,1623.06681831,2020,UK_W06000009,TRUE
UK_W06000010,-4.159306565842824,51.73131018439028,UK,UKL1,UKL14,W06000010,Carmarthenshire,187568,2375.49738909,2020,UK_W06000010,TRUE
UK_W06000011,-3.9666368770536,51.63693448522393,UK,UKL1,UKL18,W06000011,Swansea,246466,378.85040113,2020,UK_W06000011,TRUE
UK_W06000012,-3.7989057517827076,51.646407879339336,UK,UKL1,UKL17,W06000012,Neath Port Talbot,142906,443.52022031,2020,UK_W06000012,TRUE
UK_W06000013,-3.6065231944986524,51.52859210208822,UK,UKL1,UKL17,W06000013,Bridgend,144876,250.91647282,2020,UK_W06000013,TRUE
UK_W06000014,-3.26721031117658,51.41818489985682,UK,UKL2,UKL22,W06000014,Vale of Glamorgan,132165,331.48514536,2020,UK_W06000014,TRUE
UK_W06000015,-3.1837842821057447,51.49726071103779,UK,UKL2,UKL22,W06000015,Cardiff,364248,142.59623166,2020,UK_W06000015,TRUE
UK_W06000016,-3.4060365385767164,51.6238194892329,UK,UKL1,UKL15,W06000016,Rhondda Cynon Taf,240131,424.36300806,2020,UK_W06000016,TRUE
UK_W06000018,-3.208699002743802,51.63762511709507,UK,UKL1,UKL16,W06000018,Caerphilly,181019,277.55184531,2020,UK_W06000018,TRUE
UK_W06000019,-3.189050471707349,51.76983378409463,UK,UKL1,UKL16,W06000019,Blaenau Gwent,69713,108.79263709,2020,UK_W06000019,TRUE
UK_W06000020,-3.0392784046007733,51.677903824518395,UK,UKL1,UKL16,W06000020,Torfaen,93049,126.31651302,2020,UK_W06000020,TRUE
UK_W06000021,-2.8282297236038954,51.70549771510234,UK,UKL2,UKL21,W06000021,Monmouthshire,94142,852.36059634,2020,UK_W06000021,TRUE
UK_W06000022,-2.9881642320855324,51.58885145193915,UK,UKL2,UKL21,W06000022,Newport,153302,192.97903983,2020,UK_W06000022,TRUE
UK_W06000023,-3.346790656261862,52.29275486094022,UK,UKL2,UKL24,W06000023,Powys,132447,5198.20732698,2020,UK_W06000023,TRUE
UK_W06000024,-3.3665350248356725,51.74122475814687,UK,UKL1,UKL15,W06000024,Merthyr Tydfil,60183,112.0193566,2020,UK_W06000024,TRUE
