gisco_id,longitude,latitude,country,nuts_2,nuts_3,lau_id,lau_name,population,area_km2,year,fid,concordance,pop_weighted
EL_01010101,25.404280850647385,41.118495458543194,EL,EL51,EL513,01010101,Δημοτική Κοινότητα Κομοτηνής,54272,66.87473936,2019,EL_01010101,official,TRUE
EL_01010102,25.539284661643606,41.08002628840427,EL,EL51,EL513,01010102,Τοπική Κοινότητα Ανθοχωρίου,82,15.23479286,2019,EL_01010102,official,TRUE
EL_01010103,25.534620427463967,41.1397980856059,EL,EL51,EL513,01010103,Τοπική Κοινότητα Γρατίνης,365,13.86760746,2019,EL_01010103,official,TRUE
EL_01010104,25.463916422634,41.08604564358496,EL,EL51,EL513,01010104,Δημοτική Κοινότητα Θρυλορίου,1910,26.75300855,2019,EL_01010104,official,TRUE
EL_01010105,25.418223259557276,41.0985593173934,EL,EL51,EL513,01010105,Τοπική Κοινότητα Ιτέας,77,4.55994613,2019,EL_01010105,official,TRUE
EL_01010106,25.464742196384748,41.14380277609426,EL,EL51,EL513,01010106,Τοπική Κοινότητα Κάλχαντος,1160,114.42740939,2019,EL_01010106,official,TRUE
EL_01010107,25.43946226521381,41.14442642377735,EL,EL51,EL513,01010107,Τοπική Κοινότητα Καρυδιάς,357,9.68401239,2019,EL_01010107,official,TRUE
EL_01010108,25.434134592308265,41.10528635992727,EL,EL51,EL513,01010108,Τοπική Κοινότητα Κηκιδίου,610,3.01900854,2019,EL_01010108,official,TRUE
EL_01010109,25.412554813923393,41.08598896809487,EL,EL51,EL513,01010109,Τοπική Κοινότητα Κοσμίου,922,23.04750739,2019,EL_01010109,official,TRUE
EL_01010110,25.427991733427024,41.18051618804909,EL,EL51,EL513,01010110,Τοπική Κοινότητα Πανδρόσου,394,86.67777811,2019,EL_01010110,official,TRUE
EL_01010111,25.499949503632592,41.14505327597412,EL,EL51,EL513,01010111,Τοπική Κοινότητα Σιδηράδων,199,14.58934898,2019,EL_01010111,official,TRUE
EL_01010112,25.503621133002884,41.14434318875047,EL,EL51,EL513,01010112,Τοπική Κοινότητα Στυλάριου,300,6.33362302,2019,EL_01010112,official,TRUE
EL_01010201,25.28695009727166,41.08862696063944,EL,EL51,EL513,01010201,Τοπική Κοινότητα Αιγείρου,1207,29.39178529,2019,EL_01010201,official,TRUE
EL_01010202,25.168965123364348,40.95130091403556,EL,EL51,EL513,01010202,Τοπική Κοινότητα Αρωγής,9,3.96088165,2019,EL_01010202,official,TRUE
EL_01010203,25.227641870061586,40.97633103811248,EL,EL51,EL513,01010203,Τοπική Κοινότητα Γλυφάδας,136,21.77630374,2019,EL_01010203,official,TRUE
EL_01010204,25.230138997991798,41.056101543943186,EL,EL51,EL513,01010204,Τοπική Κοινότητα Καλλίστης,122,4.28550741,2019,EL_01010204,official,TRUE
EL_01010205,25.297611337096235,41.11236370144994,EL,EL51,EL513,01010205,Τοπική Κοινότητα Μελέτης,497,4.78624893,2019,EL_01010205,official,TRUE
EL_01010206,25.210682896589393,40.97907108064699,EL,EL51,EL513,01010206,Τοπική Κοινότητα Μέσης,183,11.60732976,2019,EL_01010206,official,TRUE
EL_01010207,25.2129551987367,41.033284816885896,EL,EL51,EL513,01010207,Τοπική Κοινότητα Νέας Καλλίστης,391,15.87468957,2019,EL_01010207,official,TRUE
EL_01010208,25.196194720307155,40.94460307331647,EL,EL51,EL513,01010208,Τοπική Κοινότητα Παραλίας Μέσης,6,7.61601484,2019,EL_01010208,official,TRUE
EL_01010209,25.238475418584684,41.01997993281472,EL,EL51,EL513,01010209,Τοπική Κοινότητα Πόρπης,452,25.33692447,2019,EL_01010209,official,TRUE
EL_01010210,25.132108988887673,40.96375370194472,EL,EL51,EL513,01010210,Τοπική Κοινότητα Φαναρίου,490,13.67537229,2019,EL_01010210,official,TRUE
EL_01010301,25.358041539612014,41.02464515842017,EL,EL51,EL513,01010301,Τοπική Κοινότητα Νέου Σιδηροχωρίου,1327,48.14298537,2019,EL_01010301,official,TRUE
EL_01010302,25.40253552332386,41.040932799582436,EL,EL51,EL513,01010302,Τοπική Κοινότητα Αγίων Θεοδώρων,491,12.42671538,2019,EL_01010302,official,TRUE
EL_01010303,25.415203589752927,41.04916121449518,EL,EL51,EL513,01010303,Τοπική Κοινότητα Μεγάλου Δουκάτου,418,14.08623372,2019,EL_01010303,official,TRUE
EL_01010304,25.311432067691644,41.02693722350631,EL,EL51,EL513,01010304,Τοπική Κοινότητα Παγουρίων,542,47.49051101,2019,EL_01010304,official,TRUE
EL_01020101,25.62870345176482,41.122494357063864,EL,EL51,EL513,01020101,Τοπική Κοινότητα Φιλλύρας,909,9.30346393,2019,EL_01020101,official,TRUE
EL_01020102,25.629027589084515,41.1262195272588,EL,EL51,EL513,01020102,Τοπική Κοινότητα Άγρας,197,6.61279784,2019,EL_01020102,official,TRUE
EL_01020103,25.582693342565122,41.18499936421631,EL,EL51,EL513,01020103,Τοπική Κοινότητα Άνω Δροσίνης,106,9.43444571,2019,EL_01020103,official,TRUE
EL_01020104,25.556307543720255,41.08100422794478,EL,EL51,EL513,01020104,Τοπική Κοινότητα Αράτου,1158,4.22318707,2019,EL_01020104,official,TRUE
EL_01020105,25.544197373961158,41.213099799870186,EL,EL51,EL513,01020105,Τοπική Κοινότητα Αρδείας,27,7.18733859,2019,EL_01020105,official,TRUE
EL_01020106,25.542938475455937,41.07380312737624,EL,EL51,EL513,01020106,Τοπική Κοινότητα Αρχοντικών,365,4.52817265,2019,EL_01020106,official,TRUE
EL_01020107,25.558941910734053,41.089685014082605,EL,EL51,EL513,01020107,Τοπική Κοινότητα Βραγιάς,521,5.00932707,2019,EL_01020107,official,TRUE
EL_01020108,25.595109949092503,41.138073921246445,EL,EL51,EL513,01020108,Τοπική Κοινότητα Δοκού,970,16.58763814,2019,EL_01020108,official,TRUE
EL_01020109,25.638780540011588,41.16437070351696,EL,EL51,EL513,01020109,Τοπική Κοινότητα Δροσιάς,223,14.40148135,2019,EL_01020109,official,TRUE
EL_01020110,25.57858048721039,41.2138132828572,EL,EL51,EL513,01020110,Τοπική Κοινότητα Δρύμης,302,24.94833006,2019,EL_01020110,official,TRUE
EL_01020111,25.755688409905783,41.231749716096864,EL,EL51,EL513,01020111,Τοπική Κοινότητα Εσοχής,323,28.13250538,2019,EL_01020111,official,TRUE
EL_01020112,25.595879892928735,41.230394894157484,EL,EL51,EL513,01020112,Τοπική Κοινότητα Κάτω Δροσινής,66,4.7567155,2019,EL_01020112,official,TRUE
EL_01020113,25.544551325276036,41.12864197978039,EL,EL51,EL513,01020113,Τοπική Κοινότητα Λαμπρού,492,5.67571269,2019,EL_01020113,official,TRUE
EL_01020114,25.57371627993101,41.15031166139832,EL,EL51,EL513,01020114,Τοπική Κοινότητα Νέου Καλλυντήριου,241,10.32421773,2019,EL_01020114,official,TRUE
EL_01020115,25.665952688551563,41.13389280327922,EL,EL51,EL513,01020115,Τοπική Κοινότητα Νεύρων,158,8.48046554,2019,EL_01020115,official,TRUE
EL_01020116,25.551693505456544,41.14577671589868,EL,EL51,EL513,01020116,Τοπική Κοινότητα Ομηρικού,313,4.61024296,2019,EL_01020116,official,TRUE
EL_01020117,25.584499106678432,41.09476008867726,EL,EL51,EL513,01020117,Τοπική Κοινότητα Πάσσου,747,14.33583475,2019,EL_01020117,official,TRUE
EL_01020118,25.51423136073508,41.199194695874745,EL,EL51,EL513,01020118,Τοπική Κοινότητα Πατερμών,109,12.16744602,2019,EL_01020118,official,TRUE
EL_01020119,25.717966380173323,41.204554147115516,EL,EL51,EL513,01020119,Τοπική Κοινότητα Ραγάδας,270,36.99077161,2019,EL_01020119,official,TRUE
EL_01020120,25.61456518434925,41.16256029131445,EL,EL51,EL513,01020120,Τοπική Κοινότητα Σκιάδας,86,8.20385476,2019,EL_01020120,official,TRUE
EL_01020201,25.693697020393977,41.083439014426375,EL,EL51,EL513,01020201,Τοπική Κοινότητα Αρριανών,1147,13.3954352,2019,EL_01020201,official,TRUE
EL_01020202,25.793659263034108,41.0834445966681,EL,EL51,EL513,01020202,Τοπική Κοινότητα Αγιοχωρίου,226,17.86962164,2019,EL_01020202,official,TRUE
EL_01020203,25.68224423469433,41.1434868012426,EL,EL51,EL513,01020203,Τοπική Κοινότητα Δαρμένης,314,5.28793329,2019,EL_01020203,official,TRUE
EL_01020204,25.64961910094802,41.11195174645813,EL,EL51,EL513,01020204,Τοπική Κοινότητα Δειλινών,307,4.07965961,2019,EL_01020204,official,TRUE
EL_01020205,25.764669350817034,41.08441293241647,EL,EL51,EL513,01020205,Τοπική Κοινότητα Ηπίου,265,10.10541409,2019,EL_01020205,official,TRUE
EL_01020206,25.72056190222623,41.109352003655054,EL,EL51,EL513,01020206,Τοπική Κοινότητα Κινύρων,171,6.82913914,2019,EL_01020206,official,TRUE
EL_01020207,25.685385597087034,41.06182920704435,EL,EL51,EL513,01020207,Τοπική Κοινότητα Λυκείου,1016,10.73174859,2019,EL_01020207,official,TRUE
EL_01020208,25.649893522191363,41.0659660902422,EL,EL51,EL513,01020208,Τοπική Κοινότητα Μικρού Πιστού,433,3.78142234,2019,EL_01020208,official,TRUE
EL_01020209,25.653738113791437,41.083438803894474,EL,EL51,EL513,01020209,Τοπική Κοινότητα Μύστακα,419,4.67533048,2019,EL_01020209,official,TRUE
EL_01020210,25.79863837108083,41.07815563023271,EL,EL51,EL513,01020210,Τοπική Κοινότητα Νέδας,246,16.58667941,2019,EL_01020210,official,TRUE
EL_01020211,25.722137809308318,41.11032350779409,EL,EL51,EL513,01020211,Τοπική Κοινότητα Νικητών,94,4.48583212,2019,EL_01020211,official,TRUE
EL_01020212,25.718994896254618,41.131247179016334,EL,EL51,EL513,01020212,Τοπική Κοινότητα Πλαγιάς,294,41.14905566,2019,EL_01020212,official,TRUE
EL_01020213,25.677475949930535,41.125808895062626,EL,EL51,EL513,01020213,Τοπική Κοινότητα Σκαλώματος,318,4.97275656,2019,EL_01020213,official,TRUE
EL_01020214,25.793607250689703,41.093409254087454,EL,EL51,EL513,01020214,Τοπική Κοινότητα Στροφής,339,34.25933186,2019,EL_01020214,official,TRUE
EL_01020301,25.86303396176174,41.220226018556694,EL,EL51,EL513,01020301,Τοπική Κοινότητα Κέχρου,1222,141.75627823,2019,EL_01020301,official,TRUE
EL_01020401,25.699419345261727,41.261051843490016,EL,EL51,EL513,01020401,Δημοτική Κοινότητα Οργάνης,2183,216.61650946,2019,EL_01020401,official,TRUE
EL_01030101,25.171764850245356,41.11935006190788,EL,EL51,EL513,01030101,Δημοτική Κοινότητα Ιάσμου,4399,161.74612283,2019,EL_01030101,official,TRUE
EL_01030102,25.23353150388102,41.07248293041501,EL,EL51,EL513,01030102,Τοπική Κοινότητα Αμβροσίας,766,21.928589,2019,EL_01030102,official,TRUE
EL_01030103,25.187039735525477,41.045391890965675,EL,EL51,EL513,01030103,Τοπική Κοινότητα Σάλπης,538,38.96450454,2019,EL_01030103,official,TRUE
EL_01030201,25.067735384855368,41.127619570471516,EL,EL51,EL513,01030201,Τοπική Κοινότητα Αμαξάδων,1773,34.67571099,2019,EL_01030201,official,TRUE
EL_01030301,25.277655974475067,41.134392422409135,EL,EL51,EL513,01030301,Τοπική Κοινότητα Σώστη,712,38.1651761,2019,EL_01030301,official,TRUE
EL_01030302,25.363422693062933,41.154577441564015,EL,EL51,EL513,01030302,Δημοτική Κοινότητα Ασωμάτων,2851,74.87958113,2019,EL_01030302,official,TRUE
EL_01030303,25.283334516857128,41.196423203053996,EL,EL51,EL513,01030303,Τοπική Κοινότητα Κερασέας,8,16.26774319,2019,EL_01030303,official,TRUE
EL_01030304,25.2548928897981,41.13189953930411,EL,EL51,EL513,01030304,Τοπική Κοινότητα Ληνού,411,6.98188718,2019,EL_01030304,official,TRUE
EL_01030305,25.303580500171304,41.14749743559349,EL,EL51,EL513,01030305,Τοπική Κοινότητα Μέγα Πιστού,886,14.06721117,2019,EL_01030305,official,TRUE
EL_01030306,25.321683005143154,41.15122171731233,EL,EL51,EL513,01030306,Τοπική Κοινότητα Μίσχου,729,13.53987964,2019,EL_01030306,official,TRUE
EL_01030307,25.226383702862947,41.125238437867274,EL,EL51,EL513,01030307,Τοπική Κοινότητα Πολυάνθου,737,65.51190808,2019,EL_01030307,official,TRUE
EL_01040101,25.68737707601086,41.01994552839764,EL,EL51,EL513,01040101,Δημοτική Κοινότητα Σαπών,4988,130.94529493,2019,EL_01040101,official,TRUE
EL_01040102,25.617273675795712,41.08036250412355,EL,EL51,EL513,01040102,Τοπική Κοινότητα Αμφίας,359,5.39013506,2019,EL_01040102,official,TRUE
EL_01040103,25.59020300281383,41.069904124821676,EL,EL51,EL513,01040103,Τοπική Κοινότητα Αρίσβης,1054,9.92973859,2019,EL_01040103,official,TRUE
EL_01040104,25.710676635359224,41.06544443493542,EL,EL51,EL513,01040104,Τοπική Κοινότητα Έβρενου,455,12.58496829,2019,EL_01040104,official,TRUE
EL_01040105,25.71221863587602,41.07581277776853,EL,EL51,EL513,01040105,Τοπική Κοινότητα Ιασίου,83,6.45007017,2019,EL_01040105,official,TRUE
EL_01040106,25.770475968253727,41.06338144410718,EL,EL51,EL513,01040106,Τοπική Κοινότητα Κιζαρίου,45,17.35239996,2019,EL_01040106,official,TRUE
EL_01040107,25.56985267185941,40.94224410958867,EL,EL51,EL513,01040107,Τοπική Κοινότητα Κρωβύλης,416,50.94447764,2019,EL_01040107,official,TRUE
EL_01040108,25.571453880239364,41.0317890123251,EL,EL51,EL513,01040108,Τοπική Κοινότητα Λοφαρίου,528,27.4639811,2019,EL_01040108,official,TRUE
EL_01040109,25.76796248237976,41.107003182643844,EL,EL51,EL513,01040109,Τοπική Κοινότητα Νέας Σάντας,188,65.42721343,2019,EL_01040109,official,TRUE
EL_01040110,25.554640462305972,40.98658391863758,EL,EL51,EL513,01040110,Τοπική Κοινότητα Στρύμης,267,30.38323865,2019,EL_01040110,official,TRUE
EL_01040201,25.421553455694344,40.97473396485957,EL,EL51,EL513,01040201,Τοπική Κοινότητα Ξυλαγανής,1575,59.54643802,2019,EL_01040201,official,TRUE
EL_01040202,25.473054417923013,41.05300716505332,EL,EL51,EL513,01040202,Τοπική Κοινότητα Αμαράντων,1918,40.51137376,2019,EL_01040202,official,TRUE
EL_01040203,25.367259659125022,40.953899032988026,EL,EL51,EL513,01040203,Τοπική Κοινότητα Ιμέρου,276,21.12840394,2019,EL_01040203,official,TRUE
EL_01040204,25.52430090634097,40.90627573984627,EL,EL51,EL513,01040204,Τοπική Κοινότητα Μαρωνείας,570,76.49281873,2019,EL_01040204,official,TRUE
EL_01040205,25.51391960870856,41.00851395282929,EL,EL51,EL513,01040205,Τοπική Κοινότητα Μιράνων,1250,30.14046828,2019,EL_01040205,official,TRUE
EL_01040206,25.469140379898,41.00283472593241,EL,EL51,EL513,01040206,Τοπική Κοινότητα Πελαγίας,44,10.58689011,2019,EL_01040206,official,TRUE
EL_01040207,25.470375949558726,40.94221439312543,EL,EL51,EL513,01040207,Τοπική Κοινότητα Προσκυνητών,717,49.17916409,2019,EL_01040207,official,TRUE
EL_02010101,24.145523116589175,41.14673323615168,EL,EL51,EL514,02010101,Δημοτική Κοινότητα Δράμας,45828,59.13577195,2019,EL_02010101,official,TRUE
EL_02010102,24.20183470012707,41.16810734512075,EL,EL51,EL514,02010102,Τοπική Κοινότητα Καλλιφύτου,1600,39.18363133,2019,EL_02010102,official,TRUE
EL_02010103,24.084321372589148,41.10358344206222,EL,EL51,EL514,02010103,Τοπική Κοινότητα Καλού Αγρού,1178,14.0594184,2019,EL_02010103,official,TRUE
EL_02010104,24.118901076106397,41.096260249298766,EL,EL51,EL514,02010104,Τοπική Κοινότητα Κουδουνίων,996,10.0560961,2019,EL_02010104,official,TRUE
EL_02010105,24.208163983991042,41.29111409921606,EL,EL51,EL514,02010105,Τοπική Κοινότητα Λιβαδερού,139,123.20974803,2019,EL_02010105,official,TRUE
EL_02010106,24.2571476322546,41.22290622032852,EL,EL51,EL514,02010106,Τοπική Κοινότητα Μακρυπλαγίου,49,73.04303849,2019,EL_02010106,official,TRUE
EL_02010107,24.14673975023328,41.112025081311685,EL,EL51,EL514,02010107,Τοπική Κοινότητα Μαυροβάτου,736,7.54453874,2019,EL_02010107,official,TRUE
EL_02010108,24.17783809306708,41.10256572998046,EL,EL51,EL514,02010108,Τοπική Κοινότητα Μικροχωρίου,630,5.94642413,2019,EL_02010108,official,TRUE
EL_02010109,24.136373160050557,41.1617168862768,EL,EL51,EL514,02010109,Τοπική Κοινότητα Μοναστηρακίου,883,30.74707662,2019,EL_02010109,official,TRUE
EL_02010110,24.07065854345428,41.1491957965022,EL,EL51,EL514,02010110,Τοπική Κοινότητα Μυλοποτάμου,711,11.32715829,2019,EL_02010110,official,TRUE
EL_02010111,24.07615588936052,41.12075459907611,EL,EL51,EL514,02010111,Τοπική Κοινότητα Νικοτσάρας,322,5.14934117,2019,EL_02010111,official,TRUE
EL_02010112,24.103594997352,41.188008426192326,EL,EL51,EL514,02010112,Δημοτική Κοινότητα Ξηροποτάμου,2735,84.66827422,2019,EL_02010112,official,TRUE
EL_02010113,24.2090730542307,41.1291882623501,EL,EL51,EL514,02010113,Δημοτική Κοινότητα Χωριστής,2725,24.65989203,2019,EL_02010113,official,TRUE
EL_02010201,24.236758550106703,41.362651673075874,EL,EL51,EL514,02010201,Τοπική Κοινότητα Σιδηρονέρου,310,258.50980387,2019,EL_02010201,official,TRUE
EL_02010202,24.284492311090013,41.41083256062373,EL,EL51,EL514,02010202,Τοπική Κοινότητα Σκαλωτής,102,92.93651449,2019,EL_02010202,official,TRUE
EL_02020101,24.18676968436229,41.0510536505495,EL,EL51,EL514,02020101,Δημοτική Κοινότητα Καλαμπακίου,3110,24.13128639,2019,EL_02020101,official,TRUE
EL_02020102,24.161645746757387,41.019268585903525,EL,EL51,EL514,02020102,Τοπική Κοινότητα Αγίας Παρασκευής,454,10.43675355,2019,EL_02020102,official,TRUE
EL_02020103,24.2098316081172,41.00995231218038,EL,EL51,EL514,02020103,Τοπική Κοινότητα Καλαμώνος,597,23.01466981,2019,EL_02020103,official,TRUE
EL_02020104,24.131223535732286,41.044593427402745,EL,EL51,EL514,02020104,Τοπική Κοινότητα Νεροφράκτου,584,13.52221665,2019,EL_02020104,official,TRUE
EL_02020105,24.188814470698205,41.08501127439487,EL,EL51,EL514,02020105,Τοπική Κοινότητα Φτελιάς,828,10.08841381,2019,EL_02020105,official,TRUE
EL_02020201,24.28766334282254,41.098309755832794,EL,EL51,EL514,02020201,Τοπική Κοινότητα Κυρίων,1958,50.6304364,2019,EL_02020201,official,TRUE
EL_02020202,24.246155900218803,41.072256197487704,EL,EL51,EL514,02020202,Δημοτική Κοινότητα Αγίου Αθανασίου,3150,25.60911154,2019,EL_02020202,official,TRUE
EL_02020203,24.307640533413505,41.12747000627762,EL,EL51,EL514,02020203,Τοπική Κοινότητα Αγοράς,101,12.78927715,2019,EL_02020203,official,TRUE
EL_02020204,24.22763357252366,41.091734633869024,EL,EL51,EL514,02020204,Δημοτική Κοινότητα Δοξάτου,2884,27.68561667,2019,EL_02020204,official,TRUE
EL_02020205,24.263208387564358,41.06276798497754,EL,EL51,EL514,02020205,Τοπική Κοινότητα Κεφαλαρίου,672,10.05343503,2019,EL_02020205,official,TRUE
EL_02020206,24.321743632953805,41.11879238341133,EL,EL51,EL514,02020206,Τοπική Κοινότητα Πηγαδίων,178,35.12858551,2019,EL_02020206,official,TRUE
EL_02030001,23.867942904242035,41.34120630285995,EL,EL51,EL514,02030001,Δημοτική Κοινότητα Κάτω Νευροκοπίου,2157,67.51925855,2019,EL_02030001,official,TRUE
EL_02030002,24.0046520367773,41.39548514555314,EL,EL51,EL514,02030002,Τοπική Κοινότητα Αχλαδέας,92,46.90243942,2019,EL_02030002,official,TRUE
EL_02030003,23.717247179334144,41.35401641550772,EL,EL51,EL514,02030003,Τοπική Κοινότητα Βαθυτόπου,461,32.48203326,2019,EL_02030003,official,TRUE
EL_02030004,23.999811387190917,41.31452441760814,EL,EL51,EL514,02030004,Τοπική Κοινότητα Βώλακος,1028,91.34287882,2019,EL_02030004,official,TRUE
EL_02030005,23.933923864504504,41.288542214312415,EL,EL51,EL514,02030005,Τοπική Κοινότητα Γρανίτου,78,26.68418181,2019,EL_02030005,official,TRUE
EL_02030006,23.800868722975494,41.34802663053311,EL,EL51,EL514,02030006,Τοπική Κοινότητα Δασωτού,235,17.59847593,2019,EL_02030006,official,TRUE
EL_02030007,23.82765929523166,41.41210904495991,EL,EL51,EL514,02030007,Τοπική Κοινότητα Εξοχής,150,43.69292959,2019,EL_02030007,official,TRUE
EL_02030008,23.694011262002878,41.34997253234334,EL,EL51,EL514,02030008,Τοπική Κοινότητα Καταφύτου,232,77.23977269,2019,EL_02030008,official,TRUE
EL_02030009,23.75876299432428,41.27543967202318,EL,EL51,EL514,02030009,Τοπική Κοινότητα Κάτω Βροντούς,554,60.32115849,2019,EL_02030009,official,TRUE
EL_02030010,23.898205363657567,41.402652922437746,EL,EL51,EL514,02030010,Τοπική Κοινότητα Λευκογείων,465,78.994126,2019,EL_02030010,official,TRUE
EL_02030011,24.055057681814215,41.383999780236245,EL,EL51,EL514,02030011,Τοπική Κοινότητα Μικροκλεισούρας,137,25.71889184,2019,EL_02030011,official,TRUE
EL_02030012,24.14974919799733,41.433295329338804,EL,EL51,EL514,02030012,Τοπική Κοινότητα Μικρομηλέας,38,130.42013768,2019,EL_02030012,official,TRUE
EL_02030013,23.852294593814907,41.30325665513002,EL,EL51,EL514,02030013,Τοπική Κοινότητα Οχυρού,514,42.09160177,2019,EL_02030013,official,TRUE
EL_02030014,24.03073015367318,41.398872252598146,EL,EL51,EL514,02030014,Τοπική Κοινότητα Παγονερίου,154,27.32884578,2019,EL_02030014,official,TRUE
EL_02030015,23.78069346716931,41.31243661398064,EL,EL51,EL514,02030015,Τοπική Κοινότητα Περιθωρίου,898,32.48338779,2019,EL_02030015,official,TRUE
EL_02030016,24.101999669439184,41.391901256230554,EL,EL51,EL514,02030016,Τοπική Κοινότητα Ποταμών,323,56.1239162,2019,EL_02030016,official,TRUE
EL_02030017,23.868493606930592,41.378829591175545,EL,EL51,EL514,02030017,Τοπική Κοινότητα Χρυσοκεφάλου,344,17.9093497,2019,EL_02030017,official,TRUE
EL_02040101,24.49389204396766,41.27095497593046,EL,EL51,EL514,02040101,Τοπική Κοινότητα Παρανεστίου,881,151.00242272,2019,EL_02040101,official,TRUE
EL_02040102,24.510302995723393,41.27169875758184,EL,EL51,EL514,02040102,Τοπική Κοινότητα Θολού,166,61.04010558,2019,EL_02040102,official,TRUE
EL_02040103,24.523005093653353,41.36406320987837,EL,EL51,EL514,02040103,Τοπική Κοινότητα Σίλης,49,575.58279829,2019,EL_02040103,official,TRUE
EL_02040201,24.312265390066532,41.16659335461238,EL,EL51,EL514,02040201,Τοπική Κοινότητα Νικηφόρου,321,33.20754215,2019,EL_02040201,official,TRUE
EL_02040202,24.26276186344069,41.13919089916948,EL,EL51,EL514,02040202,Τοπική Κοινότητα Αδριανής,1080,23.10900025,2019,EL_02040202,official,TRUE
EL_02040203,24.320206302236283,41.17266108279577,EL,EL51,EL514,02040203,Τοπική Κοινότητα Άνω Πυξαρίου,136,20.01433355,2019,EL_02040203,official,TRUE
EL_02040204,24.406028864648516,41.18817086102203,EL,EL51,EL514,02040204,Τοπική Κοινότητα Πλατανιάς,633,50.86404209,2019,EL_02040204,official,TRUE
EL_02040205,24.373508625165556,41.18100294527031,EL,EL51,EL514,02040205,Τοπική Κοινότητα Πλατανόβρυσης,211,54.20414301,2019,EL_02040205,official,TRUE
EL_02040206,24.448568701980154,41.21318994773229,EL,EL51,EL514,02040206,Τοπική Κοινότητα Πτελέας Πλατανιάς,209,28.9174983,2019,EL_02040206,official,TRUE
EL_02040207,24.34528466031311,41.20887268897386,EL,EL51,EL514,02040207,Τοπική Κοινότητα Υψηλής Ράχης,215,30.81730544,2019,EL_02040207,official,TRUE
EL_02050101,23.970979006023118,41.180535269956636,EL,EL51,EL514,02050101,Δημοτική Κοινότητα Προσοτσάνης,3553,49.00215273,2019,EL_02050101,official,TRUE
EL_02050102,23.92336262122909,41.13340487659037,EL,EL51,EL514,02050102,Τοπική Κοινότητα Ανθοχωρίου,132,5.04943979,2019,EL_02050102,official,TRUE
EL_02050103,23.889076560635747,41.202327221021,EL,EL51,EL514,02050103,Τοπική Κοινότητα Γραμμένης,320,4.71632409,2019,EL_02050103,official,TRUE
EL_02050104,23.903298579318815,41.145435057774705,EL,EL51,EL514,02050104,Τοπική Κοινότητα Καλής Βρύσης,705,27.08271668,2019,EL_02050104,official,TRUE
EL_02050105,23.919978572100998,41.11593496271881,EL,EL51,EL514,02050105,Τοπική Κοινότητα Καλλιθέας,378,28.18769022,2019,EL_02050105,official,TRUE
EL_02050106,23.92959317298364,41.19259805354207,EL,EL51,EL514,02050106,Τοπική Κοινότητα Κοκκινογείων,665,71.10425669,2019,EL_02050106,official,TRUE
EL_02050107,23.821509139550024,41.19347997821471,EL,EL51,EL514,02050107,Τοπική Κοινότητα Μικροπόλεως,845,65.97301672,2019,EL_02050107,official,TRUE
EL_02050108,23.83600573926221,41.22828429231522,EL,EL51,EL514,02050108,Τοπική Κοινότητα Πανοράματος,42,28.81222865,2019,EL_02050108,official,TRUE
EL_02050109,24.020521660500822,41.19171727870565,EL,EL51,EL514,02050109,Τοπική Κοινότητα Πετρούσσης,1860,62.43059963,2019,EL_02050109,official,TRUE
EL_02050110,24.022271276359188,41.252725667400746,EL,EL51,EL514,02050110,Τοπική Κοινότητα Πύργων,274,51.489502,2019,EL_02050110,official,TRUE
EL_02050111,23.84995275643058,41.16379617298618,EL,EL51,EL514,02050111,Τοπική Κοινότητα Χαριτωμένης,291,25.32996652,2019,EL_02050111,official,TRUE
EL_02050201,24.052095182513785,41.06007956388635,EL,EL51,EL514,02050201,Τοπική Κοινότητα Φωτολίβους,1484,18.90237368,2019,EL_02050201,official,TRUE
EL_02050202,24.041433354480553,41.12306872285174,EL,EL51,EL514,02050202,Τοπική Κοινότητα Αργυρούπολις,661,6.24382574,2019,EL_02050202,official,TRUE
EL_02050203,24.097269488456188,41.05401180928941,EL,EL51,EL514,02050203,Τοπική Κοινότητα Μαυρολεύκης,418,10.4503582,2019,EL_02050203,official,TRUE
EL_02050204,24.000319445710755,41.113253120196475,EL,EL51,EL514,02050204,Τοπική Κοινότητα Μεγαλοκάμπου,309,7.26425245,2019,EL_02050204,official,TRUE
EL_02050205,24.006426149623664,41.13309280544701,EL,EL51,EL514,02050205,Τοπική Κοινότητα Μικροκάμπου,242,4.5205388,2019,EL_02050205,official,TRUE
EL_02050206,23.946573962990932,41.086845762628776,EL,EL51,EL514,02050206,Τοπική Κοινότητα Περιχώρας,185,4.33832727,2019,EL_02050206,official,TRUE
EL_02050207,24.025800147004816,41.110031609453614,EL,EL51,EL514,02050207,Τοπική Κοινότητα Σιταγρών,702,10.60050021,2019,EL_02050207,official,TRUE
EL_03010101,25.876190783547283,40.85195219329478,EL,EL51,EL511,03010101,Δημοτική Κοινότητα Αλεξανδρούπολης,58125,149.44463059,2019,EL_03010101,official,TRUE
EL_03010102,25.92013311106814,40.927017334476375,EL,EL51,EL511,03010102,Τοπική Κοινότητα Άβαντος,527,58.34757688,2019,EL_03010102,official,TRUE
EL_03010103,25.950726547208134,41.01869968193622,EL,EL51,EL511,03010103,Τοπική Κοινότητα Αισύμης,253,214.74251538,2019,EL_03010103,official,TRUE
EL_03010104,25.801040435501708,40.97301139292572,EL,EL51,EL511,03010104,Τοπική Κοινότητα Κίρκης,75,53.61281411,2019,EL_03010104,official,TRUE
EL_03010105,25.732505707356466,40.859858867823064,EL,EL51,EL511,03010105,Τοπική Κοινότητα Μάκρης,1919,63.22608027,2019,EL_03010105,official,TRUE
EL_03010106,25.66339698116193,40.947430972154194,EL,EL51,EL511,03010106,Τοπική Κοινότητα Συκορράχης,803,101.43183272,2019,EL_03010106,official,TRUE
EL_03010201,25.991281459242508,40.87144035924517,EL,EL51,EL511,03010201,Τοπική Κοινότητα Ανθείας,1226,24.51135359,2019,EL_03010201,official,TRUE
EL_03010202,25.980479118831422,40.91131871956833,EL,EL51,EL511,03010202,Τοπική Κοινότητα Δωρικού,341,27.46302935,2019,EL_03010202,official,TRUE
EL_03010203,26.049588159636272,40.881362760037355,EL,EL51,EL511,03010203,Τοπική Κοινότητα Λουτρού,769,59.4755797,2019,EL_03010203,official,TRUE
EL_03010204,26.01627482885632,40.932887887324526,EL,EL51,EL511,03010204,Τοπική Κοινότητα Νίψης,370,54.46378341,2019,EL_03010204,official,TRUE
EL_03010301,26.171087781696002,40.8933526100798,EL,EL51,EL511,03010301,Δημοτική Κοινότητα Φερών,5659,84.73867321,2019,EL_03010301,official,TRUE
EL_03010302,26.209517592987627,40.92988328076817,EL,EL51,EL511,03010302,Τοπική Κοινότητα Αρδανίου,306,10.77397693,2019,EL_03010302,official,TRUE
EL_03010303,26.11268478288613,40.86155077981272,EL,EL51,EL511,03010303,Τοπική Κοινότητα Δορίσκου,520,122.15571677,2019,EL_03010303,official,TRUE
EL_03010304,26.172085830831673,40.925994836808584,EL,EL51,EL511,03010304,Τοπική Κοινότητα Καβησού,197,20.73355161,2019,EL_03010304,official,TRUE
EL_03010305,26.270128992000625,40.95677710642134,EL,EL51,EL511,03010305,Τοπική Κοινότητα Πέπλου,1514,64.69602399,2019,EL_03010305,official,TRUE
EL_03010306,26.11009654227317,40.93854186218403,EL,EL51,EL511,03010306,Τοπική Κοινότητα Πυλαίας,148,81.50483593,2019,EL_03010306,official,TRUE
EL_03010307,26.201965145204802,40.977316944920204,EL,EL51,EL511,03010307,Τοπική Κοινότητα Τριφυλλίου,207,25.50833178,2019,EL_03010307,official,TRUE
EL_03020101,26.495903452156888,41.3505928844222,EL,EL51,EL511,03020101,Δημοτική Κοινότητα Διδυμοτείχου,9367,41.62077638,2019,EL_03020101,official,TRUE
EL_03020102,26.35717641428058,41.34627912507924,EL,EL51,EL511,03020102,Τοπική Κοινότητα Ασβεστάδων,192,31.01638066,2019,EL_03020102,official,TRUE
EL_03020103,26.560880189006287,41.40452984799824,EL,EL51,EL511,03020103,Τοπική Κοινότητα Ασημένιου,334,11.44715819,2019,EL_03020103,official,TRUE
EL_03020104,26.46500436138766,41.37966412960194,EL,EL51,EL511,03020104,Τοπική Κοινότητα Ελληνοχωρίου,1373,62.57305932,2019,EL_03020104,official,TRUE
EL_03020105,26.541442358904,41.36090716290753,EL,EL51,EL511,03020105,Τοπική Κοινότητα Ισαακίου,407,12.99439841,2019,EL_03020105,official,TRUE
EL_03020106,26.42267969512549,41.408430952214154,EL,EL51,EL511,03020106,Τοπική Κοινότητα Καρωτής,271,13.74200134,2019,EL_03020106,official,TRUE
EL_03020107,26.43397737313885,41.352200187756075,EL,EL51,EL511,03020107,Τοπική Κοινότητα Κουφοβούνου,629,21.62128645,2019,EL_03020107,official,TRUE
EL_03020108,26.379451513514788,41.37376592787333,EL,EL51,EL511,03020108,Τοπική Κοινότητα Κυανής,474,23.94969641,2019,EL_03020108,official,TRUE
EL_03020109,26.390368352749956,41.41485058671078,EL,EL51,EL511,03020109,Τοπική Κοινότητα Μάνης,538,39.86465906,2019,EL_03020109,official,TRUE
EL_03020110,26.603268346274326,41.34995408007015,EL,EL51,EL511,03020110,Τοπική Κοινότητα Πετράδων,184,12.15184645,2019,EL_03020110,official,TRUE
EL_03020111,26.386764282537676,41.460530830963535,EL,EL51,EL511,03020111,Τοπική Κοινότητα Ποιμενικού,343,15.63830356,2019,EL_03020111,official,TRUE
EL_03020112,26.57688611826211,41.34588693061763,EL,EL51,EL511,03020112,Τοπική Κοινότητα Πραγγίου,304,14.21458486,2019,EL_03020112,official,TRUE
EL_03020113,26.6087748372891,41.38017013067769,EL,EL51,EL511,03020113,Τοπική Κοινότητα Πυθίου,541,26.05147087,2019,EL_03020113,official,TRUE
EL_03020114,26.352218438261193,41.46426762299822,EL,EL51,EL511,03020114,Τοπική Κοινότητα Σιτοχωρίου,326,11.44919619,2019,EL_03020114,official,TRUE
EL_03020115,26.56070012051464,41.42186789308271,EL,EL51,EL511,03020115,Τοπική Κοινότητα Σοφικό,795,17.68037514,2019,EL_03020115,official,TRUE
EL_03020201,26.22894158947355,41.42188915109599,EL,EL51,EL511,03020201,Τοπική Κοινότητα Μεταξάδων,717,52.96528043,2019,EL_03020201,official,TRUE
EL_03020202,26.209815727313078,41.45155279641597,EL,EL51,EL511,03020202,Τοπική Κοινότητα Αλεποχωρίου,365,27.72345048,2019,EL_03020202,official,TRUE
EL_03020203,26.306777951152643,41.391396145038286,EL,EL51,EL511,03020203,Τοπική Κοινότητα Ασπρονερίου,538,23.81224484,2019,EL_03020203,official,TRUE
EL_03020204,26.32764518161212,41.40110849384199,EL,EL51,EL511,03020204,Τοπική Κοινότητα Βρυσικών,304,24.77528489,2019,EL_03020204,official,TRUE
EL_03020205,26.284535159299114,41.486403790945914,EL,EL51,EL511,03020205,Τοπική Κοινότητα Δόξης,410,11.56948838,2019,EL_03020205,official,TRUE
EL_03020206,26.32175879298716,41.48364606507008,EL,EL51,EL511,03020206,Τοπική Κοινότητα Ελαφοχωρίου,433,34.94500354,2019,EL_03020206,official,TRUE
EL_03020207,26.263421358979407,41.45339207207556,EL,EL51,EL511,03020207,Τοπική Κοινότητα Λάδης,180,9.24861741,2019,EL_03020207,official,TRUE
EL_03020208,26.252820509175045,41.4138538007359,EL,EL51,EL511,03020208,Τοπική Κοινότητα Παλιουρίου,468,25.81026614,2019,EL_03020208,official,TRUE
EL_03030101,26.52733136195245,41.50249619377085,EL,EL51,EL511,03030101,Δημοτική Κοινότητα Ορεστιάδος,20211,105.74467238,2019,EL_03030101,official,TRUE
EL_03030102,26.392986953888485,41.478750746595466,EL,EL51,EL511,03030102,Τοπική Κοινότητα Αμπελακίων,470,25.28607019,2019,EL_03030102,official,TRUE
EL_03030103,26.360686678706493,41.5384329755147,EL,EL51,EL511,03030103,Τοπική Κοινότητα Βάλτου,403,24.85470239,2019,EL_03030103,official,TRUE
EL_03030104,26.56150214313931,41.43657618560672,EL,EL51,EL511,03030104,Τοπική Κοινότητα Θουρίου,643,12.23736261,2019,EL_03030104,official,TRUE
EL_03030105,26.277815825722737,41.50633133587426,EL,EL51,EL511,03030105,Τοπική Κοινότητα Μεγάλης Δοξιπάρας,302,14.53665156,2019,EL_03030105,official,TRUE
EL_03030106,26.54844172043199,41.456035483879866,EL,EL51,EL511,03030106,Τοπική Κοινότητα Νέου Χειμωνίου,444,19.93635902,2019,EL_03030106,official,TRUE
EL_03030107,26.45041867323376,41.511754690165425,EL,EL51,EL511,03030107,Τοπική Κοινότητα Νεοχωρίου,902,37.53983173,2019,EL_03030107,official,TRUE
EL_03030108,26.30608780623326,41.52000133773014,EL,EL51,EL511,03030108,Τοπική Κοινότητα Χανδρά,209,17.24544683,2019,EL_03030108,official,TRUE
EL_03030201,26.541877742022155,41.58348300778633,EL,EL51,EL511,03030201,Δημοτική Κοινότητα Νέας Βύσσης,2805,46.68347249,2019,EL_03030201,official,TRUE
EL_03030202,26.514144848157283,41.55962387153043,EL,EL51,EL511,03030202,Τοπική Κοινότητα Καβύλης,758,18.06967066,2019,EL_03030202,official,TRUE
EL_03030203,26.475567798318455,41.64739338596686,EL,EL51,EL511,03030203,Τοπική Κοινότητα Καστανεών,1059,26.23458922,2019,EL_03030203,official,TRUE
EL_03030204,26.425334739101178,41.623587210584866,EL,EL51,EL511,03030204,Τοπική Κοινότητα Ριζίων,1272,38.99614079,2019,EL_03030204,official,TRUE
EL_03030205,26.458504294436587,41.568138584854175,EL,EL51,EL511,03030205,Τοπική Κοινότητα Στέρνας,621,39.01206043,2019,EL_03030205,official,TRUE
EL_03030301,26.228122143407038,41.577841211889975,EL,EL51,EL511,03030301,Τοπική Κοινότητα Κυπρίνος,806,21.4015023,2019,EL_03030301,official,TRUE
EL_03030302,26.18569485836828,41.53636924006559,EL,EL51,EL511,03030302,Τοπική Κοινότητα Γαλήνης,0,10.36084624,2019,EL_03030302,official,TRUE
EL_03030303,26.233248941368984,41.50995327139684,EL,EL51,EL511,03030303,Τοπική Κοινότητα Ζώνης,449,47.0885785,2019,EL_03030303,official,TRUE
EL_03030304,26.323593028618625,41.59500074197949,EL,EL51,EL511,03030304,Τοπική Κοινότητα Φυλακίου,971,55.7116816,2019,EL_03030304,official,TRUE
EL_03030401,26.29471657318012,41.702742818470455,EL,EL51,EL511,03030401,Τοπική Κοινότητα Δικαίων,834,59.74470824,2019,EL_03030401,official,TRUE
EL_03030402,26.388399137900695,41.63918529297996,EL,EL51,EL511,03030402,Τοπική Κοινότητα Άρζου,433,23.12933353,2019,EL_03030402,official,TRUE
EL_03030403,26.315216521487717,41.61951884389966,EL,EL51,EL511,03030403,Τοπική Κοινότητα Ελαίας,428,18.0805157,2019,EL_03030403,official,TRUE
EL_03030404,26.18634664746264,41.57653689440277,EL,EL51,EL511,03030404,Τοπική Κοινότητα Θεραπειό,86,13.07588059,2019,EL_03030404,official,TRUE
EL_03030405,26.22842337099186,41.59666914901937,EL,EL51,EL511,03030405,Τοπική Κοινότητα Κομάρων,628,33.2154292,2019,EL_03030405,official,TRUE
EL_03030406,26.467112263527657,41.66777099501334,EL,EL51,EL511,03030406,Τοπική Κοινότητα Μαρασίων,140,16.62167449,2019,EL_03030406,official,TRUE
EL_03030407,26.15808748937044,41.56271250171162,EL,EL51,EL511,03030407,Τοπική Κοινότητα Μηλέα,54,7.93936643,2019,EL_03030407,official,TRUE
EL_03030408,26.211649808117286,41.71936526591859,EL,EL51,EL511,03030408,Τοπική Κοινότητα Ορμενίου,557,31.00679719,2019,EL_03030408,official,TRUE
EL_03030409,26.180625426603292,41.645393901199895,EL,EL51,EL511,03030409,Τοπική Κοινότητα Πενταλόφου,510,59.22008199,2019,EL_03030409,official,TRUE
EL_03030410,26.13252892541168,41.69477541436053,EL,EL51,EL511,03030410,Τοπική Κοινότητα Πετρωτών,270,69.5737972,2019,EL_03030410,official,TRUE
EL_03030411,26.3352206202912,41.62709234744071,EL,EL51,EL511,03030411,Τοπική Κοινότητα Πλάτης,655,19.56816567,2019,EL_03030411,official,TRUE
EL_03030412,26.244851842625977,41.704095747839375,EL,EL51,EL511,03030412,Τοπική Κοινότητα Πτελέας,441,24.09437686,2019,EL_03030412,official,TRUE
EL_03030413,26.313621522143308,41.64736592950086,EL,EL51,EL511,03030413,Τοπική Κοινότητα Σπηλαίου,334,18.84517657,2019,EL_03030413,official,TRUE
EL_03040000,25.49292478098536,40.47340279193824,EL,EL51,EL511,03040000,Ψευδοδημοτική Κοινότητα Σαμοθράκης,2859,180.81376285,2019,EL_03040000,official,TRUE
EL_03050101,26.301371950423455,41.19397360596315,EL,EL51,EL511,03050101,Δημοτική Κοινότητα Σουφλίου,4487,160.17291579,2019,EL_03050101,official,TRUE
EL_03050102,26.22462967036962,41.12843514580806,EL,EL51,EL511,03050102,Τοπική Κοινότητα Δαδιάς,546,247.96348439,2019,EL_03050102,official,TRUE
EL_03050103,26.293273170939894,41.15443915108712,EL,EL51,EL511,03050103,Τοπική Κοινότητα Κορνοφωλεάς,443,22.95387441,2019,EL_03050103,official,TRUE
EL_03050104,26.298568221029694,41.08319848591412,EL,EL51,EL511,03050104,Τοπική Κοινότητα Λαγυνών,328,17.83829912,2019,EL_03050104,official,TRUE
EL_03050105,26.286507218178542,41.119373928699304,EL,EL51,EL511,03050105,Τοπική Κοινότητα Λυκόφωτος,366,14.54801525,2019,EL_03050105,official,TRUE
EL_03050201,26.386644081204395,41.268698515283596,EL,EL51,EL511,03050201,Τοπική Κοινότητα Λαβάρων,1093,42.75911302,2019,EL_03050201,official,TRUE
EL_03050202,26.44130969538523,41.295353419208794,EL,EL51,EL511,03050202,Τοπική Κοινότητα Αμορίου,412,25.62569219,2019,EL_03050202,official,TRUE
EL_03050203,26.193995722680352,41.292255790515114,EL,EL51,EL511,03050203,Τοπική Κοινότητα Κυριακής,100,51.20771957,2019,EL_03050203,official,TRUE
EL_03050204,26.33001888667138,41.26971968131863,EL,EL51,EL511,03050204,Τοπική Κοινότητα Μάνδρας,150,23.63188843,2019,EL_03050204,official,TRUE
EL_03050205,26.216632017373286,41.350491788030574,EL,EL51,EL511,03050205,Τοπική Κοινότητα Μαυροκκλησίου,313,53.77444536,2019,EL_03050205,official,TRUE
EL_03050206,26.019039045330672,41.252052463953206,EL,EL51,EL511,03050206,Τοπική Κοινότητα Μικρού Δερείου,1903,396.08580848,2019,EL_03050206,official,TRUE
EL_03050207,26.27145307929541,41.28718453446016,EL,EL51,EL511,03050207,Τοπική Κοινότητα Πρωτοκκλησίου,790,50.47187973,2019,EL_03050207,official,TRUE
EL_03050301,26.295222009081566,41.025498765555355,EL,EL51,EL511,03050301,Δημοτική Κοινότητα Τυχερού,2311,37.08399482,2019,EL_03050301,official,TRUE
EL_03050302,26.195442091303374,41.02340587468583,EL,EL51,EL511,03050302,Τοπική Κοινότητα Λευκίμμης,201,119.54317634,2019,EL_03050302,official,TRUE
EL_03050303,26.27198330518083,41.070458825534814,EL,EL51,EL511,03050303,Τοπική Κοινότητα Λύρας,185,20.07514265,2019,EL_03050303,official,TRUE
EL_03050304,26.25990513597107,41.01521017717853,EL,EL51,EL511,03050304,Τοπική Κοινότητα Προβατώνος,1004,29.60951973,2019,EL_03050304,official,TRUE
EL_03050305,26.28225353480399,41.049164631102215,EL,EL51,EL511,03050305,Τοπική Κοινότητα Φυλακτού,309,14.45903781,2019,EL_03050305,official,TRUE
EL_04010001,24.70567774246544,40.77548757829295,EL,EL51,EL515,04010001,Δημοτική Κοινότητα Θάσου,3240,23.18456798,2019,EL_04010001,official,TRUE
EL_04010002,24.641668030066473,40.630444899858766,EL,EL51,EL515,04010002,Δημοτική Κοινότητα Θεολόγου,1762,116.82009058,2019,EL_04010002,official,TRUE
EL_04010003,24.544494726729035,40.70006285423467,EL,EL51,EL515,04010003,Δημοτική Κοινότητα Καλλιράχης,1018,23.70292092,2019,EL_04010003,official,TRUE
EL_04010004,24.57874008655848,40.63033019299772,EL,EL51,EL515,04010004,Δημοτική Κοινότητα Λιμεναρίων,2480,56.29684577,2019,EL_04010004,official,TRUE
EL_04010005,24.527998643240792,40.647527708608,EL,EL51,EL515,04010005,Τοπική Κοινότητα Μαριών,537,42.31284723,2019,EL_04010005,official,TRUE
EL_04010006,24.749274324759178,40.72798906706674,EL,EL51,EL515,04010006,Τοπική Κοινότητα Παναγίας,802,20.51491117,2019,EL_04010006,official,TRUE
EL_04010007,24.74199948620076,40.71194448082573,EL,EL51,EL515,04010007,Δημοτική Κοινότητα Ποταμιάς,1384,23.47941534,2019,EL_04010007,official,TRUE
EL_04010008,24.579060393274847,40.742377424344056,EL,EL51,EL515,04010008,Δημοτική Κοινότητα Πρίνου,1423,38.35752744,2019,EL_04010008,official,TRUE
EL_04010009,24.62439757628463,40.766215500869976,EL,EL51,EL515,04010009,Τοπική Κοινότητα Ραχωνίου,729,29.97220598,2019,EL_04010009,official,TRUE
EL_04010010,24.554435600796257,40.72977608653065,EL,EL51,EL515,04010010,Τοπική Κοινότητα Σωτήρος,395,10.7350112,2019,EL_04010010,official,TRUE
EL_05010101,24.40281812023376,40.937710913563784,EL,EL51,EL515,05010101,Δημοτική Κοινότητα Καβάλας,56371,42.17189376,2019,EL_05010101,official,TRUE
EL_05010102,24.51196060145571,40.9646934834212,EL,EL51,EL515,05010102,Δημοτική Κοινότητα Νέας Καρβάλης,2225,45.71987543,2019,EL_05010102,official,TRUE
EL_05010103,24.464639821610206,40.977327069749784,EL,EL51,EL515,05010103,Τοπική Κοινότητα Χαλκερού,194,29.5700735,2019,EL_05010103,official,TRUE
EL_05010201,24.295040847906538,41.0148944216365,EL,EL51,EL515,05010201,Δημοτική Κοινότητα Κρηνίδων,3365,28.50857855,2019,EL_05010201,official,TRUE
EL_05010202,24.36280229113281,40.96093248941007,EL,EL51,EL515,05010202,Δημοτική Κοινότητα Αμυγδαλεώνος,2724,15.21693959,2019,EL_05010202,official,TRUE
EL_05010203,24.37703848128857,41.00760553505678,EL,EL51,EL515,05010203,Δημοτική Κοινότητα Ζυγού,2057,21.54110529,2019,EL_05010203,official,TRUE
EL_05010204,24.44553343357113,41.045313273165775,EL,EL51,EL515,05010204,Τοπική Κοινότητα Κορυφών,38,15.78422919,2019,EL_05010204,official,TRUE
EL_05010205,24.379868004327086,41.02278432496078,EL,EL51,EL515,05010205,Τοπική Κοινότητα Κρυονερίου,690,12.45767818,2019,EL_05010205,official,TRUE
EL_05010206,24.390081512187123,41.07340741491676,EL,EL51,EL515,05010206,Τοπική Κοινότητα Λιμνιών,182,43.50402784,2019,EL_05010206,official,TRUE
EL_05010207,24.283857204242697,41.03054649563799,EL,EL51,EL515,05010207,Τοπική Κοινότητα Λυδίας,808,12.21039865,2019,EL_05010207,official,TRUE
EL_05010208,24.414786831815263,41.001591998179414,EL,EL51,EL515,05010208,Τοπική Κοινότητα Παλαιάς Καβάλας,108,29.13569884,2019,EL_05010208,official,TRUE
EL_05010209,24.486172937759765,41.079062995075134,EL,EL51,EL515,05010209,Τοπική Κοινότητα Πολυνέρου,25,20.01986117,2019,EL_05010209,official,TRUE
EL_05010210,24.326737751737845,40.98116723668081,EL,EL51,EL515,05010210,Τοπική Κοινότητα Πολυστύλου,820,10.35648932,2019,EL_05010210,official,TRUE
EL_05010211,24.33445570918319,41.023338525061895,EL,EL51,EL515,05010211,Τοπική Κοινότητα Φιλίππων,894,30.49009358,2019,EL_05010211,official,TRUE
EL_05020101,24.701399648795537,40.98379675385321,EL,EL51,EL515,05020101,Δημοτική Κοινότητα Χρυσούπολης,8885,47.38020412,2019,EL_05020101,official,TRUE
EL_05020102,24.718729471821167,41.053896161937324,EL,EL51,EL515,05020102,Τοπική Κοινότητα Αβραμυλιάς,65,8.62139606,2019,EL_05020102,official,TRUE
EL_05020103,24.66872071333828,41.024284143550325,EL,EL51,EL515,05020103,Τοπική Κοινότητα Γέροντα,468,14.83188725,2019,EL_05020103,official,TRUE
EL_05020104,24.65087782562603,40.99227563091794,EL,EL51,EL515,05020104,Τοπική Κοινότητα Γραβούνης,737,9.5259638,2019,EL_05020104,official,TRUE
EL_05020105,24.73370095788871,41.061634907499716,EL,EL51,EL515,05020105,Τοπική Κοινότητα Διαλεκτού,143,9.88659454,2019,EL_05020105,official,TRUE
EL_05020106,24.639800346926418,40.947622026708224,EL,EL51,EL515,05020106,Τοπική Κοινότητα Ερατεινού,649,22.34970244,2019,EL_05020106,official,TRUE
EL_05020107,24.643026425243367,41.01798069299459,EL,EL51,EL515,05020107,Τοπική Κοινότητα Ζαρκαδιάς,671,9.31800884,2019,EL_05020107,official,TRUE
EL_05020108,24.70770055929719,41.0278854429918,EL,EL51,EL515,05020108,Τοπική Κοινότητα Ξεριά,468,22.64024229,2019,EL_05020108,official,TRUE
EL_05020109,24.756849913397858,41.08207971297295,EL,EL51,EL515,05020109,Τοπική Κοινότητα Παραδείσου,216,10.69536883,2019,EL_05020109,official,TRUE
EL_05020110,24.63513204932345,40.99444853240124,EL,EL51,EL515,05020110,Τοπική Κοινότητα Πέρνης,897,26.55385887,2019,EL_05020110,official,TRUE
EL_05020111,24.613182798129962,40.98707445366801,EL,EL51,EL515,05020111,Τοπική Κοινότητα Πετροπηγής,522,19.05147113,2019,EL_05020111,official,TRUE
EL_05020112,24.576600708255636,40.971962480346015,EL,EL51,EL515,05020112,Τοπική Κοινότητα Ποντολιβάδου,465,26.67852921,2019,EL_05020112,official,TRUE
EL_05020113,24.70870232240102,40.931498615602656,EL,EL51,EL515,05020113,Τοπική Κοινότητα Χρυσοχωρίου,1818,18.07930139,2019,EL_05020113,official,TRUE
EL_05020201,24.706786183412035,40.86550871693148,EL,EL51,EL515,05020201,Δημοτική Κοινότητα Κεραμωτής,2056,47.37998882,2019,EL_05020201,official,TRUE
EL_05020202,24.654680834975917,40.90800181008693,EL,EL51,EL515,05020202,Τοπική Κοινότητα Αγιάσματος,863,28.79495245,2019,EL_05020202,official,TRUE
EL_05020203,24.706712403774937,40.90786021268805,EL,EL51,EL515,05020203,Τοπική Κοινότητα Νέας Καρυάς,1426,23.29908973,2019,EL_05020203,official,TRUE
EL_05020204,24.670009265245007,40.90670062593078,EL,EL51,EL515,05020204,Τοπική Κοινότητα Πηγών,770,18.23442052,2019,EL_05020204,official,TRUE
EL_05020301,24.55048910221496,41.16110324568586,EL,EL51,EL515,05020301,Τοπική Κοινότητα Λεκάνης,485,68.34997877,2019,EL_05020301,official,TRUE
EL_05020302,24.63797886314909,41.09579316798045,EL,EL51,EL515,05020302,Τοπική Κοινότητα Αγίου Κοσμά,35,42.49924159,2019,EL_05020302,official,TRUE
EL_05020303,24.580359882322224,41.1191702813595,EL,EL51,EL515,05020303,Τοπική Κοινότητα Διποτάμου,45,25.10581179,2019,EL_05020303,official,TRUE
EL_05020304,24.57474236196973,41.07027597823495,EL,EL51,EL515,05020304,Τοπική Κοινότητα Δυσβάτου,28,14.93460487,2019,EL_05020304,official,TRUE
EL_05020305,24.556248061292006,41.05123040574583,EL,EL51,EL515,05020305,Τοπική Κοινότητα Ελαφοχωρίου,62,24.22931499,2019,EL_05020305,official,TRUE
EL_05020306,24.64186177975421,41.158535769231555,EL,EL51,EL515,05020306,Τοπική Κοινότητα Κεχροκάμπου,359,66.53269047,2019,EL_05020306,official,TRUE
EL_05020307,24.62131129346701,41.04213881353927,EL,EL51,EL515,05020307,Τοπική Κοινότητα Μακρυχωρίου,120,31.90784143,2019,EL_05020307,official,TRUE
EL_05020308,24.53228821850785,41.10051046244272,EL,EL51,EL515,05020308,Τοπική Κοινότητα Πλαταμώνος,78,45.38928317,2019,EL_05020308,official,TRUE
EL_05030101,24.254198417156978,40.91415835630506,EL,EL51,EL515,05030101,Δημοτική Κοινότητα Ελευθερούπολης,5555,53.529948,2019,EL_05030101,official,TRUE
EL_05030102,24.337071910446657,40.935242389712975,EL,EL51,EL515,05030102,Τοπική Κοινότητα Αμισιανών,927,13.95841574,2019,EL_05030102,official,TRUE
EL_05030103,24.208307529567826,40.9461228767765,EL,EL51,EL515,05030103,Τοπική Κοινότητα Αντιφιλίππων,869,10.65576794,2019,EL_05030103,official,TRUE
EL_05030104,24.206285486635487,40.89370334259999,EL,EL51,EL515,05030104,Τοπική Κοινότητα Κηπίων,347,17.2416779,2019,EL_05030104,official,TRUE
EL_05030105,24.307704443032225,40.9297759275277,EL,EL51,EL515,05030105,Τοπική Κοινότητα Κοκκινοχώματος,1472,20.239191,2019,EL_05030105,official,TRUE
EL_05030106,24.183732323516296,40.880082365688125,EL,EL51,EL515,05030106,Τοπική Κοινότητα Χρυσοκάστρου,322,7.8328399,2019,EL_05030106,official,TRUE
EL_05030201,24.30091145190795,40.840166039250235,EL,EL51,EL515,05030201,Δημοτική Κοινότητα Νέας Περάμου,3532,15.33513268,2019,EL_05030201,official,TRUE
EL_05030202,24.285159304200942,40.87036535616338,EL,EL51,EL515,05030202,Τοπική Κοινότητα Αγίου Ανδρέου,411,6.46011292,2019,EL_05030202,official,TRUE
EL_05030203,24.242593740774524,40.82184247572744,EL,EL51,EL515,05030203,Τοπική Κοινότητα Ελαιοχωρίου,1222,24.26107103,2019,EL_05030203,official,TRUE
EL_05030204,24.254758469918258,40.84649045732449,EL,EL51,EL515,05030204,Τοπική Κοινότητα Ελευθερών,1303,20.30108557,2019,EL_05030204,official,TRUE
EL_05030205,24.204764598089593,40.81595367223215,EL,EL51,EL515,05030205,Τοπική Κοινότητα Μυρτοφύτου,433,30.98083222,2019,EL_05030205,official,TRUE
EL_05030206,24.312949603860954,40.87254082608986,EL,EL51,EL515,05030206,Τοπική Κοινότητα Νέας Ηρακλίτσης,1605,10.29484457,2019,EL_05030206,official,TRUE
EL_05030207,24.15976011627302,40.80645870588228,EL,EL51,EL515,05030207,Τοπική Κοινότητα Φωλεάς,576,43.10821755,2019,EL_05030207,official,TRUE
EL_05030301,23.952699711910473,40.79904165262516,EL,EL51,EL515,05030301,Τοπική Κοινότητα Γαληψού,414,23.69643663,2019,EL_05030301,official,TRUE
EL_05030302,24.03654664014629,40.78754768575178,EL,EL51,EL515,05030302,Τοπική Κοινότητα Ακροποτάμου,675,58.4924061,2019,EL_05030302,official,TRUE
EL_05030303,23.97637232709794,40.746288554599424,EL,EL51,EL515,05030303,Τοπική Κοινότητα Καριανής,664,33.11586363,2019,EL_05030303,official,TRUE
EL_05030304,23.94765853500106,40.77145804107051,EL,EL51,EL515,05030304,Τοπική Κοινότητα Ορφανίου,706,14.95638413,2019,EL_05030304,official,TRUE
EL_05030305,23.906785227913836,40.775379826420526,EL,EL51,EL515,05030305,Τοπική Κοινότητα Οφρυνίου,1904,21.97233758,2019,EL_05030305,official,TRUE
EL_05030306,24.015911472306115,40.824573302391705,EL,EL51,EL515,05030306,Τοπική Κοινότητα Ποδοχωρίου,886,48.87271435,2019,EL_05030306,official,TRUE
EL_05030401,24.143021069256957,40.96011101992637,EL,EL51,EL515,05030401,Δημοτική Κοινότητα Νικήσιανης,2236,35.37620227,2019,EL_05030401,official,TRUE
EL_05030402,24.146545031398716,40.953395537286696,EL,EL51,EL515,05030402,Τοπική Κοινότητα Γεωργιανής,611,21.17573565,2019,EL_05030402,official,TRUE
EL_05030403,24.18076516636807,40.944349707618116,EL,EL51,EL515,05030403,Τοπική Κοινότητα Παλαιοχωρίου,1404,23.63735174,2019,EL_05030403,official,TRUE
EL_05030501,24.113060889381874,40.85982260269501,EL,EL51,EL515,05030501,Τοπική Κοινότητα Μουσθένης,647,32.360649,2019,EL_05030501,official,TRUE
EL_05030502,24.17719367039965,40.87720343463942,EL,EL51,EL515,05030502,Τοπική Κοινότητα Αυλής,504,7.6046055,2019,EL_05030502,official,TRUE
EL_05030503,24.13901467719938,40.86448615372689,EL,EL51,EL515,05030503,Τοπική Κοινότητα Δωματίων,457,10.18080762,2019,EL_05030503,official,TRUE
EL_05030504,24.166002566473033,40.86972478594167,EL,EL51,EL515,05030504,Τοπική Κοινότητα Μελισσοκομείου,424,6.95883602,2019,EL_05030504,official,TRUE
EL_05030505,24.194248533197158,40.868567474110094,EL,EL51,EL515,05030505,Τοπική Κοινότητα Μεσιάς,379,9.23926802,2019,EL_05030505,official,TRUE
EL_05030506,24.078057794399196,40.863802838628324,EL,EL51,EL515,05030506,Τοπική Κοινότητα Μεσορόπης,456,27.49768994,2019,EL_05030506,official,TRUE
EL_05030507,24.058158720397856,40.84845887939612,EL,EL51,EL515,05030507,Τοπική Κοινότητα Πλατανοτόπου,584,35.94917264,2019,EL_05030507,official,TRUE
EL_05030508,24.157984088182783,40.84905524400093,EL,EL51,EL515,05030508,Τοπική Κοινότητα Σιδηροχωρίου,560,13.72757122,2019,EL_05030508,official,TRUE
EL_06010101,24.88776639545321,41.13459801675438,EL,EL51,EL512,06010101,Δημοτική Κοινότητα Ξάνθης,56151,32.61679489,2019,EL_06010101,official,TRUE
EL_06010102,24.855719704118066,41.10221922312803,EL,EL51,EL512,06010102,Δημοτική Κοινότητα Ευμοίρου,3034,42.51046659,2019,EL_06010102,official,TRUE
EL_06010103,24.938298630453815,41.148667660849995,EL,EL51,EL512,06010103,Δημοτική Κοινότητα Κιμμερίων,3898,78.08840209,2019,EL_06010103,official,TRUE
EL_06010201,24.715337753316675,41.203324875190646,EL,EL51,EL512,06010201,Τοπική Κοινότητα Σταυρουπόλεως,574,95.96989447,2019,EL_06010201,official,TRUE
EL_06010202,24.849828354571102,41.190576961858206,EL,EL51,EL512,06010202,Τοπική Κοινότητα Γέρακα,297,56.02765805,2019,EL_06010202,official,TRUE
EL_06010203,24.667934429550208,41.21783604870081,EL,EL51,EL512,06010203,Τοπική Κοινότητα Δαφνώνος,290,14.65198722,2019,EL_06010203,official,TRUE
EL_06010204,24.663920182730244,41.268859877194494,EL,EL51,EL512,06010204,Τοπική Κοινότητα Καρυοφύτου,179,45.09791924,2019,EL_06010204,official,TRUE
EL_06010205,24.7300984022417,41.17134133966653,EL,EL51,EL512,06010205,Τοπική Κοινότητα Κομνηνών,261,30.69449399,2019,EL_06010205,official,TRUE
EL_06010206,24.62994126526024,41.22571080656194,EL,EL51,EL512,06010206,Τοπική Κοινότητα Νεοχωρίου,319,45.95164221,2019,EL_06010206,official,TRUE
EL_06010207,24.574851046834244,41.23435911665415,EL,EL51,EL512,06010207,Τοπική Κοινότητα Πασχαλιάς,130,60.34845271,2019,EL_06010207,official,TRUE
EL_06020101,24.958839851868632,41.06236441776356,EL,EL51,EL512,06020101,Δημοτική Κοινότητα Γενισέας,2185,39.31268464,2019,EL_06020101,official,TRUE
EL_06020102,24.908174687241967,41.101366000616956,EL,EL51,EL512,06020102,Δημοτική Κοινότητα Διομηδείας,4421,29.84228303,2019,EL_06020102,official,TRUE
EL_06020103,25.023245494006417,41.06322583613941,EL,EL51,EL512,06020103,Τοπική Κοινότητα Κουτσού,749,18.25556806,2019,EL_06020103,official,TRUE
EL_06020104,24.902881672739834,41.06619889964988,EL,EL51,EL512,06020104,Τοπική Κοινότητα Μαγικού,856,17.09629267,2019,EL_06020104,official,TRUE
EL_06020105,24.948043984975556,41.11959700829876,EL,EL51,EL512,06020105,Τοπική Κοινότητα Πηγαδίων,511,10.91482707,2019,EL_06020105,official,TRUE
EL_06020106,25.02644660641568,41.10584235503239,EL,EL51,EL512,06020106,Τοπική Κοινότητα Πολυσίτου,403,15.42674835,2019,EL_06020106,official,TRUE
EL_06020107,25.069736603414114,41.07099312821313,EL,EL51,EL512,06020107,Τοπική Κοινότητα Σελίνου,292,16.46439438,2019,EL_06020107,official,TRUE
EL_06020108,25.045807671661418,41.127657813816555,EL,EL51,EL512,06020108,Τοπική Κοινότητα Σουνίου,1018,12.2508148,2019,EL_06020108,official,TRUE
EL_06020201,24.951169743910512,40.98254605163463,EL,EL51,EL512,06020201,Τοπική Κοινότητα Αβδήρων,1473,60.34162893,2019,EL_06020201,official,TRUE
EL_06020202,24.989816136388434,40.99548281407072,EL,EL51,EL512,06020202,Τοπική Κοινότητα Μάνδρας,506,31.95739887,2019,EL_06020202,official,TRUE
EL_06020203,24.926020217980625,40.97609915242756,EL,EL51,EL512,06020203,Τοπική Κοινότητα Μυρωδάτου,492,18.7965099,2019,EL_06020203,official,TRUE
EL_06020204,25.09523662247626,41.024048424269075,EL,EL51,EL512,06020204,Τοπική Κοινότητα Νέας Κεσσάνης,870,51.90482971,2019,EL_06020204,official,TRUE
EL_06020301,24.998641069087984,41.1333052292967,EL,EL51,EL512,06020301,Δημοτική Κοινότητα Σελέρου,5229,30.42311013,2019,EL_06020301,official,TRUE
EL_06030101,24.928729768591744,41.2333379342619,EL,EL51,EL512,06030101,Δημοτική Κοινότητα Μύκης,8051,133.79650571,2019,EL_06030101,official,TRUE
EL_06030102,24.969997739368235,41.27647879283656,EL,EL51,EL512,06030102,Δημοτική Κοινότητα Εχίνου,3074,85.86605918,2019,EL_06030102,official,TRUE
EL_06030103,24.838978323612448,41.27135408008243,EL,EL51,EL512,06030103,Τοπική Κοινότητα Ωραίου,962,94.54832863,2019,EL_06030103,official,TRUE
EL_06030201,25.003568486201992,41.34672213093547,EL,EL51,EL512,06030201,Τοπική Κοινότητα Θερμών,812,90.68485322,2019,EL_06030201,official,TRUE
EL_06030301,24.885900756158115,41.31511598350834,EL,EL51,EL512,06030301,Δημοτική Κοινότητα Κοτύλης,2158,79.41163854,2019,EL_06030301,official,TRUE
EL_06030401,25.052986192816864,41.24501021605456,EL,EL51,EL512,06030401,Τοπική Κοινότητα Σατρών,483,149.92551605,2019,EL_06030401,official,TRUE
EL_06040001,24.794748950790535,40.97333455242907,EL,EL51,EL512,06040001,Δημοτική Κοινότητα Ευλάλου,4985,64.64005736,2019,EL_06040001,official,TRUE
EL_06040002,24.807336704939768,40.96476267234479,EL,EL51,EL512,06040002,Τοπική Κοινότητα Αβάτου,1078,11.67380833,2019,EL_06040002,official,TRUE
EL_06040003,24.775982604477036,41.09906632166756,EL,EL51,EL512,06040003,Τοπική Κοινότητα Γαλάνης,108,51.90905634,2019,EL_06040003,official,TRUE
EL_06040004,24.873981716341333,41.020814284423366,EL,EL51,EL512,06040004,Τοπική Κοινότητα Εξοχής,1295,64.06487012,2019,EL_06040004,official,TRUE
EL_06040005,24.829917339082098,40.92708045857386,EL,EL51,EL512,06040005,Τοπική Κοινότητα Ερασμίου,1268,45.94720735,2019,EL_06040005,official,TRUE
EL_06040006,24.869156163609137,40.94475727376539,EL,EL51,EL512,06040006,Τοπική Κοινότητα Μαγγάνων,635,19.3318767,2019,EL_06040006,official,TRUE
EL_06040007,24.79272537575585,41.025910254877054,EL,EL51,EL512,06040007,Τοπική Κοινότητα Ολβίου,330,9.93072337,2019,EL_06040007,official,TRUE
EL_06040008,24.784871087682014,41.07135408099817,EL,EL51,EL512,06040008,Τοπική Κοινότητα Τοξοτών,1845,42.48868889,2019,EL_06040008,official,TRUE
EL_07010100,22.956319209632728,40.61971248934027,EL,EL52,EL522,07010100,Ψευδοδημοτική Κοινότητα Θεσσαλονίκης,315196,19.2879412,2019,EL_07010100,official,TRUE
EL_07010201,22.96980210761093,40.624258044156264,EL,EL52,EL522,07010201,Δημοτική Κοινότητα Τριανδρίας,9986,1.40684782,2019,EL_07010201,official,TRUE
EL_07020101,22.926449610818253,40.654901917770914,EL,EL52,EL522,07020101,Δημοτική Κοινότητα Αμπελοκήπων,37381,1.79212075,2019,EL_07020101,official,TRUE
EL_07020201,22.905337836842236,40.65724746510229,EL,EL52,EL522,07020201,Δημοτική Κοινότητα Μενεμένης,14746,8.30373607,2019,EL_07020201,official,TRUE
EL_07030101,23.69664768343876,40.661980845155576,EL,EL52,EL522,07030101,Δημοτική Κοινότητα Σταυρού,3672,16.89930104,2019,EL_07030101,official,TRUE
EL_07030102,23.69537885386686,40.66153198101616,EL,EL52,EL522,07030102,Τοπική Κοινότητα Άνω Σταυρού,796,19.46770408,2019,EL_07030102,official,TRUE
EL_07030103,23.548433670447757,40.685579945908344,EL,EL52,EL522,07030103,Τοπική Κοινότητα Βόλβης,1353,92.66760186,2019,EL_07030103,official,TRUE
EL_07030201,23.713073947446624,40.73393575433846,EL,EL52,EL522,07030201,Δημοτική Κοινότητα Ασπροβάλτας,2838,24.88806759,2019,EL_07030201,official,TRUE
EL_07030202,23.692346453635754,40.70017112745144,EL,EL52,EL522,07030202,Δημοτική Κοινότητα Βρασνών,2879,41.53725907,2019,EL_07030202,official,TRUE
EL_07030301,23.43618749334411,40.62760143986154,EL,EL52,EL522,07030301,Τοπική Κοινότητα Νέας Απολλωνίας,1922,71.37474242,2019,EL_07030301,official,TRUE
EL_07030302,23.47891729622019,40.5999783798367,EL,EL52,EL522,07030302,Τοπική Κοινότητα Μελισσουργού,417,22.77546029,2019,EL_07030302,official,TRUE
EL_07030303,23.271758874562874,40.63799183432265,EL,EL52,EL522,07030303,Τοπική Κοινότητα Νικομηδινού,519,12.02806167,2019,EL_07030303,official,TRUE
EL_07030304,23.340658606945116,40.66341099697326,EL,EL52,EL522,07030304,Τοπική Κοινότητα Περιστερώνας,442,51.08487328,2019,EL_07030304,official,TRUE
EL_07030305,23.302692678217706,40.652045956954545,EL,EL52,EL522,07030305,Τοπική Κοινότητα Στίβου,576,11.32353076,2019,EL_07030305,official,TRUE
EL_07030401,23.58592150897382,40.74054279573513,EL,EL52,EL522,07030401,Τοπική Κοινότητα Αρέθουσας,869,56.60084273,2019,EL_07030401,official,TRUE
EL_07030402,23.46396496781239,40.803877037289716,EL,EL52,EL522,07030402,Τοπική Κοινότητα Μαυρούδας,375,22.93502385,2019,EL_07030402,official,TRUE
EL_07030403,23.525070043007933,40.79464847054201,EL,EL52,EL522,07030403,Τοπική Κοινότητα Σκεπαστού,554,30.53399423,2019,EL_07030403,official,TRUE
EL_07030404,23.5861380600578,40.759750701114946,EL,EL52,EL522,07030404,Τοπική Κοινότητα Στεφανινών,381,56.00966657,2019,EL_07030404,official,TRUE
EL_07030405,23.471811305942023,40.75967487677668,EL,EL52,EL522,07030405,Τοπική Κοινότητα Φιλαδελφίου,808,48.75949216,2019,EL_07030405,official,TRUE
EL_07030501,23.279945944389354,40.68588103147415,EL,EL52,EL522,07030501,Τοπική Κοινότητα Προφήτου,996,48.83742241,2019,EL_07030501,official,TRUE
EL_07030502,23.217771873400675,40.691332524150454,EL,EL52,EL522,07030502,Τοπική Κοινότητα Ευαγγελισμού,474,21.35424321,2019,EL_07030502,official,TRUE
EL_07030503,23.332260270701717,40.694335494380404,EL,EL52,EL522,07030503,Τοπική Κοινότητα Νυμφοπέτρας,678,28.97117883,2019,EL_07030503,official,TRUE
EL_07030504,23.255231264535674,40.67342749926702,EL,EL52,EL522,07030504,Τοπική Κοινότητα Σχολαρίου,469,16.3097338,2019,EL_07030504,official,TRUE
EL_07030601,23.560747751887995,40.62535352078866,EL,EL52,EL522,07030601,Τοπική Κοινότητα Νέας Μαδύτου,1621,34.83254372,2019,EL_07030601,official,TRUE
EL_07030602,23.489984714372515,40.63464090399314,EL,EL52,EL522,07030602,Τοπική Κοινότητα Απολλωνίας,490,32.15330599,2019,EL_07030602,official,TRUE
EL_07030603,23.60572864292233,40.62906284130745,EL,EL52,EL522,07030603,Τοπική Κοινότητα Μοδίου,349,22.35977932,2019,EL_07030603,official,TRUE
EL_07040101,22.803988928528927,40.66779355505369,EL,EL52,EL522,07040101,Δημοτική Κοινότητα Σίνδου,9289,47.72417079,2019,EL_07040101,official,TRUE
EL_07040102,22.863248047396773,40.68477403563763,EL,EL52,EL522,07040102,Δημοτική Κοινότητα Διαβατών,11140,8.87795252,2019,EL_07040102,official,TRUE
EL_07040103,22.853485199875117,40.63973873821286,EL,EL52,EL522,07040103,Δημοτική Κοινότητα Καλοχωρίου,4672,30.46675097,2019,EL_07040103,official,TRUE
EL_07040104,22.84547066759835,40.685180851502864,EL,EL52,EL522,07040104,Δημοτική Κοινότητα Νέας Μαγνησίας,4266,14.8149204,2019,EL_07040104,official,TRUE
EL_07040201,22.689695021404535,40.61401695830684,EL,EL52,EL522,07040201,Δημοτική Κοινότητα Κυμίνων,3652,29.03670031,2019,EL_07040201,official,TRUE
EL_07040202,22.64187932444733,40.66022011240752,EL,EL52,EL522,07040202,Τοπική Κοινότητα Βραχιάς,557,14.95759833,2019,EL_07040202,official,TRUE
EL_07040203,22.67992290022549,40.607435273286576,EL,EL52,EL522,07040203,Δημοτική Κοινότητα Νέων Μαλγάρων,2404,41.17740827,2019,EL_07040203,official,TRUE
EL_07040301,22.73334637773407,40.62682183763479,EL,EL52,EL522,07040301,Δημοτική Κοινότητα Χαλάστρας,7270,96.29960079,2019,EL_07040301,official,TRUE
EL_07040302,22.713631629720975,40.660244656939604,EL,EL52,EL522,07040302,Δημοτική Κοινότητα Ανατολικού,2589,22.80829322,2019,EL_07040302,official,TRUE
EL_07050101,22.92343557733736,40.50208162019151,EL,EL52,EL522,07050101,Δημοτική Κοινότητα Περαίας,18546,8.97287909,2019,EL_07050101,official,TRUE
EL_07050102,22.876870902744262,40.49753484184936,EL,EL52,EL522,07050102,Δημοτική Κοινότητα Αγίας Τριάδος,3023,4.99362015,2019,EL_07050102,official,TRUE
EL_07050103,22.907655241764292,40.50175914619009,EL,EL52,EL522,07050103,Δημοτική Κοινότητα Νέων Επιβατών,5984,6.40768254,2019,EL_07050103,official,TRUE
EL_07050201,22.927027023122452,40.42673625504066,EL,EL52,EL522,07050201,Δημοτική Κοινότητα Επανομής,8979,79.188048,2019,EL_07050201,official,TRUE
EL_07050202,23.009636923115437,40.41420405943735,EL,EL52,EL522,07050202,Τοπική Κοινότητα Μεσημερίου,1831,12.28895697,2019,EL_07050202,official,TRUE
EL_07050301,22.86455393807581,40.46414347320979,EL,EL52,EL522,07050301,Δημοτική Κοινότητα Νέας Μηχανιώνας,8775,11.21392186,2019,EL_07050301,official,TRUE
EL_07050302,22.834860252465212,40.495124764147924,EL,EL52,EL522,07050302,Τοπική Κοινότητα Αγγελοχωρίου,1178,5.86004507,2019,EL_07050302,official,TRUE
EL_07050303,22.868140987792184,40.476407951121224,EL,EL52,EL522,07050303,Τοπική Κοινότητα Ν.Κερασιάς,1948,4.60417109,2019,EL_07050303,official,TRUE
EL_07060101,23.025690369638088,40.54881933125143,EL,EL52,EL522,07060101,Δημοτική Κοινότητα Θέρμης,16004,56.44018452,2019,EL_07060101,official,TRUE
EL_07060102,23.053957105983002,40.52301024607164,EL,EL52,EL522,07060102,Δημοτική Κοινότητα Νέας Ραιδεστού,4101,14.60510258,2019,EL_07060102,official,TRUE
EL_07060103,22.990753275514948,40.49636347894829,EL,EL52,EL522,07060103,Δημοτική Κοινότητα Νέου Ρυσίου,2952,15.27188519,2019,EL_07060103,official,TRUE
EL_07060104,23.02344208873724,40.489768333873805,EL,EL52,EL522,07060104,Δημοτική Κοινότητα Ταγαράδων,2088,15.18062765,2019,EL_07060104,official,TRUE
EL_07060201,23.130564043874706,40.48558450914036,EL,EL52,EL522,07060201,Δημοτική Κοινότητα Βασιλικών,4200,57.00111952,2019,EL_07060201,official,TRUE
EL_07060202,23.049039794216203,40.483620683219016,EL,EL52,EL522,07060202,Δημοτική Κοινότητα Αγίας Παρασκευής,2244,15.83870488,2019,EL_07060202,official,TRUE
EL_07060203,23.110260803177717,40.43556777748616,EL,EL52,EL522,07060203,Τοπική Κοινότητα Αγίου Αντωνίου,874,50.1727211,2019,EL_07060203,official,TRUE
EL_07060204,23.222748096244388,40.52473005209615,EL,EL52,EL522,07060204,Τοπική Κοινότητα Λιβαδίου,263,40.05197984,2019,EL_07060204,official,TRUE
EL_07060205,23.166725739157005,40.54679186049333,EL,EL52,EL522,07060205,Τοπική Κοινότητα Περιστεράς,770,28.16498332,2019,EL_07060205,official,TRUE
EL_07060206,23.092605330179435,40.47024386183427,EL,EL52,EL522,07060206,Τοπική Κοινότητα Σουρωτής,1560,9.4601193,2019,EL_07060206,official,TRUE
EL_07060301,22.97273082032591,40.46853876215619,EL,EL52,EL522,07060301,Δημοτική Κοινότητα Τριλόφου,7405,35.39983955,2019,EL_07060301,official,TRUE
EL_07060302,22.99555032068955,40.46964806145658,EL,EL52,EL522,07060302,Δημοτική Κοινότητα Καρδίας,3394,9.61454981,2019,EL_07060302,official,TRUE
EL_07060303,23.025356936657765,40.42682454532507,EL,EL52,EL522,07060303,Τοπική Κοινότητα Κάτω Σχολαρίου,1954,24.03652624,2019,EL_07060303,official,TRUE
EL_07060304,22.943905600127536,40.49260637137315,EL,EL52,EL522,07060304,Δημοτική Κοινότητα Πλαγιαρίου,5392,12.3678172,2019,EL_07060304,official,TRUE
EL_07070000,22.95622290428817,40.58091631455173,EL,EL52,EL522,07070000,Ψευδοδημοτική Κοινότητα Καλαμαριάς,91518,6.84029538,2019,EL_07070000,official,TRUE
EL_07080101,22.912711814492486,40.670179976309825,EL,EL52,EL522,07080101,Δημοτική Κοινότητα Ευόσμου,74686,9.92619637,2019,EL_07080101,official,TRUE
EL_07080201,22.89528964744576,40.67001792973965,EL,EL52,EL522,07080201,Δημοτική Κοινότητα Ελευθερίου - Κορδελιού,27067,3.43498039,2019,EL_07080201,official,TRUE
EL_07090101,23.06931271602106,40.749249901633064,EL,EL52,EL522,07090101,Δημοτική Κοινότητα Λαγκαδά,7764,31.62103765,2019,EL_07090101,official,TRUE
EL_07090102,23.171327143578846,40.72195194022474,EL,EL52,EL522,07090102,Τοπική Κοινότητα Αναλήψεως,633,29.98863468,2019,EL_07090102,official,TRUE
EL_07090103,23.035687532449483,40.75891217812197,EL,EL52,EL522,07090103,Τοπική Κοινότητα Ηρακλείου,1278,9.89800181,2019,EL_07090103,official,TRUE
EL_07090104,23.046234880486928,40.71271406534806,EL,EL52,EL522,07090104,Τοπική Κοινότητα Καβαλλαρίου,1993,43.87988342,2019,EL_07090104,official,TRUE
EL_07090105,23.131647122179615,40.755713929760766,EL,EL52,EL522,07090105,Δημοτική Κοινότητα Κολχικού,2062,45.75000292,2019,EL_07090105,official,TRUE
EL_07090106,23.005433507842444,40.72306175411178,EL,EL52,EL522,07090106,Δημοτική Κοινότητα Λαγυνών,3591,13.46326151,2019,EL_07090106,official,TRUE
EL_07090107,23.034105984676966,40.74129015587261,EL,EL52,EL522,07090107,Τοπική Κοινότητα Περιβολακίου,1160,7.68132248,2019,EL_07090107,official,TRUE
EL_07090108,23.083486173774848,40.7645500238049,EL,EL52,EL522,07090108,Τοπική Κοινότητα Χρυσαυγής,1106,15.88484643,2019,EL_07090108,official,TRUE
EL_07090201,23.026948053630253,40.824645646413835,EL,EL52,EL522,07090201,Δημοτική Κοινότητα Ασσήρου,2216,54.71037361,2019,EL_07090201,official,TRUE
EL_07090202,22.98053088961381,40.84161465886778,EL,EL52,EL522,07090202,Τοπική Κοινότητα Κριθίας,1422,20.51393733,2019,EL_07090202,official,TRUE
EL_07090301,23.20440739465872,40.838329275037935,EL,EL52,EL522,07090301,Τοπική Κοινότητα Όσσης,456,58.58884539,2019,EL_07090301,official,TRUE
EL_07090302,23.227445614493973,40.881681739193944,EL,EL52,EL522,07090302,Τοπική Κοινότητα Βερτίσκου,394,47.30949984,2019,EL_07090302,official,TRUE
EL_07090303,23.129509027997194,40.81242337089221,EL,EL52,EL522,07090303,Τοπική Κοινότητα Εξαλόφου,626,38.21274173,2019,EL_07090303,official,TRUE
EL_07090304,23.234933176645583,40.76745156566901,EL,EL52,EL522,07090304,Τοπική Κοινότητα Λοφίσκου,447,52.8042205,2019,EL_07090304,official,TRUE
EL_07090401,23.29104825021607,40.57138252638908,EL,EL52,EL522,07090401,Δημοτική Κοινότητα Ζαγκλιβερίου,2171,62.62286174,2019,EL_07090401,official,TRUE
EL_07090402,23.301433767898725,40.55217153368176,EL,EL52,EL522,07090402,Τοπική Κοινότητα Αδάμ,481,18.21940936,2019,EL_07090402,official,TRUE
EL_07090403,23.377120860499662,40.557749375132374,EL,EL52,EL522,07090403,Τοπική Κοινότητα Νέων Καλινδοίων,563,29.50804536,2019,EL_07090403,official,TRUE
EL_07090404,23.282048240147457,40.51766717006582,EL,EL52,EL522,07090404,Τοπική Κοινότητα Πετροκεράσων,228,27.20467354,2019,EL_07090404,official,TRUE
EL_07090405,23.22374197650891,40.59093906074355,EL,EL52,EL522,07090405,Τοπική Κοινότητα Σαρακήνας,149,16.32380631,2019,EL_07090405,official,TRUE
EL_07090501,23.21259432990578,40.627682734090904,EL,EL52,EL522,07090501,Τοπική Κοινότητα Γερακαρούς,1223,18.03856824,2019,EL_07090501,official,TRUE
EL_07090502,23.112815938228376,40.66616929810389,EL,EL52,EL522,07090502,Τοπική Κοινότητα Αγίου Βασιλείου,1309,28.63099957,2019,EL_07090502,official,TRUE
EL_07090503,23.1797704254196,40.59626551009335,EL,EL52,EL522,07090503,Τοπική Κοινότητα Αρδαμερίου,251,22.56228456,2019,EL_07090503,official,TRUE
EL_07090504,23.18656278825763,40.631555996600376,EL,EL52,EL522,07090504,Τοπική Κοινότητα Βασιλουδίου,673,23.01488898,2019,EL_07090504,official,TRUE
EL_07090505,23.246937937675483,40.63397067356533,EL,EL52,EL522,07090505,Τοπική Κοινότητα Λαγκαδικίων,636,13.3738835,2019,EL_07090505,official,TRUE
EL_07090601,23.176681135961147,40.92520906792603,EL,EL52,EL522,07090601,Τοπική Κοινότητα Ξυλοπόλεως,855,34.49570549,2019,EL_07090601,official,TRUE
EL_07090602,23.089031183894473,40.89671176099486,EL,EL52,EL522,07090602,Τοπική Κοινότητα Καρτερών,648,84.06692013,2019,EL_07090602,official,TRUE
EL_07090603,23.212761921275078,40.967059346326984,EL,EL52,EL522,07090603,Τοπική Κοινότητα Λαχανά,568,47.93241721,2019,EL_07090603,official,TRUE
EL_07090604,23.069220905790527,40.92982125616368,EL,EL52,EL522,07090604,Τοπική Κοινότητα Λευκοχωρίου,236,23.97622878,2019,EL_07090604,official,TRUE
EL_07090605,23.180744090156075,40.88816696905409,EL,EL52,EL522,07090605,Τοπική Κοινότητα Νικοπόλεως,134,20.40628738,2019,EL_07090605,official,TRUE
EL_07090701,23.35818225860754,40.81787451399145,EL,EL52,EL522,07090701,Δημοτική Κοινότητα Σοχού,3094,152.8791272,2019,EL_07090701,official,TRUE
EL_07090702,23.387623324976282,40.75048662300801,EL,EL52,EL522,07090702,Τοπική Κοινότητα Ασκού,1426,70.4847915,2019,EL_07090702,official,TRUE
EL_07090703,23.291712959933676,40.81486084013289,EL,EL52,EL522,07090703,Τοπική Κοινότητα Κρυονερίου,1310,58.61134362,2019,EL_07090703,official,TRUE
EL_07100101,22.962769223774266,40.65045391167721,EL,EL52,EL522,07100101,Δημοτική Κοινότητα Συκεών,37753,7.95621569,2019,EL_07100101,official,TRUE
EL_07100201,22.962515337130377,40.64057262173992,EL,EL52,EL522,07100201,Δημοτική Κοινότητα Αγίου Παύλου,6852,1.90921803,2019,EL_07100201,official,TRUE
EL_07100301,22.940686642529226,40.65471513956802,EL,EL52,EL522,07100301,Δημοτική Κοινότητα Νεαπόλεως,27084,0.8981348,2019,EL_07100301,official,TRUE
EL_07100401,22.98860655121181,40.658456386383165,EL,EL52,EL522,07100401,Δημοτική Κοινότητα Πεύκων,13052,1.74021343,2019,EL_07100401,official,TRUE
EL_07110101,22.931301924185313,40.667368941359285,EL,EL52,EL522,07110101,Δημοτική Κοινότητα Σταυρουπόλεως,46008,3.38967678,2019,EL_07110101,official,TRUE
EL_07110201,22.950503099373236,40.68564521713808,EL,EL52,EL522,07110201,Δημοτική Κοινότητα Ευκαρπίας,13905,13.19469462,2019,EL_07110201,official,TRUE
EL_07110301,22.949630441230124,40.66470161795937,EL,EL52,EL522,07110301,Δημοτική Κοινότητα Πολίχνης,39332,7.57851736,2019,EL_07110301,official,TRUE
EL_07120101,23.02624657501,40.584705521035154,EL,EL52,EL522,07120101,Δημοτική Κοινότητα Πανοράματος,17444,20.89308929,2019,EL_07120101,official,TRUE
EL_07120201,22.984351264378997,40.60266944639922,EL,EL52,EL522,07120201,Δημοτική Κοινότητα Πυλαίας,34625,25.0138134,2019,EL_07120201,official,TRUE
EL_07120301,23.023401077622484,40.64359018616502,EL,EL52,EL522,07120301,Δημοτική Κοινότητα Ασβεστοχωρίου,6393,34.63143205,2019,EL_07120301,official,TRUE
EL_07120302,23.04392746820776,40.63202496884515,EL,EL52,EL522,07120302,Τοπική Κοινότητα Εξοχής,1280,2.47219001,2019,EL_07120302,official,TRUE
EL_07120303,23.00365349626478,40.686943828345925,EL,EL52,EL522,07120303,Δημοτική Κοινότητα Φιλύρου,5495,16.29780333,2019,EL_07120303,official,TRUE
EL_07120304,23.09860765523204,40.612344752557576,EL,EL52,EL522,07120304,Δημοτική Κοινότητα Χορτιάτη,4873,57.10834049,2019,EL_07120304,official,TRUE
EL_07130101,22.57941942770966,40.780186836181876,EL,EL52,EL522,07130101,Δημοτική Κοινότητα Κουφαλίων,8139,67.32904873,2019,EL_07130101,official,TRUE
EL_07130102,22.664833092739,40.81310974240626,EL,EL52,EL522,07130102,Δημοτική Κοινότητα Προχώματος,2440,37.93663674,2019,EL_07130102,official,TRUE
EL_07130201,22.72797811721635,40.71697917650698,EL,EL52,EL522,07130201,Δημοτική Κοινότητα Αγίου Αθανασίου,4967,34.61566115,2019,EL_07130201,official,TRUE
EL_07130202,22.783782233544148,40.712552713520495,EL,EL52,EL522,07130202,Τοπική Κοινότητα Αγχιάλου,738,11.14776026,2019,EL_07130202,official,TRUE
EL_07130203,22.71105806317452,40.76718464980134,EL,EL52,EL522,07130203,Δημοτική Κοινότητα Βαθυλάκκου,2337,23.75554499,2019,EL_07130203,official,TRUE
EL_07130204,22.69296573209281,40.73222968295719,EL,EL52,EL522,07130204,Δημοτική Κοινότητα Γεφύρας,3059,29.5547458,2019,EL_07130204,official,TRUE
EL_07130205,22.768694271991194,40.75062266196048,EL,EL52,EL522,07130205,Δημοτική Κοινότητα Νέας Μεσημβρίας,3050,31.55881828,2019,EL_07130205,official,TRUE
EL_07130206,22.778456479265266,40.80412430961352,EL,EL52,EL522,07130206,Τοπική Κοινότητα Ξηροχωρίου,602,23.72356585,2019,EL_07130206,official,TRUE
EL_07130301,22.59773288895459,40.730908551263774,EL,EL52,EL522,07130301,Δημοτική Κοινότητα Χαλκηδόνος,3094,21.50487431,2019,EL_07130301,official,TRUE
EL_07130302,22.60587743156962,40.67110144737613,EL,EL52,EL522,07130302,Δημοτική Κοινότητα Αδένδρου,2079,37.18555797,2019,EL_07130302,official,TRUE
EL_07130303,22.640956301925762,40.71681311003275,EL,EL52,EL522,07130303,Τοπική Κοινότητα Βαλτοχωρίου,186,18.46933786,2019,EL_07130303,official,TRUE
EL_07130304,22.625962463348653,40.74782134344281,EL,EL52,EL522,07130304,Τοπική Κοινότητα Ελεούσης,385,10.41195168,2019,EL_07130304,official,TRUE
EL_07130305,22.541454945188324,40.695699813110295,EL,EL52,EL522,07130305,Δημοτική Κοινότητα Μικρού Μοναστηρίου,2095,35.89108523,2019,EL_07130305,official,TRUE
EL_07130306,22.6032382245067,40.69888345253107,EL,EL52,EL522,07130306,Τοπική Κοινότητα Παρθενίου,502,7.40518325,2019,EL_07130306,official,TRUE
EL_07140101,22.917104397632713,40.72452600784369,EL,EL52,EL522,07140101,Δημοτική Κοινότητα Ωραιοκάστρου,21716,22.04161256,2019,EL_07140101,official,TRUE
EL_07140201,22.847943806585704,40.74335736310305,EL,EL52,EL522,07140201,Δημοτική Κοινότητα Πενταλόφου,2022,29.46439213,2019,EL_07140201,official,TRUE
EL_07140202,22.869403146449667,40.79772652689486,EL,EL52,EL522,07140202,Τοπική Κοινότητα Μεσαίου,1192,27.75957517,2019,EL_07140202,official,TRUE
EL_07140203,22.837607882689767,40.7964412020304,EL,EL52,EL522,07140203,Τοπική Κοινότητα Νέας Φιλαδελφείας,923,12.90307885,2019,EL_07140203,official,TRUE
EL_07140204,22.857448672382827,40.70618144518509,EL,EL52,EL522,07140204,Τοπική Κοινότητα Νεοχωρούδας,1973,27.21501773,2019,EL_07140204,official,TRUE
EL_07140301,22.9808519052278,40.74334064519225,EL,EL52,EL522,07140301,Δημοτική Κοινότητα Λητής,3523,19.05110745,2019,EL_07140301,official,TRUE
EL_07140302,22.959338922826444,40.78112021381317,EL,EL52,EL522,07140302,Δημοτική Κοινότητα Δρυμού,3659,42.45504509,2019,EL_07140302,official,TRUE
EL_07140303,22.9288750135055,40.76469055774492,EL,EL52,EL522,07140303,Δημοτική Κοινότητα Μελισσοχωρίου,3309,37.56044439,2019,EL_07140303,official,TRUE
EL_08010101,22.204029124311887,40.52258097562103,EL,EL52,EL521,08010101,Δημοτική Κοινότητα Βέροιας,44291,46.20977654,2019,EL_08010101,official,TRUE
EL_08010102,22.241432502844706,40.49739579311339,EL,EL52,EL521,08010102,Τοπική Κοινότητα Αγίας Βαρβάρας,896,8.17687798,2019,EL_08010102,official,TRUE
EL_08010103,22.245500599316596,40.499532238537874,EL,EL52,EL521,08010103,Τοπική Κοινότητα Άμμος,198,3.29803255,2019,EL_08010103,official,TRUE
EL_08010104,22.230980664687472,40.490272884091745,EL,EL52,EL521,08010104,Τοπική Κοινότητα Ασώματα,607,2.5341674,2019,EL_08010104,official,TRUE
EL_08010105,22.170109599983746,40.46089977563238,EL,EL52,EL521,08010105,Τοπική Κοινότητα Γεωργιανών,508,24.77525662,2019,EL_08010105,official,TRUE
EL_08010106,22.13884865202452,40.40453003957765,EL,EL52,EL521,08010106,Τοπική Κοινότητα Καστανέας,116,53.31106833,2019,EL_08010106,official,TRUE
EL_08010107,22.024174100457124,40.55250454721636,EL,EL52,EL521,08010107,Τοπική Κοινότητα Κάτω Βερμίου,75,39.12760852,2019,EL_08010107,official,TRUE
EL_08010108,22.086628229649317,40.49670876532783,EL,EL52,EL521,08010108,Τοπική Κοινότητα Κουμαριάς,339,137.85487969,2019,EL_08010108,official,TRUE
EL_08010109,22.239353998725978,40.48148032824133,EL,EL52,EL521,08010109,Τοπική Κοινότητα Προφήτης Ηλίας,0,2.45503537,2019,EL_08010109,official,TRUE
EL_08010110,22.213437262694118,40.4835682633563,EL,EL52,EL521,08010110,Τοπική Κοινότητα Ράχης,610,16.37506333,2019,EL_08010110,official,TRUE
EL_08010111,22.18084226629493,40.515171090081544,EL,EL52,EL521,08010111,Τοπική Κοινότητα Τριποτάμου,666,23.14085573,2019,EL_08010111,official,TRUE
EL_08010201,22.254076072245834,40.553535338179685,EL,EL52,EL521,08010201,Δημοτική Κοινότητα Μακροχωρίου,5189,25.37805348,2019,EL_08010201,official,TRUE
EL_08010202,22.27169436814441,40.542984649618106,EL,EL52,EL521,08010202,Τοπική Κοινότητα Διαβατού,1276,9.34531876,2019,EL_08010202,official,TRUE
EL_08010203,22.31967872064187,40.543717378039716,EL,EL52,EL521,08010203,Τοπική Κοινότητα Κουλούρας,992,12.07841811,2019,EL_08010203,official,TRUE
EL_08010204,22.24513119584057,40.587202088294795,EL,EL52,EL521,08010204,Τοπική Κοινότητα Λυκόγιαννης,560,8.70246905,2019,EL_08010204,official,TRUE
EL_08010205,22.25319988405249,40.58799711487423,EL,EL52,EL521,08010205,Τοπική Κοινότητα Νέας Νικομηδείας,801,8.27933443,2019,EL_08010205,official,TRUE
EL_08010301,22.318617291747323,40.48820331422644,EL,EL52,EL521,08010301,Τοπική Κοινότητα Βεργίνης,1242,33.54523497,2019,EL_08010301,official,TRUE
EL_08010302,22.284260258865718,40.492775264675295,EL,EL52,EL521,08010302,Τοπική Κοινότητα Μετόχιο Προδρόμου,110,3.47310777,2019,EL_08010302,official,TRUE
EL_08010303,22.34485020347994,40.485140199599066,EL,EL52,EL521,08010303,Τοπική Κοινότητα Παλατιτσίων,834,17.87423313,2019,EL_08010303,official,TRUE
EL_08010304,22.374337809837733,40.45400841883579,EL,EL52,EL521,08010304,Τοπική Κοινότητα Συκέας,278,14.53331654,2019,EL_08010304,official,TRUE
EL_08010401,22.1964827657418,40.60692006942138,EL,EL52,EL521,08010401,Τοπική Κοινότητα Αγίου Γεωργίου,1763,19.50013613,2019,EL_08010401,official,TRUE
EL_08010402,22.209364796844238,40.59826853652579,EL,EL52,EL521,08010402,Τοπική Κοινότητα Αγίας Μαρίνης,864,14.60730414,2019,EL_08010402,official,TRUE
EL_08010403,22.190083212355432,40.56157564332396,EL,EL52,EL521,08010403,Τοπική Κοινότητα Πατρίδος,1520,12.7858004,2019,EL_08010403,official,TRUE
EL_08010404,22.153428793970598,40.57865485142308,EL,EL52,EL521,08010404,Τοπική Κοινότητα Τριλόφου,615,13.88398348,2019,EL_08010404,official,TRUE
EL_08010405,22.128031713896796,40.55795013442987,EL,EL52,EL521,08010405,Τοπική Κοινότητα Φυτείας,551,43.59752268,2019,EL_08010405,official,TRUE
EL_08010501,22.21110001293285,40.349188296254184,EL,EL52,EL521,08010501,Τοπική Κοινότητα Ριζωμάτων,816,35.89353837,2019,EL_08010501,official,TRUE
EL_08010502,22.172664961184555,40.33518858838856,EL,EL52,EL521,08010502,Τοπική Κοινότητα Δασκίου,286,28.28244543,2019,EL_08010502,official,TRUE
EL_08010503,22.26121683406642,40.46047738025064,EL,EL52,EL521,08010503,Τοπική Κοινότητα Πολυδένδρου,162,111.01492046,2019,EL_08010503,official,TRUE
EL_08010504,22.205987646800587,40.383931277452696,EL,EL52,EL521,08010504,Τοπική Κοινότητα Σφηκιάς,382,25.43613618,2019,EL_08010504,official,TRUE
EL_08020101,22.443922565960005,40.62702653084272,EL,EL52,EL521,08020101,Δημοτική Κοινότητα Αλεξανδρείας,15864,62.72546416,2019,EL_08020101,official,TRUE
EL_08020102,22.409963320512976,40.621507814382156,EL,EL52,EL521,08020102,Τοπική Κοινότητα Βρυσακίου,669,9.47993554,2019,EL_08020102,official,TRUE
EL_08020103,22.369043549877368,40.610164509831655,EL,EL52,EL521,08020103,Τοπική Κοινότητα Καμποχωρίου,690,14.84588244,2019,EL_08020103,official,TRUE
EL_08020104,22.40073198187654,40.58782546106082,EL,EL52,EL521,08020104,Τοπική Κοινότητα Λουτρού,1279,10.96954337,2019,EL_08020104,official,TRUE
EL_08020105,22.448268167519675,40.66460373060492,EL,EL52,EL521,08020105,Τοπική Κοινότητα Νεοχωρίου,536,10.16599265,2019,EL_08020105,official,TRUE
EL_08020106,22.387185598855474,40.63626399064851,EL,EL52,EL521,08020106,Τοπική Κοινότητα Νησίου,1379,33.75687276,2019,EL_08020106,official,TRUE
EL_08020201,22.3263967458634,40.590121658467595,EL,EL52,EL521,08020201,Τοπική Κοινότητα Καβασίλων,632,6.12004357,2019,EL_08020201,official,TRUE
EL_08020202,22.36377696852373,40.593731311155345,EL,EL52,EL521,08020202,Τοπική Κοινότητα Επισκοπής,694,7.86564852,2019,EL_08020202,official,TRUE
EL_08020203,22.36726058669921,40.57052953432824,EL,EL52,EL521,08020203,Τοπική Κοινότητα Κεφαλοχωρίου,604,10.78199298,2019,EL_08020203,official,TRUE
EL_08020204,22.338058961388747,40.5675446720178,EL,EL52,EL521,08020204,Τοπική Κοινότητα Ξεχασμένης,750,8.94867251,2019,EL_08020204,official,TRUE
EL_08020205,22.332576437604267,40.60542825899366,EL,EL52,EL521,08020205,Τοπική Κοινότητα Παλαιού Σκυλλιτσίου,526,10.5510653,2019,EL_08020205,official,TRUE
EL_08020206,22.30696214790512,40.590353150377446,EL,EL52,EL521,08020206,Τοπική Κοινότητα Σταυρού,1229,14.31577709,2019,EL_08020206,official,TRUE
EL_08020301,22.39750383686893,40.51705012687596,EL,EL52,EL521,08020301,Δημοτική Κοινότητα Μελίκης,3116,34.66119922,2019,EL_08020301,official,TRUE
EL_08020302,22.466067836836896,40.55326557950826,EL,EL52,EL521,08020302,Τοπική Κοινότητα Αγκαθιάς,1448,20.83906418,2019,EL_08020302,official,TRUE
EL_08020303,22.487835814248797,40.55793342411894,EL,EL52,EL521,08020303,Τοπική Κοινότητα Κυψέλης,376,12.17006124,2019,EL_08020303,official,TRUE
EL_08020304,22.413682131962737,40.50390421117582,EL,EL52,EL521,08020304,Τοπική Κοινότητα Νεοκάστρου,889,15.25588651,2019,EL_08020304,official,TRUE
EL_08020305,22.40008912950718,40.55078904637141,EL,EL52,EL521,08020305,Τοπική Κοινότητα Προδρόμου,1275,15.51863664,2019,EL_08020305,official,TRUE
EL_08020401,22.53327829336608,40.6444398461065,EL,EL52,EL521,08020401,Δημοτική Κοινότητα Πλατέος,2084,20.68475961,2019,EL_08020401,official,TRUE
EL_08020402,22.511536763750193,40.66462855167433,EL,EL52,EL521,08020402,Τοπική Κοινότητα Αράχου,393,5.61161981,2019,EL_08020402,official,TRUE
EL_08020403,22.587901342928646,40.56540653466895,EL,EL52,EL521,08020403,Τοπική Κοινότητα Κλειδίου,1249,61.54032721,2019,EL_08020403,official,TRUE
EL_08020404,22.501872927397944,40.60247157562054,EL,EL52,EL521,08020404,Τοπική Κοινότητα Κορυφής,1619,24.61607173,2019,EL_08020404,official,TRUE
EL_08020405,22.505266914798888,40.636549147027004,EL,EL52,EL521,08020405,Τοπική Κοινότητα Λιανοβεργίου,1593,16.65504637,2019,EL_08020405,official,TRUE
EL_08020406,22.554378890324866,40.567381866522076,EL,EL52,EL521,08020406,Τοπική Κοινότητα Πλατάνου,630,13.07432165,2019,EL_08020406,official,TRUE
EL_08020407,22.51464222064245,40.56618333212803,EL,EL52,EL521,08020407,Τοπική Κοινότητα Πρασινάδας,631,14.64021235,2019,EL_08020407,official,TRUE
EL_08020408,22.5572354125825,40.59609619246577,EL,EL52,EL521,08020408,Τοπική Κοινότητα Τρικάλων,1415,25.90704628,2019,EL_08020408,official,TRUE
EL_08030101,22.067187664919174,40.62965675395055,EL,EL52,EL521,08030101,Δημοτική Κοινότητα Νάουσας,19268,222.17482428,2019,EL_08030101,official,TRUE
EL_08030102,22.07549022344641,40.5917002617626,EL,EL52,EL521,08030102,Τοπική Κοινότητα Αρκοχωρίου,256,17.77326083,2019,EL_08030102,official,TRUE
EL_08030103,22.074313988511058,40.679856571764105,EL,EL52,EL521,08030103,Τοπική Κοινότητα Γιαννακοχωρίου,415,17.43825733,2019,EL_08030103,official,TRUE
EL_08030104,22.015296043909306,40.69076755124687,EL,EL52,EL521,08030104,Τοπική Κοινότητα Ροδοχωρίου,503,31.56803604,2019,EL_08030104,official,TRUE
EL_08030105,22.129623615242835,40.60340962796557,EL,EL52,EL521,08030105,Τοπική Κοινότητα Στενημάχου,710,12.78719706,2019,EL_08030105,official,TRUE
EL_08030201,22.13330590936622,40.634075113170226,EL,EL52,EL521,08030201,Τοπική Κοινότητα Κοπανού,1853,7.5583689,2019,EL_08030201,official,TRUE
EL_08030202,22.13348195353952,40.68690735237075,EL,EL52,EL521,08030202,Τοπική Κοινότητα Επισκοπής Νάουσας,1623,16.16601847,2019,EL_08030202,official,TRUE
EL_08030203,22.115894277385266,40.650939046178266,EL,EL52,EL521,08030203,Τοπική Κοινότητα Λευκαδίων,1021,8.27570014,2019,EL_08030203,official,TRUE
EL_08030204,22.098731963469536,40.69187456025056,EL,EL52,EL521,08030204,Τοπική Κοινότητα Μαρίνης,1181,16.29794761,2019,EL_08030204,official,TRUE
EL_08030205,22.178172095009554,40.614679986267426,EL,EL52,EL521,08030205,Τοπική Κοινότητα Μονοσπίτων,897,13.03296446,2019,EL_08030205,official,TRUE
EL_08030206,22.163757007995464,40.65392927922284,EL,EL52,EL521,08030206,Τοπική Κοινότητα Χαριέσσης,959,12.1313927,2019,EL_08030206,official,TRUE
EL_08030301,22.201996408948055,40.6756612169478,EL,EL52,EL521,08030301,Τοπική Κοινότητα Αγγελοχωρίου,1701,14.48971137,2019,EL_08030301,official,TRUE
EL_08030302,22.23008674528448,40.65671000666732,EL,EL52,EL521,08030302,Τοπική Κοινότητα Ζερβοχωρίου,1340,24.11774014,2019,EL_08030302,official,TRUE
EL_08030303,22.19246389378245,40.68289113839505,EL,EL52,EL521,08030303,Τοπική Κοινότητα Πολυπλατάνου,767,11.81076549,2019,EL_08030303,official,TRUE
EL_09010101,22.874820251292594,40.993515620777295,EL,EL52,EL523,09010101,Δημοτική Κοινότητα Κιλκίς,24274,110.2912682,2019,EL_09010101,official,TRUE
EL_09010102,22.77039404083454,40.99406489781324,EL,EL52,EL523,09010102,Τοπική Κοινότητα Βαπτιστού,344,16.73920959,2019,EL_09010102,official,TRUE
EL_09010103,22.76478729949706,41.02511196265157,EL,EL52,EL523,09010103,Τοπική Κοινότητα Καστανεών,430,17.7355621,2019,EL_09010103,official,TRUE
EL_09010104,22.85911720700914,40.95933584855277,EL,EL52,EL523,09010104,Τοπική Κοινότητα Κρηστώνης,988,15.68238759,2019,EL_09010104,official,TRUE
EL_09010105,22.95308164041493,40.94320138805836,EL,EL52,EL523,09010105,Τοπική Κοινότητα Λειψυδρίου,304,40.22370624,2019,EL_09010105,official,TRUE
EL_09010106,22.797141397507758,41.006659444599634,EL,EL52,EL523,09010106,Τοπική Κοινότητα Μεγάλης Βρύσης,492,11.48369289,2019,EL_09010106,official,TRUE
EL_09010107,23.05156741630312,40.95422907202395,EL,EL52,EL523,09010107,Τοπική Κοινότητα Μελανθίου,123,23.70556904,2019,EL_09010107,official,TRUE
EL_09010108,22.7958306817161,40.952043113893446,EL,EL52,EL523,09010108,Τοπική Κοινότητα Μεσιανού,724,46.89479483,2019,EL_09010108,official,TRUE
EL_09010109,22.799395385549477,41.034895441275374,EL,EL52,EL523,09010109,Τοπική Κοινότητα Σταυροχωρίου,398,11.61587324,2019,EL_09010109,official,TRUE
EL_09010110,22.727977349269153,40.99470805040745,EL,EL52,EL523,09010110,Τοπική Κοινότητα Χωρυγίου,668,30.45031652,2019,EL_09010110,official,TRUE
EL_09010201,22.91650986912803,40.88812686434865,EL,EL52,EL523,09010201,Τοπική Κοινότητα Καμπάνη,1208,24.0207636,2019,EL_09010201,official,TRUE
EL_09010202,22.87473667959104,40.85869056194072,EL,EL52,EL523,09010202,Τοπική Κοινότητα Γαλλικού,969,17.74713044,2019,EL_09010202,official,TRUE
EL_09010203,22.903705887367813,40.86568504305437,EL,EL52,EL523,09010203,Τοπική Κοινότητα Μανδρών,475,11.74090144,2019,EL_09010203,official,TRUE
EL_09010204,22.91785639905911,40.840227822752354,EL,EL52,EL523,09010204,Δημοτική Κοινότητα Νέας Σάντας,2144,24.73953961,2019,EL_09010204,official,TRUE
EL_09010205,22.872618981270165,40.91018574268324,EL,EL52,EL523,09010205,Τοπική Κοινότητα Πεδινού,839,26.72824206,2019,EL_09010205,official,TRUE
EL_09010206,22.96904016942205,40.89356208185444,EL,EL52,EL523,09010206,Τοπική Κοινότητα Χρυσοπέτρας,708,43.9747948,2019,EL_09010206,official,TRUE
EL_09010301,22.802136111333862,41.16661654326554,EL,EL52,EL523,09010301,Τοπική Κοινότητα Δροσάτου,902,31.89841171,2019,EL_09010301,official,TRUE
EL_09010302,22.74194403056063,41.14699442606784,EL,EL52,EL523,09010302,Τοπική Κοινότητα Ακρίτας,149,18.71432976,2019,EL_09010302,official,TRUE
EL_09010303,22.813239321496376,41.19339670442899,EL,EL52,EL523,09010303,Τοπική Κοινότητα Αμαράντων,353,30.5369128,2019,EL_09010303,official,TRUE
EL_09010401,22.955831561507626,41.03825745956049,EL,EL52,EL523,09010401,Τοπική Κοινότητα Τερπύλλου,692,45.48098067,2019,EL_09010401,official,TRUE
EL_09010402,23.059770591449116,41.115467571874085,EL,EL52,EL523,09010402,Τοπική Κοινότητα Αγίου Μάρκου,169,47.43479766,2019,EL_09010402,official,TRUE
EL_09010403,23.04401499293696,41.05048392729422,EL,EL52,EL523,09010403,Τοπική Κοινότητα Αναβρυτού,99,34.14347551,2019,EL_09010403,official,TRUE
EL_09010404,22.876714519634337,41.13475869950467,EL,EL52,EL523,09010404,Τοπική Κοινότητα Αντιγονείας,288,28.28034306,2019,EL_09010404,official,TRUE
EL_09010405,22.970380754879564,41.14474043205854,EL,EL52,EL523,09010405,Τοπική Κοινότητα Βάθης,309,39.1817634,2019,EL_09010405,official,TRUE
EL_09010406,22.92541504894313,41.10600192660182,EL,EL52,EL523,09010406,Τοπική Κοινότητα Γερακαρίου,210,16.93420877,2019,EL_09010406,official,TRUE
EL_09010407,23.10673548893273,40.99942500668091,EL,EL52,EL523,09010407,Τοπική Κοινότητα Ελληνικού,114,40.76393039,2019,EL_09010407,official,TRUE
EL_09010408,23.01453777331225,41.01047898195757,EL,EL52,EL523,09010408,Τοπική Κοινότητα Επταλόφου,360,34.64998597,2019,EL_09010408,official,TRUE
EL_09010409,22.90674963856787,41.07113883504325,EL,EL52,EL523,09010409,Τοπική Κοινότητα Ευκαρπίας,514,13.0569981,2019,EL_09010409,official,TRUE
EL_09010410,23.13118648435433,40.98496085752218,EL,EL52,EL523,09010410,Τοπική Κοινότητα Θεοδοσίων,229,20.26585711,2019,EL_09010410,official,TRUE
EL_09010411,23.167220735465634,40.99059729823783,EL,EL52,EL523,09010411,Τοπική Κοινότητα Ισώματος,293,52.67704325,2019,EL_09010411,official,TRUE
EL_09010412,23.008169596604894,41.15251399729585,EL,EL52,EL523,09010412,Τοπική Κοινότητα Κάτω Θεοδωρακίου,150,24.58631619,2019,EL_09010412,official,TRUE
EL_09010413,22.891164765968654,41.16606349789781,EL,EL52,EL523,09010413,Τοπική Κοινότητα Κεντρικού,283,27.36288531,2019,EL_09010413,official,TRUE
EL_09010414,22.898635712905808,41.087312385884076,EL,EL52,EL523,09010414,Τοπική Κοινότητα Κοιλαδίου,258,14.00359532,2019,EL_09010414,official,TRUE
EL_09010415,23.016447010345928,41.08064387229324,EL,EL52,EL523,09010415,Τοπική Κοινότητα Κοκκινιάς,136,23.53201287,2019,EL_09010415,official,TRUE
EL_09010416,22.997335347352607,40.98691237133997,EL,EL52,EL523,09010416,Τοπική Κοινότητα Κορωνούδας,145,15.8876473,2019,EL_09010416,official,TRUE
EL_09010417,23.122644588992753,41.08628074282763,EL,EL52,EL523,09010417,Τοπική Κοινότητα Ποντοκερασέας,133,70.87780073,2019,EL_09010417,official,TRUE
EL_09010418,22.94113155085383,41.12946511560575,EL,EL52,EL523,09010418,Τοπική Κοινότητα Τριποτάμου,54,17.53206416,2019,EL_09010418,official,TRUE
EL_09010419,22.990627818327887,41.10945162994348,EL,EL52,EL523,09010419,Τοπική Κοινότητα Φύσκας,202,22.46437529,2019,EL_09010419,official,TRUE
EL_09010501,22.837716283644994,41.262191000543496,EL,EL52,EL523,09010501,Τοπική Κοινότητα Σταθμού Μουριών,1183,45.56966238,2019,EL_09010501,official,TRUE
EL_09010502,22.860414653371052,41.26864698003396,EL,EL52,EL523,09010502,Τοπική Κοινότητα Αγίας Παρασκευής,180,19.43473606,2019,EL_09010502,official,TRUE
EL_09010503,22.798370859144512,41.257611050215324,EL,EL52,EL523,09010503,Τοπική Κοινότητα Μουριών,604,54.12025462,2019,EL_09010503,official,TRUE
EL_09010504,22.82772005469647,41.22532417733851,EL,EL52,EL523,09010504,Τοπική Κοινότητα Μυριοφύτου,758,19.51265099,2019,EL_09010504,official,TRUE
EL_09010601,22.774919875631262,40.84112245287248,EL,EL52,EL523,09010601,Τοπική Κοινότητα Μικροκάμπου,731,23.78828895,2019,EL_09010601,official,TRUE
EL_09010602,22.708040857255057,40.850890061135075,EL,EL52,EL523,09010602,Τοπική Κοινότητα Ανθοφύτου,272,13.11211706,2019,EL_09010602,official,TRUE
EL_09010603,22.807119752803057,40.89250551474823,EL,EL52,EL523,09010603,Τοπική Κοινότητα Μαυρονερίου,915,31.715240090000002,2019,EL_09010603,official,TRUE
EL_09010604,22.70925273920097,40.80868917345399,EL,EL52,EL523,09010604,Τοπική Κοινότητα Νέου Αγιονερίου,1176,12.93220571,2019,EL_09010604,official,TRUE
EL_09010605,22.74995086359809,40.91340712494865,EL,EL52,EL523,09010605,Τοπική Κοινότητα Νέου Γυναικοκάστρου,1050,41.90772251,2019,EL_09010605,official,TRUE
EL_09010606,22.830844105795684,40.85907823517035,EL,EL52,EL523,09010606,Τοπική Κοινότητα Ξυλοκερατέας,412,22.70587023,2019,EL_09010606,official,TRUE
EL_09010607,22.73262232674095,40.81180607574677,EL,EL52,EL523,09010607,Τοπική Κοινότητα Παλαιού Αγιονερίου,886,18.45983404,2019,EL_09010607,official,TRUE
EL_09010701,22.777879258756236,41.087761312499225,EL,EL52,EL523,09010701,Τοπική Κοινότητα Χέρσου,1073,42.19682587,2019,EL_09010701,official,TRUE
EL_09010702,22.731733234071598,41.061841394718066,EL,EL52,EL523,09010702,Τοπική Κοινότητα Ηλιόλουστου,328,15.39639147,2019,EL_09010702,official,TRUE
EL_09010703,22.72617564265891,41.089998882587885,EL,EL52,EL523,09010703,Τοπική Κοινότητα Μεγάλης Στέρνας,362,50.69468414,2019,EL_09010703,official,TRUE
EL_09010704,22.84837052186419,41.09476315707735,EL,EL52,EL523,09010704,Τοπική Κοινότητα Πλαγιάς,866,44.87459954,2019,EL_09010704,official,TRUE
EL_09020101,22.568381813122784,41.00415292247136,EL,EL52,EL523,09020101,Δημοτική Κοινότητα Πολυκάστρου,7065,25.54468932,2019,EL_09020101,official,TRUE
EL_09020102,22.63982095107485,40.87660946726134,EL,EL52,EL523,09020102,Τοπική Κοινότητα Αξιοχωρίου,313,20.81344982,2019,EL_09020102,official,TRUE
EL_09020103,22.63363023815246,40.907104892535884,EL,EL52,EL523,09020103,Τοπική Κοινότητα Άσπρου,774,23.03050358,2019,EL_09020103,official,TRUE
EL_09020104,22.664434923092045,41.008081740295154,EL,EL52,EL523,09020104,Τοπική Κοινότητα Βαφιοχωρίου,687,87.05441318,2019,EL_09020104,official,TRUE
EL_09020105,22.66766370783192,41.138375506155214,EL,EL52,EL523,09020105,Τοπική Κοινότητα Ειρηνικού,63,9.42211778,2019,EL_09020105,official,TRUE
EL_09020106,22.57426477113445,41.09572048470763,EL,EL52,EL523,09020106,Τοπική Κοινότητα Ευζώνων,919,55.67996398,2019,EL_09020106,official,TRUE
EL_09020107,22.66589713380073,41.16576080081666,EL,EL52,EL523,09020107,Τοπική Κοινότητα Κορώνας,44,11.21113669,2019,EL_09020107,official,TRUE
EL_09020108,22.56994937087908,40.995452875495154,EL,EL52,EL523,09020108,Τοπική Κοινότητα Λιμνοτόπου,280,35.81143731,2019,EL_09020108,official,TRUE
EL_09020109,22.569227142802472,41.06871826159166,EL,EL52,EL523,09020109,Τοπική Κοινότητα Μικρού Δάσους,400,15.12128224,2019,EL_09020109,official,TRUE
EL_09020110,22.575380636726216,41.04018846041845,EL,EL52,EL523,09020110,Τοπική Κοινότητα Πευκοδάσους,577,14.25660659,2019,EL_09020110,official,TRUE
EL_09020111,22.624736917961666,41.106043439091025,EL,EL52,EL523,09020111,Τοπική Κοινότητα Ποντοηρακλείας,700,15.93752909,2019,EL_09020111,official,TRUE
EL_09020201,22.54013420271411,40.986008588733334,EL,EL52,EL523,09020201,Δημοτική Κοινότητα Αξιουπόλεως,3049,70.61031052,2019,EL_09020201,official,TRUE
EL_09020202,22.52363880272019,40.96162415601668,EL,EL52,EL523,09020202,Τοπική Κοινότητα Γοργόπης,872,15.81240591,2019,EL_09020202,official,TRUE
EL_09020203,22.503023266933436,41.11810609933687,EL,EL52,EL523,09020203,Τοπική Κοινότητα Ειδομένης,309,27.67047225,2019,EL_09020203,official,TRUE
EL_09020204,22.49876154797426,41.07773039009378,EL,EL52,EL523,09020204,Τοπική Κοινότητα Πλαγιών,224,13.89823689,2019,EL_09020204,official,TRUE
EL_09020205,22.568737625273087,40.935195086597005,EL,EL52,EL523,09020205,Τοπική Κοινότητα Ρυζιών,780,21.79314117,2019,EL_09020205,official,TRUE
EL_09020206,22.36314283321899,41.07642418797238,EL,EL52,EL523,09020206,Τοπική Κοινότητα Σκρα,234,95.55205233,2019,EL_09020206,official,TRUE
EL_09020207,22.475627074227894,41.08049699024896,EL,EL52,EL523,09020207,Τοπική Κοινότητα Φανού,151,39.76550513,2019,EL_09020207,official,TRUE
EL_09020301,22.44944446738139,40.94686987233879,EL,EL52,EL523,09020301,Δημοτική Κοινότητα Γουμένισσας,3609,30.32789075,2019,EL_09020301,official,TRUE
EL_09020302,22.4131084576318,40.95145002209574,EL,EL52,EL523,09020302,Τοπική Κοινότητα Γρίβας,770,21.52823019,2019,EL_09020302,official,TRUE
EL_09020303,22.4205420857895,40.987041956556965,EL,EL52,EL523,09020303,Τοπική Κοινότητα Κάρπης,369,59.97622313,2019,EL_09020303,official,TRUE
EL_09020304,22.384992264597322,40.98102119633494,EL,EL52,EL523,09020304,Τοπική Κοινότητα Καστανερής,180,28.89448164,2019,EL_09020304,official,TRUE
EL_09020305,22.40588559017904,40.92310849599781,EL,EL52,EL523,09020305,Τοπική Κοινότητα Πενταλόφου,324,41.68600407,2019,EL_09020305,official,TRUE
EL_09020306,22.4969946255204,40.94997718299163,EL,EL52,EL523,09020306,Τοπική Κοινότητα Στάθη,398,8.81240377,2019,EL_09020306,official,TRUE
EL_09020307,22.467538862118126,40.899001182076816,EL,EL52,EL523,09020307,Τοπική Κοινότητα Φιλυρίας,480,19.60005844,2019,EL_09020307,official,TRUE
EL_09020401,22.554097938744732,40.89708212046556,EL,EL52,EL523,09020401,Τοπική Κοινότητα Ευρωπού,1734,25.93640444,2019,EL_09020401,official,TRUE
EL_09020402,22.585794324347937,40.865603309120004,EL,EL52,EL523,09020402,Τοπική Κοινότητα Αγίου Πέτρου,1505,21.47048335,2019,EL_09020402,official,TRUE
EL_09020403,22.579168281573192,40.88220179738523,EL,EL52,EL523,09020403,Τοπική Κοινότητα Μεσιάς,226,8.68451947,2019,EL_09020403,official,TRUE
EL_09020404,22.5121295955081,40.87501861740045,EL,EL52,EL523,09020404,Τοπική Κοινότητα Πολυπέτρου,425,11.46431021,2019,EL_09020404,official,TRUE
EL_09020405,22.542147068296288,40.93518969202525,EL,EL52,EL523,09020405,Τοπική Κοινότητα Τούμπας,628,13.70301539,2019,EL_09020405,official,TRUE
EL_09020501,22.29146699445285,41.003285799293984,EL,EL52,EL523,09020501,Τοπική Κοινότητα Λιβαδίων,404,31.90567669,2019,EL_09020501,official,TRUE
EL_10010101,22.04804325037087,40.802042407023905,EL,EL52,EL524,10010101,Δημοτική Κοινότητα Εδέσσης,19036,39.40628762,2019,EL_10010101,official,TRUE
EL_10010102,22.00113769894172,40.80562973963153,EL,EL52,EL524,10010102,Τοπική Κοινότητα Άγρα,796,24.67291098,2019,EL_10010102,official,TRUE
EL_10010103,21.916634506721653,40.802092590272785,EL,EL52,EL524,10010103,Τοπική Κοινότητα Βρυτών,451,19.25952534,2019,EL_10010103,official,TRUE
EL_10010104,21.965788571008662,40.874220674604324,EL,EL52,EL524,10010104,Τοπική Κοινότητα Καρυδιάς,860,54.39650835,2019,EL_10010104,official,TRUE
EL_10010105,22.024785127207135,40.79126041008407,EL,EL52,EL524,10010105,Τοπική Κοινότητα Μεσημερίου,765,20.96714388,2019,EL_10010105,official,TRUE
EL_10010106,21.932189288542254,40.819624754530615,EL,EL52,EL524,10010106,Τοπική Κοινότητα Νησίου,382,18.0776453,2019,EL_10010106,official,TRUE
EL_10010107,22.0498744263866,40.76250226050172,EL,EL52,EL524,10010107,Τοπική Κοινότητα Πλατάνης,401,10.99966337,2019,EL_10010107,official,TRUE
EL_10010108,22.08857539579284,40.78222568595842,EL,EL52,EL524,10010108,Τοπική Κοινότητα Ριζαρίου,1132,12.49175986,2019,EL_10010108,official,TRUE
EL_10010109,22.042464253855044,40.850567658853244,EL,EL52,EL524,10010109,Τοπική Κοινότητα Σωτήρας,512,68.2286505,2019,EL_10010109,official,TRUE
EL_10010110,22.014299771469474,40.75230825922181,EL,EL52,EL524,10010110,Τοπική Κοινότητα Φλαμουριάς,844,53.40418069,2019,EL_10010110,official,TRUE
EL_10010201,21.832445707321355,40.797734704754184,EL,EL52,EL524,10010201,Τοπική Κοινότητα Αρνίσσης,1557,63.38989633,2019,EL_10010201,official,TRUE
EL_10010202,21.77068689421357,40.838613639640464,EL,EL52,EL524,10010202,Τοπική Κοινότητα Αγίου Αθανασίου,518,57.97212819,2019,EL_10010202,official,TRUE
EL_10010203,21.898259693059284,40.704604581870825,EL,EL52,EL524,10010203,Τοπική Κοινότητα Γραμματικού,194,59.96965452,2019,EL_10010203,official,TRUE
EL_10010204,21.836408878834835,40.85158041149965,EL,EL52,EL524,10010204,Τοπική Κοινότητα Παναγίτσας,985,62.45456182,2019,EL_10010204,official,TRUE
EL_10010205,21.821101289342984,40.73955556265635,EL,EL52,EL524,10010205,Τοπική Κοινότητα Περαίας,381,45.36295214,2019,EL_10010205,official,TRUE
EL_10020101,22.058715006882192,40.97429134100911,EL,EL52,EL524,10020101,Δημοτική Κοινότητα Αριδαίας,7057,15.23222551,2019,EL_10020101,official,TRUE
EL_10020102,22.08768481260075,40.92877263677214,EL,EL52,EL524,10020102,Τοπική Κοινότητα Αλώρου,417,14.73512881,2019,EL_10020102,official,TRUE
EL_10020103,22.05612397063536,40.89467458120544,EL,EL52,EL524,10020103,Τοπική Κοινότητα Αψάλου,1121,27.86870978,2019,EL_10020103,official,TRUE
EL_10020104,22.082833331235108,41.0288368899624,EL,EL52,EL524,10020104,Τοπική Κοινότητα Βορεινού,1161,106.17097277,2019,EL_10020104,official,TRUE
EL_10020105,22.044148521586536,41.02829153077056,EL,EL52,EL524,10020105,Τοπική Κοινότητα Γαρεφείου,663,26.85305226,2019,EL_10020105,official,TRUE
EL_10020106,22.062126287191507,40.9950534744111,EL,EL52,EL524,10020106,Τοπική Κοινότητα Δωροθέας,596,8.64636265,2019,EL_10020106,official,TRUE
EL_10020107,21.949293743222704,40.972381251675145,EL,EL52,EL524,10020107,Τοπική Κοινότητα Λουτρακίου,1146,57.50826729,2019,EL_10020107,official,TRUE
EL_10020108,21.98639181391851,40.98634164063124,EL,EL52,EL524,10020108,Τοπική Κοινότητα Λυκοστόμου,403,13.02885281,2019,EL_10020108,official,TRUE
EL_10020109,21.97322603041235,40.940524226251895,EL,EL52,EL524,10020109,Τοπική Κοινότητα Μεγαπλατάνου,542,15.62322118,2019,EL_10020109,official,TRUE
EL_10020110,22.082877560779014,40.92872888185491,EL,EL52,EL524,10020110,Τοπική Κοινότητα Ξιφιανής,767,8.05254012,2019,EL_10020110,official,TRUE
EL_10020111,21.924620098977933,40.95265739831759,EL,EL52,EL524,10020111,Τοπική Κοινότητα Όρμης,641,50.16831517,2019,EL_10020111,official,TRUE
EL_10020112,22.020690191354,40.97194257687992,EL,EL52,EL524,10020112,Τοπική Κοινότητα Πιπεριών,558,11.04578904,2019,EL_10020112,official,TRUE
EL_10020113,22.013938510579003,40.92800881377092,EL,EL52,EL524,10020113,Τοπική Κοινότητα Πολυκαρπίου,1049,18.59898298,2019,EL_10020113,official,TRUE
EL_10020114,22.007613443523205,41.0240563747376,EL,EL52,EL524,10020114,Τοπική Κοινότητα Προμάχων,1740,88.3043114,2019,EL_10020114,official,TRUE
EL_10020115,21.948349232121576,40.917837145674795,EL,EL52,EL524,10020115,Τοπική Κοινότητα Σαρακηνών,413,77.20906119,2019,EL_10020115,official,TRUE
EL_10020116,22.033266526104036,40.99878360810944,EL,EL52,EL524,10020116,Τοπική Κοινότητα Σωσάνδρας,1078,11.12037119,2019,EL_10020116,official,TRUE
EL_10020117,22.043650814736747,40.952651725808145,EL,EL52,EL524,10020117,Τοπική Κοινότητα Τσάκων,961,14.51343559,2019,EL_10020117,official,TRUE
EL_10020201,22.130176006938818,40.97763326842806,EL,EL52,EL524,10020201,Τοπική Κοινότητα Εξαπλατάνου,1292,16.55199478,2019,EL_10020201,official,TRUE
EL_10020202,22.282865750987458,41.082323854221805,EL,EL52,EL524,10020202,Τοπική Κοινότητα Αρχαγγέλου,623,66.10486049,2019,EL_10020202,official,TRUE
EL_10020203,22.196185978153295,40.950885470252125,EL,EL52,EL524,10020203,Τοπική Κοινότητα Θεοδωρακείου,583,72.06284336,2019,EL_10020203,official,TRUE
EL_10020204,22.158137648781782,41.05571470684456,EL,EL52,EL524,10020204,Τοπική Κοινότητα Θηριοπέτρας,334,19.11092854,2019,EL_10020204,official,TRUE
EL_10020205,22.17258482304552,41.008917963465876,EL,EL52,EL524,10020205,Τοπική Κοινότητα Ίδας,639,6.68071772,2019,EL_10020205,official,TRUE
EL_10020206,22.170776806764064,40.99997894234353,EL,EL52,EL524,10020206,Τοπική Κοινότητα Κωνσταντίας,570,15.47029383,2019,EL_10020206,official,TRUE
