gisco_id,longitude,latitude,country,nuts_2,nuts_3,lau_id,lau_name,population,area_km2,year,fid,concordance,pop_weighted
HR_00019,18.739756136422862,45.22888630384611,HR,HR04,HR04C,00019,Andrijaševci,4075,39.61994361,2019,HR_00019,official,TRUE
HR_00027,18.664729319748616,45.48538418394475,HR,HR04,HR04B,00027,Antunovac,3703,56.73944139,2019,HR_00027,official,TRUE
HR_00035,18.538005853618824,45.11713774901141,HR,HR04,HR04C,00035,Babina Greda,3572,79.46410242,2019,HR_00035,official,TRUE
HR_00043,14.5581383865936,45.30678199254999,HR,HR03,HR031,00043,Bakar,8279,125.43823485,2019,HR_00043,official,TRUE
HR_00051,13.783885468580753,45.0444133593927,HR,HR03,HR036,00051,Bale - Valle,1127,82.01719498,2019,HR_00051,official,TRUE
HR_00060,13.993968173313617,45.06441526188135,HR,HR03,HR036,00060,Barban,2721,90.40928281,2019,HR_00060,official,TRUE
HR_00078,15.543920340636713,45.416220362787534,HR,HR04,HR04D,00078,Barilović,2990,175.62305216,2019,HR_00078,official,TRUE
HR_00086,14.744523947037928,44.97270246862192,HR,HR03,HR031,00086,Baška,1674,98.91160971,2019,HR_00086,official,TRUE
HR_00094,16.95569321471928,43.35488934204992,HR,HR03,HR035,00094,Baška Voda,2775,25.66424261,2019,HR_00094,official,TRUE
HR_00108,17.86508658876237,45.09436277719924,HR,HR04,HR04A,00108,Bebrina,3252,101.16175142,2019,HR_00108,official,TRUE
HR_00116,15.992467854099187,46.049107747428224,HR,HR04,HR043,00116,Bedekovčina,8041,51.43401848,2019,HR_00116,official,TRUE
HR_00124,15.968547988103941,46.24668633064424,HR,HR04,HR044,00124,Bednja,3992,76.15746515,2019,HR_00124,official,TRUE
HR_00132,18.605642087476195,45.77088775946059,HR,HR04,HR04B,00132,Beli Manastir,10068,62.31365203,2019,HR_00132,official,TRUE
HR_00159,16.52525397175063,46.40997939431146,HR,HR04,HR046,00159,Belica,3176,27.70930261,2019,HR_00159,official,TRUE
HR_00167,18.3981197568049,45.685022434678665,HR,HR04,HR04B,00167,Belišće,10825,70.1461535,2019,HR_00167,official,TRUE
HR_00175,15.611803523168259,44.03163095090495,HR,HR03,HR033,00175,Benkovac,11026,514.48504958,2019,HR_00175,official,TRUE
HR_00183,16.834162917850836,45.7198600165379,HR,HR04,HR047,00183,Berek,1443,110.97697,2019,HR_00183,official,TRUE
HR_00191,16.285170731587662,46.25097631747413,HR,HR04,HR044,00191,Beretinec,2176,12.34316771,2019,HR_00191,official,TRUE
HR_00205,15.286751101775446,44.07040225666458,HR,HR03,HR033,00205,Bibinje,3985,13.03493488,2019,HR_00205,official,TRUE
HR_00213,18.748778067791942,45.60797849194189,HR,HR04,HR04B,00213,Bilje,5642,242.0887221,2019,HR_00213,official,TRUE
HR_00221,15.453828644221229,43.94146877427926,HR,HR03,HR033,00221,Biograd Na Moru,5569,37.14984956,2019,HR_00221,official,TRUE
HR_00230,18.452247118930213,45.5802400931257,HR,HR04,HR04B,00230,Bizovac,4507,100.55404582,2019,HR_00230,official,TRUE
HR_00248,16.844664443006877,45.90122469754972,HR,HR04,HR047,00248,Bjelovar,40276,187.88187517,2019,HR_00248,official,TRUE
HR_00256,16.792030902309133,42.93774866317794,HR,HR03,HR037,00256,Blato,3593,66.36271389,2019,HR_00256,official,TRUE
HR_00264,18.942472638680062,45.30998948574908,HR,HR04,HR04C,00264,Bogdanovci,1960,51.58544173,2019,HR_00264,official,TRUE
HR_00272,16.65489792031929,43.26358162805803,HR,HR03,HR035,00272,Bol,1630,23.33087445,2019,HR_00272,official,TRUE
HR_00299,18.974398386936738,45.40444181734525,HR,HR04,HR04C,00299,Borovo,5056,28.18432698,2019,HR_00299,official,TRUE
HR_00302,15.270375505184159,45.43006800545772,HR,HR04,HR04D,00302,Bosiljevo,1284,111.41132219,2019,HR_00302,official,TRUE
HR_00329,18.755878615920654,45.04899798653621,HR,HR04,HR04C,00329,Bošnjaci,3901,94.94854142,2019,HR_00329,official,TRUE
HR_00337,16.304256597918336,45.82724508538506,HR,HR04,HR042,00337,Brckovljani,6837,69.84659766,2019,HR_00337,official,TRUE
HR_00345,15.741591741118588,45.873918660869265,HR,HR04,HR042,00345,Brdovec,11134,37.00518851,2019,HR_00345,official,TRUE
HR_00353,17.574041177668832,45.34149267119349,HR,HR04,HR049,00353,Brestovac,3726,279.5029419,2019,HR_00353,official,TRUE
HR_00361,16.29061245912724,46.05061686128263,HR,HR04,HR044,00361,Breznica,2200,33.52226794,2019,HR_00361,official,TRUE
HR_00370,15.144946800492697,45.006825195796985,HR,HR03,HR032,00370,Brinje,3256,328.63230786,2019,HR_00370,official,TRUE
HR_00388,14.974183172690998,45.462005834589604,HR,HR03,HR031,00388,Brod Moravice,866,61.89439077,2019,HR_00388,official,TRUE
HR_00396,17.822976294556412,45.170450833158185,HR,HR04,HR04A,00396,Brodski Stupnik,3036,57.88326893,2019,HR_00396,official,TRUE
HR_00400,13.626129382076009,45.37282516663497,HR,HR03,HR036,00400,Brtonigla - Verteneglio,1626,32.8937565,2019,HR_00400,official,TRUE
HR_00418,16.207066328612694,46.14343472957928,HR,HR04,HR043,00418,Budinščina,2503,55.04546148,2019,HR_00418,official,TRUE
HR_00426,13.656343857817077,45.411555805256434,HR,HR03,HR036,00426,Buje - Buie,5182,98.86350197,2019,HR_00426,official,TRUE
HR_00434,13.966576468049047,45.40756801907429,HR,HR03,HR036,00434,Buzet,6133,168.92886264,2019,HR_00434,official,TRUE
HR_00442,18.683013183949324,45.18763986685344,HR,HR04,HR04C,00442,Cerna,4595,69.50219186,2019,HR_00442,official,TRUE
HR_00469,17.39352388234721,45.30312638199393,HR,HR04,HR04A,00469,Cernik,3640,127.89506541,2019,HR_00469,official,TRUE
HR_00477,14.020213105803409,45.278666005677486,HR,HR03,HR036,00477,Cerovlje,1677,105.57574501,2019,HR_00477,official,TRUE
HR_00485,16.131267873372376,46.37916988673329,HR,HR04,HR044,00485,Cestica,5806,46.09560546,2019,HR_00485,official,TRUE
HR_00493,15.778299638475156,45.18881856594948,HR,HR04,HR04D,00493,Cetingrad,2027,136.84103167,2019,HR_00493,official,TRUE
HR_00507,16.937758716715575,43.53556169465473,HR,HR03,HR035,00507,Cista Provo,2335,108.10955712,2019,HR_00507,official,TRUE
HR_00515,16.40949766632298,43.94361458718749,HR,HR03,HR034,00515,Civljane,239,82.91676716,2019,HR_00515,official,TRUE
HR_00523,14.411399807268491,44.95596750622967,HR,HR03,HR031,00523,Cres,2879,291.31084572,2019,HR_00523,official,TRUE
HR_00531,14.697244710609612,45.17544002359084,HR,HR03,HR031,00531,Crikvenica,11122,28.50046505,2019,HR_00531,official,TRUE
HR_00540,17.95931323525222,45.667753142187024,HR,HR04,HR048,00540,Crnac,1456,79.40045033,2019,HR_00540,official,TRUE
HR_00558,14.61821114316521,45.57362871301534,HR,HR03,HR031,00558,Čabar,3770,278.83482739,2019,HR_00558,official,TRUE
HR_00566,17.869182688005065,45.60128362251363,HR,HR04,HR048,00566,Čačinci,2802,144.8742954,2019,HR_00566,official,TRUE
HR_00574,17.854257528591127,45.74679443527678,HR,HR04,HR048,00574,Čađavica,2009,91.22735215,2019,HR_00574,official,TRUE
HR_00582,18.00168275909275,45.361532144381094,HR,HR04,HR049,00582,Čaglin,2723,178.17487207,2019,HR_00582,official,TRUE
HR_00604,16.440574801897434,46.38570299508308,HR,HR04,HR046,00604,Čakovec,27104,76.96111906,2019,HR_00604,official,TRUE
HR_00612,14.487782932699231,45.35434657816963,HR,HR03,HR031,00612,Čavle,7220,84.66952078,2019,HR_00612,official,TRUE
HR_00639,16.616731662870357,45.74868309689868,HR,HR04,HR047,00639,Čazma,8077,239.96886076,2019,HR_00639,official,TRUE
HR_00647,18.691683667196195,45.69984813970004,HR,HR04,HR04B,00647,Čeminac,2909,61.40415684,2019,HR_00647,official,TRUE
HR_00655,18.57267233065873,45.52569192045622,HR,HR04,HR04B,00655,Čepin,11599,120.63457722,2019,HR_00655,official,TRUE
HR_00663,18.695181147117236,45.62981610520471,HR,HR04,HR04B,00663,Darda,6908,94.0826724,2019,HR_00663,official,TRUE
HR_00671,17.224722658493686,45.59169102484399,HR,HR04,HR047,00671,Daruvar,11633,64.68562343,2019,HR_00671,official,TRUE
HR_00680,17.514586321947842,45.115739094665834,HR,HR04,HR04A,00680,Davor,3015,42.70831916,2019,HR_00680,official,TRUE
HR_00698,14.801925961586242,45.39798680168405,HR,HR03,HR031,00698,Delnice,5952,230.86834029,2019,HR_00698,official,TRUE
HR_00701,15.672614086202053,46.137663739540045,HR,HR04,HR043,00701,Desinić,2933,44.97493715,2019,HR_00701,official,TRUE
HR_00710,17.103370990068402,45.56428485842896,HR,HR04,HR047,00710,Dežanovac,2715,102.67518775,2019,HR_00710,official,TRUE
HR_00728,16.601557899597886,43.634384996897204,HR,HR03,HR035,00728,Dicmo,2802,69.06918653,2019,HR_00728,official,TRUE
HR_00744,14.620012242625481,45.13291941181776,HR,HR03,HR031,00744,Dobrinj,2078,55.07354206,2019,HR_00744,official,TRUE
HR_00752,16.594975599056816,46.42938856849666,HR,HR04,HR046,00752,Domašinec,2251,35.37186515,2019,HR_00752,official,TRUE
HR_00779,16.92859974905742,43.374063924186146,HR,HR03,HR035,00779,Brela,1703,26.80344562,2019,HR_00779,official,TRUE
HR_00787,16.81047609186308,46.31509494818129,HR,HR04,HR046,00787,Donja Dubrava,1920,19.01480413,2019,HR_00787,official,TRUE
HR_00795,15.970715070359349,45.98094070563325,HR,HR04,HR043,00795,Donja Stubica,5680,43.55147363,2019,HR_00795,official,TRUE
HR_00809,16.099538711782312,46.301188956594025,HR,HR04,HR044,00809,Donja Voća,2443,35.98492217,2019,HR_00809,official,TRUE
HR_00817,18.29158877492459,45.18684542907827,HR,HR04,HR04A,00817,Donji Andrijevci,3709,56.97373781,2019,HR_00817,official,TRUE
HR_00825,16.63794098628281,46.38021594276266,HR,HR04,HR046,00825,Donji Kraljevec,4659,36.29405384,2019,HR_00825,official,TRUE
HR_00833,16.458307238951633,45.27058203903598,HR,HR04,HR04E,00833,Donji Kukuruzari,1634,113.92142761,2019,HR_00833,official,TRUE
HR_00841,15.962149456583257,44.556959148458354,HR,HR03,HR032,00841,Donji Lapac,2113,350.78198731,2019,HR_00841,official,TRUE
HR_00850,16.533132868050938,46.264773779085395,HR,HR04,HR044,00850,Martijanec,3843,49.05522194,2019,HR_00850,official,TRUE
HR_00868,18.17237413432015,45.75529174742415,HR,HR04,HR04B,00868,Donji Miholjac,9491,134.38476672,2019,HR_00868,official,TRUE
HR_00876,16.48935323180283,43.693501644349944,HR,HR03,HR035,00876,Muć,3882,222.57427516,2019,HR_00876,official,TRUE
HR_00884,17.150140799174483,43.46793471763063,HR,HR03,HR035,00884,Proložac,3802,54.71242952,2019,HR_00884,official,TRUE
HR_00892,16.786403770457696,46.32982399623941,HR,HR04,HR046,00892,Donji Vidovec,1399,13.81131867,2019,HR_00892,official,TRUE
HR_00906,15.59872884351764,45.5894988410941,HR,HR04,HR04D,00906,Draganić,2741,72.56217124,2019,HR_00906,official,TRUE
HR_00914,18.781112117295507,45.854599719325286,HR,HR04,HR04B,00914,Draž,2767,119.5811329,2019,HR_00914,official,TRUE
HR_00922,18.885341506270553,44.91657319120651,HR,HR04,HR04C,00922,Drenovci,5174,200.17182354,2019,HR_00922,official,TRUE
HR_00949,18.275682052981452,45.392063291183554,HR,HR04,HR04B,00949,Drenje,2700,106.37608285,2019,HR_00949,official,TRUE
HR_00957,16.155302018221676,43.86120339516456,HR,HR03,HR034,00957,Drniš,7498,351.81059377,2019,HR_00957,official,TRUE
HR_00965,16.907643881655293,46.217660738427575,HR,HR04,HR045,00965,Drnje,1863,29.58298251,2019,HR_00965,official,TRUE
HR_00973,16.537909212500345,45.83795017784408,HR,HR04,HR042,00973,Dubrava,5245,115.67812445,2019,HR_00973,official,TRUE
HR_00981,18.09414083227173,42.660230272357325,HR,HR03,HR037,00981,Dubrovnik,42615,142.50515573,2019,HR_00981,official,TRUE
HR_00990,15.498209113253175,45.44787438298793,HR,HR04,HR04D,00990,Duga Resa,11180,60.92228259,2019,HR_00990,official,TRUE
HR_01007,16.644961774383617,43.44595356397303,HR,HR03,HR035,01007,Dugi Rat,7092,11.00133445,2019,HR_01007,official,TRUE
HR_01015,16.238900175349396,45.80541119164568,HR,HR04,HR042,01015,Dugo Selo,17466,54.2911491,2019,HR_01015,official,TRUE
HR_01023,16.37520522554139,45.056122345132756,HR,HR04,HR04E,01023,Dvor,5570,505.75292884,2019,HR_01023,official,TRUE
HR_01031,18.40988212909624,45.30929311245859,HR,HR04,HR04B,01031,Đakovo,27745,168.88769356,2019,HR_01031,official,TRUE
HR_01040,16.857199173701478,46.25136730384356,HR,HR04,HR045,01040,Đelekovec,1533,26.22848917,2019,HR_01040,official,TRUE
HR_01058,17.385802083683753,45.65733397231743,HR,HR04,HR047,01058,Đulovac,3245,186.95828391,2019,HR_01058,official,TRUE
HR_01066,18.052762045168205,45.54794779582894,HR,HR04,HR04B,01066,Đurđenovac,6750,116.35175714,2019,HR_01066,official,TRUE
HR_01074,17.069233971463934,46.038020272137416,HR,HR04,HR045,01074,Đurđevac,8264,157.78984024,2019,HR_01074,official,TRUE
HR_01082,15.8268856440233,46.20085341623343,HR,HR04,HR043,01082,Đurmanec,4235,57.7648768,2019,HR_01082,official,TRUE
HR_01104,18.95485657060832,45.49781497749069,HR,HR04,HR04B,01104,Erdut,7308,154.95677345,2019,HR_01104,official,TRUE
HR_01112,18.676553525830542,45.43504168923781,HR,HR04,HR04B,01112,Ernestinovo,2189,32.00571289,2019,HR_01112,official,TRUE
HR_01139,16.053566029562898,44.075694224307576,HR,HR03,HR034,01139,Ervenik,1105,212.84953682,2019,HR_01139,official,TRUE
HR_01147,16.656239041624318,45.88894237603436,HR,HR04,HR042,01147,Farkaševac,1937,73.79196483,2019,HR_01147,official,TRUE
HR_01155,17.19382403005558,46.059432368852605,HR,HR04,HR045,01155,Ferdinandovac,1750,49.61869078,2019,HR_01155,official,TRUE
HR_01163,17.978599479623416,45.52424554071524,HR,HR04,HR04B,01163,Feričanci,2134,45.78376205,2019,HR_01163,official,TRUE
HR_01171,14.719571573554823,45.30158435905591,HR,HR03,HR031,01171,Fužine,1592,85.78433029,2019,HR_01171,official,TRUE
HR_01180,18.16831081053792,45.18233400931766,HR,HR04,HR04A,01180,Garčin,4806,88.27854368,2019,HR_01180,official,TRUE
HR_01198,16.945446191834293,45.58042723685823,HR,HR04,HR047,01198,Garešnica,10472,226.38675261,2019,HR_01198,official,TRUE
HR_01201,15.385425539610278,45.35636138014532,HR,HR04,HR04D,01201,Generalski Stol,2642,99.99165971,2019,HR_01201,official,TRUE
HR_01210,16.09054334881201,45.336658357770375,HR,HR04,HR04E,01210,Glina,9283,544.28778154,2019,HR_01210,official,TRUE
HR_01228,17.045210093757625,46.196623856238624,HR,HR04,HR045,01228,Gola,2431,76.19426334,2019,HR_01228,official,TRUE
HR_01236,16.6769293709707,46.38329862932236,HR,HR04,HR046,01236,Goričan,2823,21.53447786,2019,HR_01236,official,TRUE
HR_01244,18.385926031296567,45.39731286321436,HR,HR04,HR04B,01244,Gorjani,1591,50.90120763,2019,HR_01244,official,TRUE
HR_01252,16.030192386926945,45.97957964668143,HR,HR04,HR043,01252,Gornja Stubica,5284,48.67573913,2019,HR_01252,official,TRUE
HR_01279,17.231068583212423,45.25694843902853,HR,HR04,HR04A,01279,Gornji Bogićevci,1975,41.85544406,2019,HR_01279,official,TRUE
HR_01295,16.371809101845333,46.25186610066553,HR,HR04,HR044,01295,Gornji Kneginec,5349,22.21263138,2019,HR_01295,official,TRUE
HR_01309,15.379364983301018,44.55422334053208,HR,HR03,HR032,01309,Gospić,12745,967.44569114,2019,HR_01309,official,TRUE
HR_01317,15.866034096424308,44.3043918576433,HR,HR03,HR033,01317,Gračac,4690,958.37425855,2019,HR_01317,official,TRUE
HR_01325,13.986477270006725,45.202109534190726,HR,HR03,HR036,01325,Gračišće,1419,60.02335242,2019,HR_01325,official,TRUE
HR_01333,15.972714413235295,45.80306116556634,HR,HR04,HR041,01333,Grad Zagreb,790017,641.37191486,2019,HR_01333,official,TRUE
HR_01341,17.338780022249715,43.11065605196785,HR,HR03,HR035,01341,Gradac,3261,72.11222435,2019,HR_01341,official,TRUE
HR_01350,16.500539429170516,45.91770146202702,HR,HR04,HR042,01350,Gradec,3681,89.0027035,2019,HR_01350,official,TRUE
HR_01368,17.533446940899328,45.866001292749154,HR,HR04,HR048,01368,Gradina,3850,120.33024113,2019,HR_01368,official,TRUE
HR_01376,18.713011608250017,45.14704763022182,HR,HR04,HR04C,01376,Gradište,2773,57.59818722,2019,HR_01376,official,TRUE
HR_01384,13.738938743797934,45.3819045122397,HR,HR03,HR036,01384,Grožnjan - Grisignana,736,66.99768504,2019,HR_01384,official,TRUE
HR_01392,17.164685291123856,45.69600674826096,HR,HR04,HR047,01392,Grubišno Polje,6478,265.24415692,2019,HR_01392,official,TRUE
HR_01406,18.48959341852723,45.160505690232206,HR,HR04,HR04A,01406,Gundinci,2027,58.45723288,2019,HR_01406,official,TRUE
HR_01414,18.83076094176713,44.883649582105654,HR,HR04,HR04C,01414,Gunja,3732,31.09119429,2019,HR_01414,official,TRUE
HR_01449,17.009793573277175,45.65665320628189,HR,HR04,HR047,01449,Hercegovac,2383,50.61765651,2019,HR_01449,official,TRUE
HR_01457,16.964705541200928,46.15349792580475,HR,HR04,HR045,01457,Hlebine,1304,30.75034026,2019,HR_01457,official,TRUE
HR_01465,16.22303895693778,46.106991918201054,HR,HR04,HR043,01465,Hrašćina,1617,27.27382308,2019,HR_01465,official,TRUE
HR_01481,16.612645995982813,43.76300115175862,HR,HR03,HR035,01481,Hrvace,3617,207.83030484,2019,HR_01481,official,TRUE
HR_01490,16.793179464088325,45.19387404404174,HR,HR04,HR04E,01490,Hrvatska Dubica,2089,129.58661676,2019,HR_01490,official,TRUE
HR_01503,16.543473402311438,45.22760406018755,HR,HR04,HR04E,01503,Hrvatska Kostajnica,2756,52.51481073,2019,HR_01503,official,TRUE
HR_01511,16.274521739327643,46.10730279076928,HR,HR04,HR044,01511,Breznički Hum,1356,26.04962454,2019,HR_01511,official,TRUE
HR_01520,15.699858985385752,46.213798192002564,HR,HR04,HR043,01520,Hum Na Sutli,5060,36.93292288,2019,HR_01520,official,TRUE
HR_01538,16.450516042308944,43.16921795374891,HR,HR03,HR035,01538,Hvar,4251,75.41930685,2019,HR_01538,official,TRUE
HR_01546,19.36603479303602,45.21885910639138,HR,HR04,HR04C,01546,Ilok,6767,117.18566898,2019,HR_01546,official,TRUE
HR_01554,17.217691480437566,43.44443743640852,HR,HR03,HR035,01554,Imotski,10764,58.28612655,2019,HR_01554,official,TRUE
HR_01562,16.130296335725156,46.22425902652887,HR,HR04,HR044,01562,Ivanec,13758,95.95398762,2019,HR_01562,official,TRUE
HR_01589,16.39630739002402,45.70768036999113,HR,HR04,HR042,01589,Ivanić-Grad,14548,173.50597793,2019,HR_01589,official,TRUE
HR_01597,18.67996826671016,45.28126963648877,HR,HR04,HR04C,01597,Ivankovo,8006,103.60794561,2019,HR_01597,official,TRUE
HR_01619,16.820353523997625,45.77641927754831,HR,HR04,HR047,01619,Ivanska,2911,132.14813287,2019,HR_01619,official,TRUE
HR_01635,15.859989070637901,45.94321074120852,HR,HR04,HR042,01635,Jakovlje,3930,35.56993415,2019,HR_01635,official,TRUE
HR_01643,17.76454022978399,45.35888534322424,HR,HR04,HR049,01643,Jakšić,4058,43.41268399,2019,HR_01643,official,TRUE
HR_01651,16.463457759786284,46.257535381625,HR,HR04,HR044,01651,Jalžabet,3615,37.99479975,2019,HR_01651,official,TRUE
HR_01660,18.732754359251846,45.31827032522306,HR,HR04,HR04C,01660,Jarmina,2458,12.92911586,2019,HR_01660,official,TRUE
HR_01678,15.571819582718708,44.221869373074995,HR,HR03,HR033,01678,Jasenice,1398,121.63221839,2019,HR_01678,official,TRUE
HR_01686,16.89582335620698,45.27296785167297,HR,HR04,HR04E,01686,Jasenovac,1997,163.96010577,2019,HR_01686,official,TRUE
HR_01694,15.650637744901807,45.671938649433656,HR,HR04,HR042,01694,Jastrebarsko,15866,226.41178285,2019,HR_01694,official,TRUE
HR_01708,14.463278438449159,45.38832224635328,HR,HR03,HR031,01708,Jelenje,5344,109.03890979,2019,HR_01708,official,TRUE
HR_01716,16.686092927316622,43.16209216690675,HR,HR03,HR035,01716,Jelsa,3582,139.68641501,2019,HR_01716,official,TRUE
HR_01724,15.284659199237511,45.20545552174357,HR,HR04,HR04D,01724,Josipdol,3773,167.20215677,2019,HR_01724,official,TRUE
HR_01732,15.203873078861744,44.06185692327094,HR,HR03,HR033,01732,Kali,1638,9.44419454,2019,HR_01732,official,TRUE
HR_01759,13.8216649548797,45.11972281868839,HR,HR03,HR036,01759,Kanfanar,1543,59.83844831,2019,HR_01759,official,TRUE
HR_01767,16.845195449588605,45.991461945503694,HR,HR04,HR047,01767,Kapela,2984,104.35650258,2019,HR_01767,official,TRUE
HR_01775,17.725276261130094,45.432345663959275,HR,HR04,HR049,01775,Kaptol,3472,85.44575382,2019,HR_01775,official,TRUE
HR_01783,15.073812637358888,44.52753921703036,HR,HR03,HR032,01783,Karlobag,917,280.81842662,2019,HR_01783,official,TRUE
HR_01791,15.548141179984182,45.48693127378938,HR,HR04,HR04D,01791,Karlovac,55705,401.12377996,2019,HR_01791,official,TRUE
HR_01805,14.351712498203586,45.3668903403299,HR,HR03,HR031,01805,Kastav,10440,11.41241464,2019,HR_01805,official,TRUE
HR_01813,16.371608781759473,43.55301437368629,HR,HR03,HR035,01813,Kaštela,38667,57.61246224,2019,HR_01813,official,TRUE
HR_01830,16.361183538310495,43.97698183355847,HR,HR03,HR034,01830,Kijevo,417,76.87155806,2019,HR_01830,official,TRUE
HR_01848,15.964590425292421,43.984558734828404,HR,HR03,HR034,01848,Kistanje,3481,242.99851517,2019,HR_01848,official,TRUE
HR_01856,18.108227640722493,45.12575468995549,HR,HR04,HR04A,01856,Klakar,2319,53.49351824,2019,HR_01856,official,TRUE
HR_01864,14.372587690377314,45.44383557337732,HR,HR03,HR031,01864,Klana,1975,93.91777232,2019,HR_01864,official,TRUE
HR_01872,15.742756366027542,46.041299868464,HR,HR04,HR043,01872,Klanjec,2915,25.6016563,2019,HR_01872,official,TRUE
HR_01899,16.082611286392435,46.26956913640259,HR,HR04,HR044,01899,Klenovnik,2022,25.74376768,2019,HR_01899,official,TRUE
HR_01902,15.745144127866913,45.69037464850467,HR,HR04,HR042,01902,Klinča Sela,5231,77.04428592,2019,HR_01902,official,TRUE
HR_01929,16.497989993490812,43.549179784951505,HR,HR03,HR035,01929,Klis,4801,149.08951782,2019,HR_01929,official,TRUE
HR_01937,16.41957540153517,45.740111377649576,HR,HR04,HR042,01937,Kloštar Ivanić,6091,77.49434381,2019,HR_01937,official,TRUE
HR_01945,17.14483898533262,45.97449668474368,HR,HR04,HR045,01945,Kloštar Podravski,3306,51.2743757,2019,HR_01945,official,TRUE
HR_01953,18.73499578589853,45.762712308601614,HR,HR04,HR04B,01953,Kneževi Vinogradi,4614,203.36733238,2019,HR_01953,official,TRUE
HR_01961,16.20161122407128,44.04374681238533,HR,HR03,HR034,01961,Knin,15407,355.10480199,2019,HR_01961,official,TRUE
HR_01970,16.095185442370138,43.04515246832223,HR,HR03,HR035,01970,Komiža,1526,48.22880612,2019,HR_01970,official,TRUE
HR_01988,18.270010257151558,42.561497809475476,HR,HR03,HR037,01988,Konavle,8577,210.02088934,2019,HR_01988,official,TRUE
HR_01996,17.153138229883115,45.6319265900066,HR,HR04,HR047,01996,Končanica,2360,84.00556741,2019,HR_01996,official,TRUE
HR_02003,16.18064306682098,46.05214310490526,HR,HR04,HR043,02003,Konjščina,3790,44.30787625,2019,HR_02003,official,TRUE
HR_02011,16.823943689267953,46.160970802851104,HR,HR04,HR045,02011,Koprivnica,30854,91.87022069,2019,HR_02011,official,TRUE
HR_02020,16.892779587339682,46.13097574771735,HR,HR04,HR045,02020,Koprivnički Bregi,2381,33.54392362,2019,HR_02020,official,TRUE
HR_02038,16.802945129919788,46.20218226577083,HR,HR04,HR045,02038,Koprivnički Ivanec,2121,33.0546919,2019,HR_02038,official,TRUE
HR_02046,17.128472842757652,42.95336732210018,HR,HR03,HR037,02046,Korčula,5663,112.16824877,2019,HR_02046,official,TRUE
HR_02054,18.27854331819214,45.54074659970239,HR,HR04,HR04B,02054,Koška,3980,122.56301636,2019,HR_02054,official,TRUE
HR_02062,16.815342710590894,46.35384880062358,HR,HR04,HR046,02062,Kotoriba,3224,26.47407841,2019,HR_02062,official,TRUE
HR_02089,15.734786081572402,45.991082768317796,HR,HR04,HR043,02089,Kraljevec Na Sutli,1727,26.74969144,2019,HR_02089,official,TRUE
HR_02097,14.579773786490556,45.26967661254586,HR,HR03,HR031,02097,Kraljevica,4618,17.57150798,2019,HR_02097,official,TRUE
HR_02119,15.872384791629425,46.159466652569364,HR,HR04,HR043,02119,Krapina,12480,47.72818676,2019,HR_02119,official,TRUE
HR_02127,15.836191832008925,46.08757477116008,HR,HR04,HR043,02127,Krapinske Toplice,5367,48.83098249,2019,HR_02127,official,TRUE
HR_02135,16.525603315249615,45.6579418508344,HR,HR04,HR042,02135,Križ,6963,117.81067121,2019,HR_02135,official,TRUE
HR_02143,16.543174215953165,46.02400664357579,HR,HR04,HR045,02143,Križevci,21122,264.23585952,2019,HR_02143,official,TRUE
HR_02151,14.56832365891796,45.03098066601156,HR,HR03,HR031,02151,Krk,6281,107.12433331,2019,HR_02151,official,TRUE
HR_02160,15.60310443618236,45.3360085738463,HR,HR04,HR04D,02160,Krnjak,1985,111.81782595,2019,HR_02160,official,TRUE
HR_02178,14.126570935017499,45.18237028436326,HR,HR03,HR036,02178,Kršan,2951,123.27165039,2019,HR_02178,official,TRUE
HR_02194,17.5941200880208,43.02817535583645,HR,HR03,HR037,02194,Kula Norinska,1748,61.59552644,2019,HR_02194,official,TRUE
HR_02208,16.777289104450077,45.483571251439876,HR,HR04,HR04E,02208,Kutina,22760,294.86883096,2019,HR_02208,official,TRUE
HR_02216,17.863215924713145,45.41443359553942,HR,HR04,HR049,02216,Kutjevo,6247,173.96901647,2019,HR_02216,official,TRUE
HR_02224,14.120385400457321,45.09689777202281,HR,HR03,HR036,02224,Labin,11642,72.24412672,2019,HR_02224,official,TRUE
HR_02232,14.094750310316478,45.418969263233606,HR,HR03,HR036,02232,Lanišće,329,143.65691135,2019,HR_02232,official,TRUE
HR_02259,15.864804320483273,45.51615550729088,HR,HR04,HR04D,02259,Lasinja,1624,82.15755167,2019,HR_02259,official,TRUE
HR_02267,16.88966870194595,42.76510734672629,HR,HR03,HR037,02267,Lastovo,792,52.14588965,2019,HR_02267,official,TRUE
HR_02275,16.833796071940757,46.29033898064314,HR,HR04,HR045,02275,Legrad,2241,62.14779393,2019,HR_02275,official,TRUE
HR_02283,16.202658913121898,45.58015570873021,HR,HR04,HR04E,02283,Lekenik,6032,228.2233339,2019,HR_02283,official,TRUE
HR_02291,16.045197230287013,46.21595648655636,HR,HR04,HR044,02291,Lepoglava,8283,65.89473848,2019,HR_02291,official,TRUE
HR_02305,18.16933596434576,45.31870425473158,HR,HR04,HR04B,02305,Levanjska Varoš,1194,123.20565859,2019,HR_02305,official,TRUE
HR_02313,17.1433507377089,45.42054975351787,HR,HR04,HR049,02313,Lipik,6170,208.68623013,2019,HR_02313,official,TRUE
HR_02321,16.888344603905256,45.40014999644894,HR,HR04,HR04E,02321,Lipovljani,3455,103.39006097,2019,HR_02321,official,TRUE
HR_02348,15.763803616571941,43.96844068718989,HR,HR03,HR033,02348,Lišane Ostrovičke,698,48.98960872,2019,HR_02348,official,TRUE
HR_02356,13.951365918838802,44.846696984799195,HR,HR03,HR036,02356,Ližnjan - Lisignano,3965,68.03681504,2019,HR_02356,official,TRUE
HR_02364,16.05116886921473,46.13826030686749,HR,HR04,HR043,02364,Lobor,3188,43.22541196,2019,HR_02364,official,TRUE
HR_02372,14.746480300057582,45.35695249607143,HR,HR03,HR031,02372,Lokve,1049,41.96048861,2019,HR_02372,official,TRUE
HR_02399,19.171020671568563,45.23361077967635,HR,HR04,HR04C,02399,Lovas,1214,42.46353206,2019,HR_02399,official,TRUE
HR_02402,15.707585983987027,44.36605650734027,HR,HR03,HR032,02402,Lovinac,1007,345.8463009,2019,HR_02402,official,TRUE
HR_02429,14.272656191856008,45.295653940395745,HR,HR03,HR031,02429,Lovran,4101,20.29277135,2019,HR_02429,official,TRUE
HR_02437,17.01940145605228,43.49059244942534,HR,HR03,HR035,02437,Lovreć,1699,105.2130979,2019,HR_02437,official,TRUE
HR_02445,16.616204641542534,46.2510286750935,HR,HR04,HR044,02445,Ludbreg,8478,74.25880004,2019,HR_02445,official,TRUE
HR_02453,17.429276169567988,45.89356625698136,HR,HR04,HR048,02453,Lukač,3634,82.64855945,2019,HR_02453,official,TRUE
HR_02461,14.114704087969146,45.340631855456415,HR,HR03,HR036,02461,Lupoglav,924,91.55833473,2019,HR_02461,official,TRUE
HR_02470,16.390185788910404,46.16953598129182,HR,HR04,HR044,02470,Ljubešćica,1858,35.26250302,2019,HR_02470,official,TRUE
HR_02488,16.03547603214966,46.1007738484209,HR,HR04,HR043,02488,Mače,2534,27.80426902,2019,HR_02488,official,TRUE
HR_02496,17.02005792199842,43.297212882182336,HR,HR03,HR035,02496,Makarska,13834,37.77994947,2019,HR_02496,official,TRUE
HR_02500,16.543496628005602,46.38475048949296,HR,HR04,HR046,02500,Mala Subotica,5452,36.68814121,2019,HR_02500,official,TRUE
HR_02518,16.71132669957059,46.26158443832776,HR,HR04,HR044,02518,Mali Bukovec,2212,36.57507925,2019,HR_02518,official,TRUE
HR_02526,14.470822749725313,44.529602823996285,HR,HR03,HR031,02526,Mali Lošinj,8116,224.33149953,2019,HR_02526,official,TRUE
HR_02534,14.527636194558546,45.12043061164033,HR,HR03,HR031,02534,Malinska-Dubašnica,3134,40.91864054,2019,HR_02534,official,TRUE
HR_02542,13.961130189348616,44.95494434336557,HR,HR03,HR036,02542,Marčana,4253,130.91499703,2019,HR_02542,official,TRUE
HR_02569,16.1109475504577,46.002382734621776,HR,HR04,HR043,02569,Marija Bistrica,5976,68.58304786,2019,HR_02569,official,TRUE
HR_02577,18.29026694417058,45.68476962078075,HR,HR04,HR04B,02577,Marijanci,2405,65.61868815,2019,HR_02577,official,TRUE
HR_02585,16.11274222552757,43.518215049549426,HR,HR03,HR035,02585,Marina,4595,118.29020925,2019,HR_02585,official,TRUE
HR_02593,16.377710501915058,45.55462504109538,HR,HR04,HR04E,02593,Martinska Ves,3488,125.85556342,2019,HR_02593,official,TRUE
HR_02607,16.183185618594806,46.286086792588975,HR,HR04,HR044,02607,Maruševec,6381,49.98873257,2019,HR_02607,official,TRUE
HR_02615,14.316176523091627,45.3702658249022,HR,HR03,HR031,02615,Matulji,11246,176.48654071,2019,HR_02615,official,TRUE
HR_02631,13.92323838353441,44.82427149690111,HR,HR03,HR036,02631,Medulin,6481,33.95493524,2019,HR_02631,official,TRUE
HR_02640,17.64469561741405,43.052614512846866,HR,HR03,HR037,02640,Metković,16788,51.18516926,2019,HR_02640,official,TRUE
HR_02658,15.97167938522301,46.14230839848975,HR,HR04,HR043,02658,Mihovljan,1938,26.18861363,2019,HR_02658,official,TRUE
HR_02666,17.801232382788736,45.61771751875279,HR,HR04,HR048,02666,Mikleuš,1464,35.56275685,2019,HR_02666,official,TRUE
HR_02674,16.44785111118142,43.33143464791764,HR,HR03,HR035,02674,Milna,1034,34.85063225,2019,HR_02674,official,TRUE
HR_02682,17.512802517403536,42.74955700896108,HR,HR03,HR037,02682,Mljet,1088,99.00916883,2019,HR_02682,official,TRUE
HR_02704,17.03700475907694,46.107562816868125,HR,HR04,HR045,02704,Molve,2189,46.38102103,2019,HR_02704,official,TRUE
HR_02712,17.982542252825482,45.77977973376907,HR,HR04,HR04B,02712,Podravska Moslavina,1202,44.53751718,2019,HR_02712,official,TRUE
HR_02739,14.246433523231152,45.231080829144496,HR,HR03,HR031,02739,Mošćenička Draga,1535,46.63860109,2019,HR_02739,official,TRUE
HR_02747,13.830920480503412,45.33098492945353,HR,HR03,HR036,02747,Motovun - Montona,1004,32.63396323,2019,HR_02747,official,TRUE
HR_02755,14.849580301942378,45.31783777492739,HR,HR03,HR031,02755,Mrkopalj,1214,156.30713859,2019,HR_02755,official,TRUE
HR_02763,16.44710437027079,46.50362536394755,HR,HR04,HR046,02763,Mursko Središće,6307,33.8483369,2019,HR_02763,official,TRUE
HR_02780,18.099365061094584,45.49494020890586,HR,HR04,HR04B,02780,Našice,16224,205.15246331,2019,HR_02780,official,TRUE
HR_02798,16.362714222468338,46.37528716671193,HR,HR04,HR046,02798,Nedelišće,11975,58.78501142,2019,HR_02798,official,TRUE
HR_02801,16.571169106150847,43.333278465257216,HR,HR03,HR035,02801,Nerežišća,862,78.7899519,2019,HR_02801,official,TRUE
HR_02810,15.436648081396745,45.46967137421033,HR,HR04,HR04D,02810,Netretić,2862,113.69556735,2019,HR_02810,official,TRUE
HR_02828,15.198853188777292,44.22905195060189,HR,HR03,HR033,02828,Nin,2744,53.276507,2019,HR_02828,official,TRUE
HR_02836,17.78800775995257,45.66227422333621,HR,HR04,HR048,02836,Nova Bukovica,1771,74.93815889,2019,HR_02836,official,TRUE
HR_02844,17.38260989014702,45.25860153898734,HR,HR04,HR04A,02844,Nova Gradiška,14229,48.92252703,2019,HR_02844,official,TRUE
HR_02852,17.64364678662017,45.19702759275067,HR,HR04,HR04A,02852,Nova Kapela,4227,128.33248143,2019,HR_02852,official,TRUE
HR_02879,16.95367414948396,45.803873044434305,HR,HR04,HR047,02879,Nova Rača,3433,92.7653392,2019,HR_02879,official,TRUE
HR_02887,14.885050429149427,44.55599128559532,HR,HR03,HR032,02887,Novalja,3663,95.67543243,2019,HR_02887,official,TRUE
HR_02895,16.326791699034892,46.17388261831705,HR,HR04,HR044,02895,Novi Marof,13246,111.8841955,2019,HR_02895,official,TRUE
HR_02909,14.794207620068013,45.12910697977726,HR,HR03,HR031,02909,Novi Vinodolski,5113,261.32191854,2019,HR_02909,official,TRUE
HR_02917,13.568597039272072,45.326160610076535,HR,HR03,HR036,02917,Novigrad - Cittanova,4345,26.54639413,2019,HR_02917,official,TRUE
HR_02925,16.947131155878946,46.08047560515652,HR,HR04,HR045,02925,Novigrad Podravski,2872,66.08510107,2019,HR_02925,official,TRUE
HR_02933,16.97583963849141,45.338215970740734,HR,HR04,HR04E,02933,Novska,13518,319.83207438,2019,HR_02933,official,TRUE
HR_02941,18.84566827392031,45.327364488295416,HR,HR04,HR04C,02941,Nuštar,5793,43.44095275,2019,HR_02941,official,TRUE
HR_02950,19.039465919735495,45.126545259813454,HR,HR04,HR04C,02950,Nijemci,4705,224.61422389,2019,HR_02950,official,TRUE
HR_02968,15.661526164768485,44.16770196298401,HR,HR03,HR033,02968,Obrovac,4323,353.04952142,2019,HR_02968,official,TRUE
HR_02976,15.225046167700741,45.261403310205274,HR,HR04,HR04D,02976,Ogulin,13915,538.10161156,2019,HR_02976,official,TRUE
HR_02984,16.08096460268282,43.95870173880647,HR,HR03,HR034,02984,Promina,1136,139.28766682,2019,HR_02984,official,TRUE
HR_02992,17.198985250946947,45.26310819849258,HR,HR04,HR04A,02992,Okučani,3447,159.63999534,2019,HR_02992,official,TRUE
HR_03000,16.69598048038496,43.44294229653797,HR,HR03,HR035,03000,Omiš,14936,266.23393699,2019,HR_03000,official,TRUE
HR_03018,14.556625457282937,45.2084748893467,HR,HR03,HR031,03018,Omišalj,2983,39.23214158,2019,HR_03018,official,TRUE
HR_03026,14.306709540710733,45.341994292748396,HR,HR03,HR031,03026,Opatija,11659,67.16413208,2019,HR_03026,official,TRUE
HR_03034,18.25032706858104,45.141540309972285,HR,HR04,HR04A,03034,Oprisavci,2508,59.70902939,2019,HR_03034,official,TRUE
HR_03042,13.833904686207173,45.36943851517428,HR,HR03,HR036,03042,Oprtalj - Portole,850,60.96966537,2019,HR_03042,official,TRUE
HR_03069,17.55729171578333,43.018535154064,HR,HR03,HR037,03069,Opuzen,3254,24.63706874,2019,HR_03069,official,TRUE
HR_03077,17.88179824609142,45.53268788031395,HR,HR04,HR048,03077,Orahovica,5304,124.1716522,2019,HR_03077,official,TRUE
HR_03085,17.189078572422805,42.97744095557088,HR,HR03,HR037,03085,Orebić,4122,131.32545692,2019,HR_03085,official,TRUE
HR_03093,17.73960419742488,45.157056846092274,HR,HR04,HR04A,03093,Oriovac,5824,93.30843038,2019,HR_03093,official,TRUE
HR_03107,16.213322756661587,43.99115397672115,HR,HR03,HR034,03107,Biskupija,1699,133.43159271,2019,HR_03107,official,TRUE
HR_03115,15.91522262151944,45.99196076693547,HR,HR04,HR043,03115,Oroslavje,6138,32.05736569,2019,HR_03115,official,TRUE
HR_03123,18.688227277542,45.5536769310309,HR,HR04,HR04B,03123,Osijek,108048,174.77889254,2019,HR_03123,official,TRUE
HR_03131,15.240188554536886,44.86886032186642,HR,HR03,HR032,03131,Otočac,9778,564.9726786,2019,HR_03131,official,TRUE
HR_03140,16.736096521900144,43.68730832798736,HR,HR03,HR035,03140,Otok,5474,94.70306223,2019,HR_03140,official,TRUE
HR_03158,15.47683682766682,45.61086107084337,HR,HR04,HR04D,03158,Ozalj,6817,175.90129329,2019,HR_03158,official,TRUE
HR_03166,15.049345814871307,44.43872490872592,HR,HR03,HR033,03166,Pag,3846,132.77088291,2019,HR_03166,official,TRUE
HR_03174,15.51502618289567,43.90899028944466,HR,HR03,HR033,03174,Pakoštane,4123,83.30599567,2019,HR_03174,official,TRUE
HR_03182,17.19104214883166,45.44065056383435,HR,HR04,HR049,03182,Pakrac,8460,358.24429091,2019,HR_03182,official,TRUE
HR_03204,15.35389094109428,43.96585009814227,HR,HR03,HR033,03204,Pašman,2082,48.26800485,2019,HR_03204,official,TRUE
HR_03212,13.93439618147235,45.23741832379393,HR,HR03,HR036,03212,Pazin,8638,138.99675867,2019,HR_03212,official,TRUE
HR_03239,15.36903963632409,44.66108807798574,HR,HR03,HR032,03239,Perušić,2638,382.95583709,2019,HR_03239,official,TRUE
HR_03247,16.909467794807803,46.19267321627751,HR,HR04,HR045,03247,Peteranec,2704,51.81023507,2019,HR_03247,official,TRUE
HR_03255,18.490337546583188,45.75718469892097,HR,HR04,HR04B,03255,Petlovac,2405,93.41325906,2019,HR_03255,official,TRUE
HR_03263,16.225470048689036,46.342469288425136,HR,HR04,HR044,03263,Petrijanec,4812,47.93782094,2019,HR_03263,official,TRUE
HR_03271,18.53367479512832,45.6118174111288,HR,HR04,HR04B,03271,Petrijevci,2870,55.04511202,2019,HR_03271,official,TRUE
HR_03280,16.28571616294897,45.43681660483153,HR,HR04,HR04E,03280,Petrinja,24671,379.34667803,2019,HR_03280,official,TRUE
HR_03298,15.82396505375445,46.16308235785856,HR,HR04,HR043,03298,Petrovsko,2656,18.86222057,2019,HR_03298,official,TRUE
HR_03301,14.049360858677481,45.194066559475026,HR,HR03,HR036,03301,Pićan,1827,50.74554346,2019,HR_03301,official,TRUE
HR_03310,15.838418519412533,45.57713641193776,HR,HR04,HR042,03310,Pisarovina,3689,145.37283929,2019,HR_03310,official,TRUE
HR_03328,17.22862798953015,45.94714866102681,HR,HR04,HR048,03328,Pitomača,10059,158.048346,2019,HR_03328,official,TRUE
HR_03336,15.365195549407714,45.080623191512345,HR,HR04,HR04D,03336,Plaški,2090,156.52508711,2019,HR_03336,official,TRUE
HR_03344,17.797455741783022,45.28639528236014,HR,HR04,HR049,03344,Pleternica,11323,206.58930024,2019,HR_03344,official,TRUE
HR_03352,17.442760785781132,43.055920446032154,HR,HR03,HR037,03352,Ploče,10135,132.13110765,2019,HR_03352,official,TRUE
HR_03379,17.159301509015574,43.4224240269678,HR,HR03,HR035,03379,Podbablje,4680,44.78790031,2019,HR_03379,official,TRUE
HR_03387,18.020753484684466,45.21598565302827,HR,HR04,HR04A,03387,Podcrkavlje,2553,95.01594687,2019,HR_03387,official,TRUE
HR_03395,17.092160139200573,43.2336455869922,HR,HR03,HR035,03395,Podgora,2518,76.18628976,2019,HR_03395,official,TRUE
HR_03409,18.250153256232593,45.460779637082275,HR,HR04,HR04B,03409,Podgorač,2877,130.80676647,2019,HR_03409,official,TRUE
HR_03417,16.543318712081547,43.496246544777,HR,HR03,HR035,03417,Podstrana,9129,11.66327636,2019,HR_03417,official,TRUE
HR_03425,16.532014969576917,46.45966761862579,HR,HR04,HR046,03425,Podturen,3873,31.62190811,2019,HR_03425,official,TRUE
HR_03433,17.463798802906865,43.15171820684229,HR,HR03,HR037,03433,Pojezerje,991,32.80066564,2019,HR_03433,official,TRUE
HR_03441,15.5097290789781,44.015649439795254,HR,HR03,HR033,03441,Polača,1468,29.9927666,2019,HR_03441,official,TRUE
HR_03450,15.35201013284526,44.168503436528894,HR,HR03,HR033,03450,Poličnik,4469,81.74455267,2019,HR_03450,official,TRUE
HR_03468,18.651890849566893,45.826371799757254,HR,HR04,HR04B,03468,Popovac,2084,62.39139263,2019,HR_03468,official,TRUE
HR_03476,16.636669864218824,45.55803039043452,HR,HR04,HR04E,03476,Popovača,11905,214.79756935,2019,HR_03476,official,TRUE
HR_03484,13.608878486664963,45.23244078419598,HR,HR03,HR036,03484,Poreč - Parenzo,16696,111.51400331,2019,HR_03484,official,TRUE
HR_03492,15.470468470445967,44.208151493488806,HR,HR03,HR033,03492,Posedarje,3607,77.47906124,2019,HR_03492,official,TRUE
HR_03506,16.62868837251276,43.37337523837428,HR,HR03,HR035,03506,Postira,1559,46.90905733,2019,HR_03506,official,TRUE
HR_03514,17.67335938463528,45.33705985610557,HR,HR04,HR049,03514,Požega,26248,133.74489675,2019,HR_03514,official,TRUE
HR_03522,15.753963372527313,46.16010402859843,HR,HR04,HR043,03522,Pregrada,6594,67.47501637,2019,HR_03522,official,TRUE
HR_03549,15.16204264774084,44.09336417183775,HR,HR03,HR033,03549,Preko,3805,54.37765556,2019,HR_03549,official,TRUE
HR_03557,16.620793535710177,46.33699089938006,HR,HR04,HR046,03557,Prelog,7815,63.51710625,2019,HR_03557,official,TRUE
HR_03565,16.385867528308374,45.974476185803425,HR,HR04,HR042,03565,Preseka,1448,46.14610721,2019,HR_03565,official,TRUE
HR_03573,15.932265202090248,43.58905994067203,HR,HR03,HR034,03573,Primošten,2828,58.42993388,2019,HR_03573,official,TRUE
HR_03581,16.730748607485907,43.34707374427061,HR,HR03,HR035,03581,Pučišća,2171,106.2020644,2019,HR_03581,official,TRUE
HR_03590,13.84946553704817,44.86527631988131,HR,HR03,HR036,03590,Pula - Pola,57460,53.63579738,2019,HR_03590,official,TRUE
HR_03603,14.632612076932302,45.01888478549431,HR,HR03,HR031,03603,Punat,1973,33.97326929,2019,HR_03603,official,TRUE
HR_03611,18.415366142293323,45.430075762123074,HR,HR04,HR04B,03611,Punitovci,1803,40.61845255,2019,HR_03611,official,TRUE
HR_03620,15.77295529538284,45.91891819174245,HR,HR04,HR042,03620,Pušća,2700,17.02348367,2019,HR_03620,official,TRUE
HR_03638,14.762638376053394,44.76185610334546,HR,HR03,HR031,03638,Rab,8065,75.77206025,2019,HR_03638,official,TRUE
HR_03646,15.918308384499543,46.15718279158875,HR,HR04,HR043,03646,Radoboj,3387,33.05873123,2019,HR_03646,official,TRUE
HR_03654,15.690230066303544,44.97314676615336,HR,HR04,HR04D,03654,Rakovica,2387,256.41357086,2019,HR_03654,official,TRUE
HR_03662,16.714624660087036,46.19670847819734,HR,HR04,HR045,03662,Rasinja,3267,106.08370357,2019,HR_03662,official,TRUE
HR_03689,14.07405931737468,45.07036044980926,HR,HR03,HR036,03689,Raša,3183,80.31904625,2019,HR_03689,official,TRUE
HR_03697,14.938592335794823,45.374979026521736,HR,HR03,HR031,03697,Ravna Gora,2430,83.60908104,2019,HR_03697,official,TRUE
HR_03719,15.347281688504587,44.26934198710479,HR,HR03,HR033,03719,Ražanac,2940,68.89428921,2019,HR_03719,official,TRUE
HR_03727,17.434028786960756,45.26153108267832,HR,HR04,HR04A,03727,Rešetari,4753,59.23866005,2019,HR_03727,official,TRUE
HR_03735,14.426917391466528,45.33815218167218,HR,HR03,HR031,03735,Rijeka,128624,43.33071903,2019,HR_03735,official,TRUE
HR_03743,13.648679000853821,45.07949662013134,HR,HR03,HR036,03743,Rovinj - Rovigno,14294,77.19759132,2019,HR_03743,official,TRUE
HR_03751,16.751786904610704,45.94477449393023,HR,HR04,HR047,03751,Rovišće,4822,78.78263599,2019,HR_03751,official,TRUE
HR_03760,16.19369267419908,45.76644160598588,HR,HR04,HR042,03760,Rugvica,7871,93.65928323,2019,HR_03760,official,TRUE
HR_03778,16.290786842408316,43.81172227980627,HR,HR03,HR034,03778,Ružić,1591,161.04289972,2019,HR_03778,official,TRUE
HR_03786,15.478356561459877,44.98265720824116,HR,HR04,HR04D,03786,Saborsko,632,132.43575667,2019,HR_03786,official,TRUE
HR_03794,15.133442527009606,43.95686596263575,HR,HR03,HR033,03794,Sali,1698,123.74839741,2019,HR_03794,official,TRUE
HR_03808,15.716445512030033,45.80442361708286,HR,HR04,HR042,03808,Samobor,37633,251.5338004,2019,HR_03808,official,TRUE
HR_03816,18.366439472185398,45.350155676330054,HR,HR04,HR04B,03816,Satnica Đakovačka,2123,76.63965515,2019,HR_03816,official,TRUE
HR_03824,16.2188441505916,43.523559598078116,HR,HR03,HR035,03824,Seget,4854,78.50947361,2019,HR_03824,official,TRUE
HR_03832,16.851994463996647,43.299820391455995,HR,HR03,HR035,03832,Selca,1804,53.74627728,2019,HR_03832,official,TRUE
HR_03859,16.39824324086513,46.48985022793354,HR,HR04,HR046,03859,Selnica,2991,24.91402024,2019,HR_03859,official,TRUE
HR_03867,18.554469204259426,45.35129089666151,HR,HR04,HR04B,03867,Semeljci,4362,101.56001942,2019,HR_03867,official,TRUE
HR_03875,14.909377658328994,44.98721020551362,HR,HR03,HR032,03875,Senj,7182,657.76491819,2019,HR_03875,official,TRUE
HR_03883,17.91560430800854,45.18283852870774,HR,HR04,HR04A,03883,Sibinj,6895,103.64294343,2019,HR_03883,official,TRUE
HR_03891,16.641163021035744,43.701573796420156,HR,HR03,HR035,03891,Sinj,24826,193.41644491,2019,HR_03891,official,TRUE
HR_03905,17.24758687871041,45.52879044217055,HR,HR04,HR047,03905,Sirač,2218,145.18492235,2019,HR_03905,official,TRUE
HR_03913,16.37470664104988,45.478429091289684,HR,HR04,HR04E,03913,Sisak,47768,421.45640317,2019,HR_03913,official,TRUE
HR_03930,14.909672449844082,45.431587089758786,HR,HR03,HR031,03930,Skrad,1062,52.66694728,2019,HR_03930,official,TRUE
HR_03948,15.904499353517286,43.86571531311369,HR,HR03,HR034,03948,Skradin,3825,184.19897571,2019,HR_03948,official,TRUE
HR_03956,17.70321908308062,45.700828265433344,HR,HR04,HR048,03956,Slatina,13686,167.74623136,2019,HR_03956,official,TRUE
HR_03964,18.01948306490317,45.162348197305036,HR,HR04,HR04A,03964,Slavonski Brod,59141,54.1012768,2019,HR_03964,official,TRUE
HR_03972,18.484548697810567,45.07219693839975,HR,HR04,HR04A,03972,Slavonski Šamac,2169,22.46177775,2019,HR_03972,official,TRUE
HR_03999,17.5450128468772,42.999581277064294,HR,HR03,HR037,03999,Slivno,1999,52.72969554,2019,HR_03999,official,TRUE
HR_04006,15.58265359684013,45.116649090572366,HR,HR04,HR04D,04006,Slunj,5076,393.39433362,2019,HR_04006,official,TRUE
HR_04022,16.882827914907892,42.923744608831036,HR,HR03,HR037,04022,Smokvica,916,43.59558893,2019,HR_04022,official,TRUE
HR_04057,16.716730862515604,46.09764068559019,HR,HR04,HR045,04057,Sokolovac,3417,135.91356478,2019,HR_04057,official,TRUE
HR_04065,16.491397203908356,43.5398626666537,HR,HR03,HR035,04065,Solin,23926,34.3119435,2019,HR_04065,official,TRUE
HR_04073,17.709687023147076,45.791797443370946,HR,HR04,HR048,04073,Sopje,2320,117.15788927,2019,HR_04073,official,TRUE
HR_04090,16.46096968757721,43.51376833323331,HR,HR03,HR035,04090,Split,178102,79.15812075,2019,HR_04090,official,TRUE
HR_04103,16.273592393360193,46.33492055506559,HR,HR04,HR044,04103,Sračinec,4842,23.49740512,2019,HR_04103,official,TRUE
HR_04111,15.690377302855548,43.90575986967275,HR,HR03,HR033,04111,Stankovci,2003,68.67416888,2019,HR_04111,official,TRUE
HR_04120,17.252241409938442,45.153874933126914,HR,HR04,HR04A,04120,Stara Gradiška,1363,77.30806377,2019,HR_04120,official,TRUE
HR_04138,16.600460641577882,43.18427757222796,HR,HR03,HR035,04138,Stari Grad,2781,52.8332189,2019,HR_04138,official,TRUE
HR_04146,18.919374194109817,45.243491885219946,HR,HR04,HR04C,04146,Stari Jankovci,4405,95.15621137,2019,HR_04146,official,TRUE
HR_04154,18.555413690951102,45.28249162264435,HR,HR04,HR04C,04154,Stari Mikanovci,2956,54.32783841,2019,HR_04154,official,TRUE
HR_04162,15.43898964773967,44.296437827261514,HR,HR03,HR033,04162,Starigrad,1876,168.75894304,2019,HR_04162,official,TRUE
HR_04189,17.52626346293936,45.22299570029775,HR,HR04,HR04A,04189,Staro Petrovo Selo,5186,140.98297984,2019,HR_04189,official,TRUE
HR_04197,17.6587105990571,42.84581800275597,HR,HR03,HR037,04197,Ston,2407,168.53977361,2019,HR_04197,official,TRUE
HR_04219,18.42787788044941,45.22695829699792,HR,HR04,HR04B,04219,Strizivojna,2525,36.87648608,2019,HR_04219,official,TRUE
HR_04227,15.926098723981115,45.973294947985536,HR,HR04,HR043,04227,Stubičke Toplice,2805,27.03371051,2019,HR_04227,official,TRUE
HR_04235,17.175326226435192,43.12808040053717,HR,HR03,HR035,04235,Sućuraj,463,45.13547759,2019,HR_04235,official,TRUE
HR_04243,17.510408882680704,45.79544373488855,HR,HR04,HR048,04243,Suhopolje,6683,166.65888216,2019,HR_04243,official,TRUE
HR_04251,15.329399971237718,44.04607876300039,HR,HR03,HR033,04251,Sukošan,4583,56.41114363,2019,HR_04251,official,TRUE
HR_04260,16.566470393444778,45.362291047492356,HR,HR04,HR04E,04260,Sunja,5748,288.31031629,2019,HR_04260,official,TRUE
HR_04278,16.552307286772464,43.379002735464574,HR,HR03,HR035,04278,Supetar,4074,29.82093528,2019,HR_04278,official,TRUE
HR_04286,15.422240862024292,43.96988895303784,HR,HR03,HR033,04286,Sveti Filip I Jakov,4606,47.55248185,2019,HR_04286,official,TRUE
HR_04294,16.240256185607063,45.953464726864354,HR,HR04,HR042,04294,Sveti Ivan Zelina,15959,185.96981689,2019,HR_04294,official,TRUE
HR_04308,15.910272442936336,46.07790104319688,HR,HR04,HR043,04308,Sveti Križ Začretje,6165,40.24713633,2019,HR_04308,official,TRUE
HR_04316,13.749177635655006,45.168533441431805,HR,HR03,HR036,04316,Sveti Lovreč,1015,31.61935614,2019,HR_04316,official,TRUE
HR_04324,14.103491861515618,45.133100384033945,HR,HR03,HR036,04324,Sveta Nedelja,2987,62.95030236,2019,HR_04324,official,TRUE
HR_04332,13.862829801872183,45.18544797080878,HR,HR03,HR036,04332,Sveti Petar U Šumi,1065,14.2124142,2019,HR_04332,official,TRUE
HR_04359,13.883855761157347,45.057203946017964,HR,HR03,HR036,04359,Svetvinčenat,2202,79.57661207,2019,HR_04359,official,TRUE
HR_04367,15.79980508866951,45.80166386858911,HR,HR04,HR042,04367,Sveta Nedelja,18059,39.74407976,2019,HR_04367,official,TRUE
HR_04375,16.609252689615982,46.289395785744816,HR,HR04,HR044,04375,Sveti Đurđ,3804,45.87750805,2019,HR_04375,official,TRUE
HR_04383,16.327243370043544,46.23625883732774,HR,HR04,HR044,04383,Sveti Ilija,3511,17.25727981,2019,HR_04383,official,TRUE
HR_04391,16.632560580004125,45.95337804573232,HR,HR04,HR045,04391,Sveti Ivan Žabno,5222,106.09331417,2019,HR_04391,official,TRUE
HR_04405,16.386837330700928,46.43383011819481,HR,HR04,HR046,04405,Sveti Juraj Na Bregu,5090,30.16136225,2019,HR_04405,official,TRUE
HR_04413,16.364377973942617,46.528704341949506,HR,HR04,HR046,04413,Sveti Martin Na Muri,2605,25.00321669,2019,HR_04413,official,TRUE
HR_04421,16.43558242101884,46.06197274485739,HR,HR04,HR045,04421,Sveti Petar Orehovec,4583,91.05727674,2019,HR_04421,official,TRUE
HR_04430,16.919324267373085,43.45866519497607,HR,HR03,HR035,04430,Šestanovac,1958,89.79018944,2019,HR_04430,official,TRUE
HR_04448,15.901711395594331,43.73202678289475,HR,HR03,HR034,04448,Šibenik,46332,399.1244773,2019,HR_04448,official,TRUE
HR_04456,15.452917760516726,44.088576934231526,HR,HR03,HR033,04456,Škabrnja,1776,22.66468707,2019,HR_04456,official,TRUE
HR_04472,16.29409770464743,43.38498660851588,HR,HR03,HR035,04472,Šolta,1700,59.19400948,2019,HR_04472,official,TRUE
HR_04499,17.302738015506502,45.870736500672344,HR,HR04,HR048,04499,Špišić Bukovica,4221,107.76443337,2019,HR_04499,official,TRUE
HR_04502,16.75173171463703,45.816939285210616,HR,HR04,HR047,04502,Štefanje,2030,67.82204754,2019,HR_04502,official,TRUE
HR_04529,16.292495022597876,46.48964675446912,HR,HR04,HR046,04529,Štrigova,2766,39.23702339,2019,HR_04529,official,TRUE
HR_04537,13.8176713857953,45.20912854769611,HR,HR03,HR036,04537,Tinjan,1684,52.70678415,2019,HR_04537,official,TRUE
HR_04545,15.639281890019603,43.795269567954215,HR,HR03,HR034,04545,Tisno,3094,66.34044212,2019,HR_04545,official,TRUE
HR_04553,15.703225750055234,44.75892726286087,HR,HR03,HR032,04553,Plitvička Jezera,4373,469.07829309,2019,HR_04553,official,TRUE
HR_04561,19.05523181650795,45.23828912031053,HR,HR04,HR04C,04561,Tompojevci,1565,72.38318829,2019,HR_04561,official,TRUE
HR_04570,15.958402394570811,45.27934604381273,HR,HR04,HR04E,04570,Topusko,2985,198.72921307,2019,HR_04570,official,TRUE
HR_04588,18.76503285394954,45.3804151156687,HR,HR04,HR04C,04588,Tordinci,2032,50.16109943,2019,HR_04588,official,TRUE
HR_04596,19.14089013466308,45.16831477077177,HR,HR04,HR04C,04596,Tovarnik,2775,64.43701835,2019,HR_04596,official,TRUE
HR_04600,16.728452658861677,43.621687817732486,HR,HR03,HR035,04600,Trilj,9109,267.98830711,2019,HR_04600,official,TRUE
HR_04618,18.261454995529615,45.25845185510245,HR,HR04,HR04B,04618,Trnava,1600,82.8309586,2019,HR_04618,official,TRUE
HR_04626,16.409543050211525,46.29484821058412,HR,HR04,HR044,04626,Trnovec Bartolovečki,6884,38.69525958,2019,HR_04626,official,TRUE
HR_04634,16.25480023904239,43.51956010366504,HR,HR03,HR035,04634,Trogir,13192,39.23714091,2019,HR_04634,official,TRUE
HR_04642,18.88122642182037,45.40986559597484,HR,HR04,HR04C,04642,Trpinja,5572,122.734194,2019,HR_04642,official,TRUE
HR_04669,15.75848733019633,46.07297749866282,HR,HR04,HR043,04669,Tuhelj,2104,23.93847888,2019,HR_04669,official,TRUE
HR_04677,15.761795400234025,44.53115320834358,HR,HR03,HR032,04677,Udbina,1874,685.82019536,2019,HR_04677,official,TRUE
HR_04685,13.530802218817538,45.435743199311574,HR,HR03,HR036,04685,Umag - Umago,13467,82.0141264,2019,HR_04685,official,TRUE
HR_04693,16.156887584340694,43.744402184293854,HR,HR03,HR034,04693,Unešić,1686,188.96335078,2019,HR_04693,official,TRUE
HR_04715,18.418160707267592,45.65802613229163,HR,HR04,HR04B,04715,Valpovo,11563,141.14142189,2019,HR_04715,official,TRUE
HR_04723,16.334744148091207,46.30429396589325,HR,HR04,HR044,04723,Varaždin,46946,59.89759497,2019,HR_04723,official,TRUE
HR_04731,16.44105840372004,46.20818872462135,HR,HR04,HR044,04731,Varaždinske Toplice,6364,79.17265377,2019,HR_04731,official,TRUE
HR_04740,16.71543732631726,42.96161455286271,HR,HR03,HR037,04740,Vela Luka,4137,42.75217472,2019,HR_04740,official,TRUE
HR_04758,17.657022597077184,45.43724842202782,HR,HR04,HR049,04758,Velika,5607,154.86342166,2019,HR_04758,official,TRUE
HR_04766,18.39928054658401,45.154827487002244,HR,HR04,HR04A,04766,Velika Kopanica,3308,74.25665948,2019,HR_04766,official,TRUE
HR_04774,16.581657322082116,45.60987454315841,HR,HR04,HR04E,04774,Velika Ludina,2625,102.91218852,2019,HR_04774,official,TRUE
HR_04782,17.049202504265036,45.810300508776194,HR,HR04,HR047,04782,Velika Pisanica,1781,84.01008303,2019,HR_04782,official,TRUE
HR_04804,17.050548770929908,45.750778524346046,HR,HR04,HR047,04804,Veliki Grđevac,2849,169.35387603,2019,HR_04804,official,TRUE
HR_04812,15.827872022621051,46.02032187222882,HR,HR04,HR043,04812,Veliko Trgovišće,4945,46.70344245,2019,HR_04812,official,TRUE
HR_04839,16.93579588091961,45.935105369569946,HR,HR04,HR047,04839,Veliko Trojstvo,2741,65.53391937,2019,HR_04839,official,TRUE
HR_04847,16.260907893388275,46.28314489497656,HR,HR04,HR044,04847,Vidovec,5425,32.09418199,2019,HR_04847,official,TRUE
HR_04855,18.068149271388517,45.744120554210106,HR,HR04,HR04B,04855,Viljevo,2065,111.2871075,2019,HR_04855,official,TRUE
HR_04863,16.152670832949518,46.33415347815265,HR,HR04,HR044,04863,Vinica,3389,32.35639513,2019,HR_04863,official,TRUE
HR_04871,18.802613443185187,45.292241465554746,HR,HR04,HR04C,04871,Vinkovci,35312,94.13576323,2019,HR_04871,official,TRUE
HR_04880,14.738697298930845,45.178888731136915,HR,HR03,HR031,04880,Vinodolska Općina,3577,152.881183,2019,HR_04880,official,TRUE
HR_04898,15.090360519953515,44.30222990063009,HR,HR03,HR033,04898,Vir,3000,22.15285433,2019,HR_04898,official,TRUE
HR_04901,16.988958966328266,46.06448890844692,HR,HR04,HR045,04901,Virje,4587,78.50607401,2019,HR_04901,official,TRUE
HR_04910,17.386107921089685,45.82996306058803,HR,HR04,HR048,04910,Virovitica,21291,170.70444944,2019,HR_04910,official,TRUE
HR_04928,16.1858477088807,43.05778142316927,HR,HR03,HR035,04928,Vis,1934,52.7608349,2019,HR_04928,official,TRUE
HR_04936,16.32496372684723,46.08862239808893,HR,HR04,HR044,04936,Visoko,1518,24.83415019,2019,HR_04936,official,TRUE
HR_04944,18.463543165677052,45.34416998929112,HR,HR04,HR04B,04944,Viškovci,1906,43.99439197,2019,HR_04944,official,TRUE
HR_04952,14.389242368305919,45.37846350070136,HR,HR03,HR031,04952,Viškovo,14445,18.67326733,2019,HR_04952,official,TRUE
HR_04979,13.729404891052917,45.277150781822485,HR,HR03,HR036,04979,Višnjan - Visignano,2274,63.45581719,2019,HR_04979,official,TRUE
HR_04987,13.751200590838554,45.321393437858724,HR,HR03,HR036,04987,Vižinada - Visinada,1158,35.64152787,2019,HR_04987,official,TRUE
HR_04995,17.596252624948804,45.619236179032505,HR,HR04,HR048,04995,Voćin,2382,296.58129462,2019,HR_04995,official,TRUE
HR_05002,15.776785969034815,43.76148012553097,HR,HR03,HR034,05002,Vodice,8875,92.60039739,2019,HR_05002,official,TRUE
HR_05029,13.854443343209889,44.95635000701142,HR,HR03,HR036,05029,Vodnjan - Dignano,6119,100.91682711,2019,HR_05029,official,TRUE
HR_05037,15.700527622139319,45.3196016078383,HR,HR04,HR04D,05037,Vojnić,4764,238.95858403,2019,HR_05037,official,TRUE
HR_05045,16.456056643141686,46.47709794903957,HR,HR04,HR046,05045,Vratišinec,1984,16.3113675,2019,HR_05045,official,TRUE
HR_05053,18.94739826636898,44.968683742645645,HR,HR04,HR04C,05053,Vrbanja,3940,191.0990002,2019,HR_05053,official,TRUE
HR_05061,17.414009837627223,45.186038128317136,HR,HR04,HR04A,05061,Vrbje,2215,79.21756665,2019,HR_05061,official,TRUE
HR_05070,14.672715674450771,45.07275436300123,HR,HR03,HR031,05070,Vrbnik,1260,52.59589636,2019,HR_05070,official,TRUE
HR_05088,16.406958974836886,45.88140868071732,HR,HR04,HR042,05088,Vrbovec,14797,160.81786053,2019,HR_05088,official,TRUE
HR_05096,15.070667557741864,45.38793939103735,HR,HR03,HR031,05096,Vrbovsko,5076,279.77357729,2019,HR_05096,official,TRUE
HR_05100,15.861892733485455,45.355829529125586,HR,HR04,HR04E,05100,Gvozd,2970,212.39421651,2019,HR_05100,official,TRUE
HR_05118,17.37353557417167,43.20277603943537,HR,HR03,HR035,05118,Vrgorac,6572,278.70230077,2019,HR_05118,official,TRUE
HR_05126,15.435339242459579,44.84955928620937,HR,HR03,HR032,05126,Vrhovine,1381,225.29891573,2019,HR_05126,official,TRUE
HR_05134,16.40464675756182,43.911855840185666,HR,HR03,HR035,05134,Vrlika,2177,243.53474067,2019,HR_05134,official,TRUE
HR_05142,18.382152620789494,45.21281310622622,HR,HR04,HR04A,05142,Vrpolje,3521,60.86312749,2019,HR_05142,official,TRUE
HR_05169,13.61257132034518,45.14976420548137,HR,HR03,HR036,05169,Vrsar - Orsera,2162,36.29174797,2019,HR_05169,official,TRUE
HR_05177,18.504620093808164,45.43706386843153,HR,HR04,HR04B,05177,Vuka,1200,24.74273781,2019,HR_05177,official,TRUE
HR_05185,18.97597219681406,45.36350497435182,HR,HR04,HR04C,05185,Vukovar,27683,97.54145244,2019,HR_05185,official,TRUE
HR_05193,15.90965691967855,46.02830841159627,HR,HR04,HR043,05193,Zabok,8994,34.59781011,2019,HR_05193,official,TRUE
HR_05207,15.242162167957938,44.11761398285614,HR,HR03,HR033,05207,Zadar,75062,192.80395503,2019,HR_05207,official,TRUE
HR_05215,15.629463131172933,46.11241169357018,HR,HR04,HR043,05215,Zagorska Sela,996,24.52410522,2019,HR_05215,official,TRUE
HR_05223,17.053777288239115,43.3972279645293,HR,HR03,HR035,05223,Zagvozd,1188,138.81619237,2019,HR_05223,official,TRUE
HR_05231,17.632672891129303,42.999581503721814,HR,HR03,HR037,05231,Zažablje,757,60.61275615,2019,HR_05231,official,TRUE
HR_05240,17.950652872436958,45.588877014890365,HR,HR04,HR048,05240,Zdenci,1904,84.61764891,2019,HR_05240,official,TRUE
HR_05258,15.375280834294621,44.110763241625975,HR,HR03,HR033,05258,Zemunik Donji,2060,54.81974975,2019,HR_05258,official,TRUE
HR_05266,16.085471038910157,46.09876291738112,HR,HR04,HR043,05266,Zlatar,6096,76.03456896,2019,HR_05266,official,TRUE
HR_05274,16.07611375448289,46.050595242321755,HR,HR04,HR043,05274,Zlatar Bistrica,2600,24.71535642,2019,HR_05274,official,TRUE
HR_05282,17.211011234258013,43.407193006214065,HR,HR03,HR035,05282,Zmijavci,2048,13.76119729,2019,HR_05282,official,TRUE
HR_05304,15.323023541284126,45.61493828544768,HR,HR04,HR04D,05304,Žakanje,1889,44.66336867,2019,HR_05304,official,TRUE
HR_05312,13.906118536283104,45.14149424344651,HR,HR03,HR036,05312,Žminj,3483,71.50458316,2019,HR_05312,official,TRUE
HR_05339,15.519857900638065,45.6553473887696,HR,HR04,HR042,05339,Krašić,2640,71.52382339,2019,HR_05339,official,TRUE
HR_05347,18.699557969986376,45.075757486602974,HR,HR04,HR04C,05347,Županja,12090,50.1425229,2019,HR_05347,official,TRUE
HR_05355,18.89294854448972,45.14587563555038,HR,HR04,HR04C,05355,Otok,6343,136.40408431,2019,HR_05355,official,TRUE
HR_05363,16.32292753261028,45.92931519676285,HR,HR04,HR042,05363,Rakovec,1252,34.85313973,2019,HR_05363,official,TRUE
HR_05371,15.556254319905845,44.15836128767184,HR,HR03,HR033,05371,Novigrad,2375,51.17007218,2019,HR_05371,official,TRUE
HR_05380,14.504378351257385,45.30306883626717,HR,HR03,HR031,05380,Kostrena,4180,11.98646639,2019,HR_05380,official,TRUE
HR_05398,15.724774694068856,45.909636208349305,HR,HR04,HR042,05398,Marija Gorica,2233,17.13621817,2019,HR_05398,official,TRUE
HR_05401,15.449052559132099,45.72437714422434,HR,HR04,HR042,05401,Žumberak,883,110.15618541,2019,HR_05401,official,TRUE
HR_05410,16.067492303500977,45.71429548261987,HR,HR04,HR042,05410,Velika Gorica,63517,326.7140778,2019,HR_05410,official,TRUE
HR_05428,16.237937876016222,45.68246430140826,HR,HR04,HR042,05428,Orle,1975,58.59586382,2019,HR_05428,official,TRUE
HR_05436,15.801375652703193,45.862341189942114,HR,HR04,HR042,05436,Zaprešić,25223,53.95839283,2019,HR_05436,official,TRUE
HR_05444,15.979594812573842,45.512520032263524,HR,HR04,HR042,05444,Pokupsko,2224,105.77304543,2019,HR_05444,official,TRUE
HR_05452,16.051808285228834,45.58129132287486,HR,HR04,HR042,05452,Kravarsko,1987,58.42897584,2019,HR_05452,official,TRUE
HR_05479,15.876313817614607,45.90693146910314,HR,HR04,HR042,05479,Bistra,6632,52.90200894,2019,HR_05479,official,TRUE
HR_05487,15.82193529829749,45.959374666351586,HR,HR04,HR042,05487,Luka,1351,17.3646351,2019,HR_05487,official,TRUE
HR_05495,15.735566462432951,45.94997057323697,HR,HR04,HR042,05495,Dubravica,1437,20.56885984,2019,HR_05495,official,TRUE
HR_05509,16.243003023348404,46.03723024483548,HR,HR04,HR042,05509,Bedenica,1432,21.480204,2019,HR_05509,official,TRUE
HR_05517,15.84947620282284,45.75090740781187,HR,HR04,HR042,05517,Stupnik,3735,24.84379289,2019,HR_05517,official,TRUE
HR_05525,15.902747049933712,46.20782717752753,HR,HR04,HR043,05525,Jesenje,1560,24.48652673,2019,HR_05525,official,TRUE
HR_05533,15.686232065632256,46.07820952257297,HR,HR04,HR043,05533,Kumrovec,1588,17.5050885,2019,HR_05533,official,TRUE
HR_05541,15.994918613941289,46.162690170118324,HR,HR04,HR043,05541,Novi Golubovec,996,13.66606418,2019,HR_05541,official,TRUE
HR_05550,16.534623441514615,45.26697880414232,HR,HR04,HR04E,05550,Majur,1185,67.42664248,2019,HR_05550,official,TRUE
HR_05568,15.355355158617385,45.564044357843784,HR,HR04,HR04D,05568,Ribnik,475,40.55119217,2019,HR_05568,official,TRUE
HR_05576,15.335384730284082,45.24789527959531,HR,HR04,HR04D,05576,Tounj,1150,96.11259368,2019,HR_05576,official,TRUE
HR_05584,16.70114675379655,46.28643721141798,HR,HR04,HR044,05584,Veliki Bukovec,1438,23.20150404,2019,HR_05584,official,TRUE
HR_05592,17.11578255385771,46.02309862019889,HR,HR04,HR045,05592,Kalinovac,1597,35.32687717,2019,HR_05592,official,TRUE
HR_05606,16.46414391424683,46.12075823508937,HR,HR04,HR045,05606,Kalnik,1351,26.67764816,2019,HR_05606,official,TRUE
HR_05614,17.13835276877252,46.09593521452444,HR,HR04,HR045,05614,Novo Virje,1216,36.22706266,2019,HR_05614,official,TRUE
HR_05622,16.972078582848308,45.851827877460366,HR,HR04,HR047,05622,Severin,877,25.95404381,2019,HR_05622,official,TRUE
HR_05649,17.025782447527746,45.88747241300664,HR,HR04,HR047,05649,Šandrovac,1776,62.69327609,2019,HR_05649,official,TRUE
HR_05657,16.93904999246984,45.700534562680595,HR,HR04,HR047,05657,Velika Trnovitica,1370,60.63295502,2019,HR_05657,official,TRUE
HR_05665,16.76146159515815,46.02419541895465,HR,HR04,HR047,05665,Zrinski Topolovac,890,30.36064659,2019,HR_05665,official,TRUE
HR_05673,18.06673365367513,45.18439804671394,HR,HR04,HR04A,05673,Bukovlje,3108,31.0063456,2019,HR_05673,official,TRUE
HR_05681,17.29810601537772,45.24746798977455,HR,HR04,HR04A,05681,Dragalić,1361,61.61842788,2019,HR_05681,official,TRUE
HR_05690,18.0718318507123,45.1582465335052,HR,HR04,HR04A,05690,Gornja Vrba,2512,20.13536906,2019,HR_05690,official,TRUE
HR_05703,18.454587833197262,45.1118999180291,HR,HR04,HR04A,05703,Sikirevci,2476,29.65744344,2019,HR_05703,official,TRUE
HR_05711,15.392346071523088,44.07071301010282,HR,HR03,HR033,05711,Galovac,1234,9.51447775,2019,HR_05711,official,TRUE
HR_05720,15.245944914814487,44.03274112574891,HR,HR03,HR033,05720,Kukljica,714,6.66436985,2019,HR_05720,official,TRUE
HR_05738,15.116188792575603,44.346366230257395,HR,HR03,HR033,05738,Povljana,759,38.37851316,2019,HR_05738,official,TRUE
HR_05746,15.132071567822052,44.25737702917434,HR,HR03,HR033,05746,Privlaka,2253,11.06551874,2019,HR_05746,official,TRUE
HR_05754,15.416743562464365,43.923006611895964,HR,HR03,HR033,05754,Tkon,763,14.74496151,2019,HR_05754,official,TRUE
HR_05762,18.02068980526804,45.49239124281689,HR,HR04,HR04B,05762,Donja Motičina,1652,52.01580278,2019,HR_05762,official,TRUE
HR_05789,18.18258986788831,45.64536372313053,HR,HR04,HR04B,05789,Magadenovac,1936,112.84926487,2019,HR_05789,official,TRUE
HR_05797,18.573910735815414,45.45245457512566,HR,HR04,HR04B,05797,Vladislavci,1882,31.99438985,2019,HR_05797,official,TRUE
HR_05819,15.667859989112053,43.82097193179205,HR,HR03,HR034,05819,Pirovac,1930,39.318161,2019,HR_05819,official,TRUE
HR_05827,15.969405050972542,43.53243396024594,HR,HR03,HR034,05827,Rogoznica,2345,68.049672,2019,HR_05827,official,TRUE
HR_05835,18.83952979399847,45.1939122089366,HR,HR04,HR04C,05835,Privlaka,2954,52.41120077,2019,HR_05835,official,TRUE
HR_05843,18.611863827348035,45.27516591930476,HR,HR04,HR04C,05843,Vođinci,1966,20.7522601,2019,HR_05843,official,TRUE
HR_05851,16.59543350163817,43.58347061049369,HR,HR03,HR035,05851,Dugopolje,3469,63.67359882,2019,HR_05851,official,TRUE
HR_05860,16.31225035450518,43.63766488259396,HR,HR03,HR035,05860,Lećevica,583,87.65966427,2019,HR_05860,official,TRUE
HR_05878,17.08361853835036,43.4666242190025,HR,HR03,HR035,05878,Lokvičići,807,28.51291287,2019,HR_05878,official,TRUE
HR_05886,16.266007674669858,43.49553731644087,HR,HR03,HR035,05886,Okrug,3349,9.71003948,2019,HR_05886,official,TRUE
HR_05894,16.225134974391274,43.62986090321164,HR,HR03,HR035,05894,Prgomet,673,77.41520086,2019,HR_05894,official,TRUE
HR_05908,16.18480986946319,43.63905366006959,HR,HR03,HR035,05908,Primorski Dolac,770,32.43826354,2019,HR_05908,official,TRUE
HR_05916,17.23892271635492,43.383914291001254,HR,HR03,HR035,05916,Runovići,2416,59.30001415,2019,HR_05916,official,TRUE
HR_05924,16.476974792127244,43.38358868863626,HR,HR03,HR035,05924,Sutivan,822,21.82765128,2019,HR_05924,official,TRUE
HR_05932,17.05724498381029,43.27140225974172,HR,HR03,HR035,05932,Tučepi,1931,22.47624486,2019,HR_05932,official,TRUE
HR_05959,16.89509160131989,43.43145477063921,HR,HR03,HR035,05959,Zadvarje,289,13.04628934,2019,HR_05959,official,TRUE
HR_05967,13.8332651295855,45.29074156900785,HR,HR03,HR036,05967,Karojba,1438,34.64949479,2019,HR_05967,official,TRUE
HR_05975,13.686530624511908,45.30063360716019,HR,HR03,HR036,05975,Kaštelir-Labinci - Castelliere-S. Domenica,1463,35.18388619,2019,HR_05975,official,TRUE
HR_05983,17.83192237444254,42.81849184171058,HR,HR03,HR037,05983,Dubrovačko Primorje,2170,197.56715442,2019,HR_05983,official,TRUE
HR_05991,17.434768203552235,42.93125733275004,HR,HR03,HR037,05991,Janjina,551,30.02951978,2019,HR_05991,official,TRUE
HR_06009,17.17066659518922,42.92215762998057,HR,HR03,HR037,06009,Lumbarda,1213,10.70707112,2019,HR_06009,official,TRUE
HR_06017,17.27072873063723,43.0040448905629,HR,HR03,HR037,06017,Trpanj,721,35.53505249,2019,HR_06017,official,TRUE
HR_06025,18.186267315361167,42.62767705821772,HR,HR03,HR037,06025,Župa Dubrovačka,8331,22.85409553,2019,HR_06025,official,TRUE
HR_06033,16.582316754077812,46.449942931420814,HR,HR04,HR046,06033,Dekanovec,774,6.04841266,2019,HR_06033,official,TRUE
HR_06041,16.32091000695025,46.4332203169838,HR,HR04,HR046,06041,Gornji Mihaljevec,1917,32.10903453,2019,HR_06041,official,TRUE
HR_06050,16.508644351035247,46.32658743135217,HR,HR04,HR046,06050,Orehovica,2685,21.55494828,2019,HR_06050,official,TRUE
HR_06068,16.415293013453716,46.37121127485805,HR,HR04,HR046,06068,Strahoninec,2682,8.35112334,2019,HR_06068,official,TRUE
HR_06076,16.740195372768465,46.3330803973045,HR,HR04,HR046,06076,Sveta Marija,2317,23.03405765,2019,HR_06076,official,TRUE
HR_06084,16.419927894586827,46.40821949992948,HR,HR04,HR046,06084,Šenkovec,2879,9.01163145,2019,HR_06084,official,TRUE
HR_06092,18.572151727129043,45.705424116797445,HR,HR04,HR04B,06092,Jagodnjak,2023,102.43162633,2019,HR_06092,official,TRUE
HR_06106,18.71881311895783,45.355788461307284,HR,HR04,HR04C,06106,Markušica,2555,73.75100396,2019,HR_06106,official,TRUE
HR_06122,18.998859531368446,45.27922377679116,HR,HR04,HR04C,06122,Negoslavci,1463,21.21506049,2019,HR_06122,official,TRUE
HR_06149,18.63541663042339,45.4073962526124,HR,HR04,HR04B,06149,Šodolovci,1653,73.35249401,2019,HR_06149,official,TRUE
HR_06165,17.215591824282708,46.001931151470465,HR,HR04,HR045,06165,Podravske Sesvete,1630,29.13112072,2019,HR_06165,official,TRUE
HR_06173,15.59135026182328,43.81761618195395,HR,HR03,HR034,06173,Murter - Kornati,2044,77.54848067,2019,HR_06173,official,TRUE
HR_06181,16.388292914208012,46.095628218722325,HR,HR04,HR045,06181,Gornja Rijeka,1779,32.64330344,2019,HR_06181,official,TRUE
HR_06190,13.812041287856992,44.921115156841225,HR,HR03,HR036,06190,Fažana - Fasana,3635,13.62850801,2019,HR_06190,official,TRUE
HR_06203,16.481030433765305,46.39153018464375,HR,HR04,HR046,06203,Pribislavec,3136,11.10804999,2019,HR_06203,official,TRUE
HR_06211,15.898430644508432,43.764493705654324,HR,HR03,HR034,06211,Bilice,2307,20.94574019,2019,HR_06211,official,TRUE
HR_06220,14.94722516485423,44.49077557979171,HR,HR03,HR033,06220,Kolan,791,28.83794043,2019,HR_06220,official,TRUE
HR_06238,15.390338109537241,45.63348613422226,HR,HR04,HR04D,06238,Kamanje,891,14.63629452,2019,HR_06238,official,TRUE
HR_06246,14.733467868206787,44.83174167876914,HR,HR03,HR031,06246,Lopar,1263,26.16427933,2019,HR_06246,official,TRUE
HR_06254,15.23757537304954,44.2566287996545,HR,HR03,HR033,06254,Vrsi,2053,37.02148301,2019,HR_06254,official,TRUE
HR_06262,15.744937543517043,43.75993194560495,HR,HR03,HR034,06262,Tribunj,1536,15.220572,2019,HR_06262,official,TRUE
HR_06289,18.638129563331113,45.097742960621034,HR,HR04,HR04C,06289,Štitar,2129,40.39886897,2019,HR_06289,official,TRUE
HR_06297,13.602539904015007,45.17684907402376,HR,HR03,HR036,06297,Funtana - Fontane,907,7.89602672,2019,HR_06297,official,TRUE
HR_06319,13.622551907227654,45.299256793774966,HR,HR03,HR036,06319,Tar-Vabriga - Torre-Abrega,1990,27.05423823,2019,HR_06319,official,TRUE
