gisco_id,longitude,latitude,country,nuts_2,nuts_3,lau_id,lau_name,population,area_km2,year,fid,concordance,pop_weighted
SE_0114,17.91645444744292,59.51786851727628,SE,SE11,SE110,0114,Upplands Väsby,45543,83.96948149,2019,SE_0114,official,TRUE
SE_0115,18.078200407857924,59.53198673611893,SE,SE11,SE110,0115,Vallentuna,33432,370.81626013,2019,SE_0115,official,TRUE
SE_0117,18.31153326796701,59.480409141691254,SE,SE11,SE110,0117,Österåker,44831,318.60541395,2019,SE_0117,official,TRUE
SE_0120,18.41772768038337,59.31940302387563,SE,SE11,SE110,0120,Värmdö,44397,427.40934579,2019,SE_0120,official,TRUE
SE_0123,17.829553538049915,59.42225179609401,SE,SE11,SE110,0123,Järfälla,78480,63.38871307,2019,SE_0123,official,TRUE
SE_0125,17.78498344279362,59.29316579402305,SE,SE11,SE110,0125,Ekerö,28308,385.29319655,2019,SE_0125,official,TRUE
SE_0126,18.004927984627443,59.237027471754416,SE,SE11,SE110,0126,Huddinge,111722,140.41155874,2019,SE_0126,official,TRUE
SE_0127,17.842673584980794,59.227752093108315,SE,SE11,SE110,0127,Botkyrka,93106,210.32031223,2019,SE_0127,official,TRUE
SE_0128,17.764273655773145,59.19948780818396,SE,SE11,SE110,0128,Salem,16786,72.03588206,2019,SE_0128,official,TRUE
SE_0136,18.145953235519496,59.160007807562444,SE,SE11,SE110,0136,Haninge,89989,449.17218427,2019,SE_0136,official,TRUE
SE_0138,18.229059118390147,59.235223807279134,SE,SE11,SE110,0138,Tyresö,48004,72.62276261,2019,SE_0138,official,TRUE
SE_0139,17.699217812698738,59.50137056235384,SE,SE11,SE110,0139,Upplands-Bro,28756,326.45649668,2019,SE_0139,official,TRUE
SE_0140,17.429857760284616,59.175993373535306,SE,SE11,SE110,0140,Nykvarn,10923,177.4838479,2019,SE_0140,official,TRUE
SE_0160,18.07420244401546,59.45262543840658,SE,SE11,SE110,0160,Täby,71397,66.68733979,2019,SE_0160,official,TRUE
SE_0162,18.04548400851989,59.404549520316195,SE,SE11,SE110,0162,Danderyd,33187,26.70320616,2019,SE_0162,official,TRUE
SE_0163,17.947095950424295,59.43705711238406,SE,SE11,SE110,0163,Sollentuna,72528,57.9470044,2019,SE_0163,official,TRUE
SE_0180,18.028669028999634,59.32360714865577,SE,SE11,SE110,0180,Stockholm,962154,209.97542229,2019,SE_0180,official,TRUE
SE_0181,17.612553019857074,59.190359391391546,SE,SE11,SE110,0181,Södertälje,97381,609.47622105,2019,SE_0181,official,TRUE
SE_0182,18.20881780579537,59.302826621196246,SE,SE11,SE110,0182,Nacka,103656,100.3052918,2019,SE_0182,official,TRUE
SE_0183,17.9645225409567,59.3685189365763,SE,SE11,SE110,0183,Sundbyberg,50564,7.64294357,2019,SE_0183,official,TRUE
SE_0184,17.998638308330833,59.360189495384674,SE,SE11,SE110,0184,Solna,80950,20.97233166,2019,SE_0184,official,TRUE
SE_0186,18.159732086084386,59.358390435210396,SE,SE11,SE110,0186,Lidingö,47818,31.79891317,2019,SE_0186,official,TRUE
SE_0187,18.322037407909992,59.41457804534371,SE,SE11,SE110,0187,Vaxholm,12023,58.39530328,2019,SE_0187,official,TRUE
SE_0188,18.655757744911742,59.778747637922166,SE,SE11,SE110,0188,Norrtälje,61769,2093.44835157,2019,SE_0188,official,TRUE
SE_0191,17.826107328011474,59.620912041821704,SE,SE11,SE110,0191,Sigtuna,48130,350.40436686,2019,SE_0191,official,TRUE
SE_0192,17.930769682470224,58.92351111808649,SE,SE11,SE110,0192,Nynäshamn,28290,359.7992664,2019,SE_0192,official,TRUE
SE_0305,17.52133729185069,59.57544944987839,SE,SE12,SE121,0305,Håbo,21564,190.094946,2019,SE_0305,official,TRUE
SE_0319,17.420195287695634,60.61714633041737,SE,SE12,SE121,0319,Älvkarleby,9392,231.83244872,2019,SE_0319,official,TRUE
SE_0330,17.786334786873056,59.73684078860738,SE,SE12,SE121,0330,Knivsta,18720,297.68231718,2019,SE_0330,official,TRUE
SE_0331,17.0044968868864,60.041024257821576,SE,SE12,SE121,0331,Heby,13910,1231.38455365,2019,SE_0331,official,TRUE
SE_0360,17.517250469835915,60.3424493465101,SE,SE12,SE121,0360,Tierp,21127,1605.30899156,2019,SE_0360,official,TRUE
SE_0380,17.63841316994446,59.86006071231652,SE,SE12,SE121,0380,Uppsala,225164,2248.04811365,2019,SE_0380,official,TRUE
SE_0381,17.0829330118957,59.64025260956169,SE,SE12,SE121,0381,Enköping,44429,1329.47695293,2019,SE_0381,official,TRUE
SE_0382,18.206021114264992,60.20160201663191,SE,SE12,SE121,0382,Östhammar,22048,1488.49864193,2019,SE_0382,official,TRUE
SE_0428,15.877044439449199,59.04035170121152,SE,SE12,SE122,0428,Vingåker,9136,443.22564359,2019,SE_0428,official,TRUE
SE_0461,17.294030058703044,59.04815726688286,SE,SE12,SE122,0461,Gnesta,11237,539.83297592,2019,SE_0461,official,TRUE
SE_0480,17.009658605940352,58.75643694314153,SE,SE12,SE122,0480,Nyköping,56011,1553.08623162,2019,SE_0480,official,TRUE
SE_0481,17.090719122717278,58.674378054308484,SE,SE12,SE122,0481,Oxelösund,12062,32.85342393,2019,SE_0481,official,TRUE
SE_0482,16.610114917031204,59.07272992013695,SE,SE12,SE122,0482,Flen,16705,830.6708698,2019,SE_0482,official,TRUE
SE_0483,16.210350899107283,58.9935797160447,SE,SE12,SE122,0483,Katrineholm,34550,1196.02031969,2019,SE_0483,official,TRUE
SE_0484,16.508046675773723,59.37038239603839,SE,SE12,SE122,0484,Eskilstuna,105924,1258.926553,2019,SE_0484,official,TRUE
SE_0486,17.051708678627694,59.355387215861754,SE,SE12,SE122,0486,Strängnäs,35761,982.37272316,2019,SE_0486,official,TRUE
SE_0488,17.53073463594608,58.91620262757409,SE,SE12,SE122,0488,Trosa,13309,212.66017166,2019,SE_0488,official,TRUE
SE_0509,14.655882491628674,58.23213565357943,SE,SE12,SE123,0509,Ödeshög,5323,672.91389209,2019,SE_0509,official,TRUE
SE_0512,15.219589621050163,57.8525580303466,SE,SE12,SE123,0512,Ydre,3743,782.03894918,2019,SE_0512,official,TRUE
SE_0513,15.656025567300164,58.02008323635975,SE,SE12,SE123,0513,Kinda,9915,1308.6639773,2019,SE_0513,official,TRUE
SE_0560,15.056047485326461,58.200199083785435,SE,SE12,SE123,0560,Boxholm,5449,607.6141474,2019,SE_0560,official,TRUE
SE_0561,15.991656361825594,58.211143754659965,SE,SE12,SE123,0561,Åtvidaberg,11537,786.02857528,2019,SE_0561,official,TRUE
SE_0562,15.780561032131404,58.710395760069545,SE,SE12,SE123,0562,Finspång,21758,1221.47344977,2019,SE_0562,official,TRUE
SE_0563,16.56991839327957,58.22615593989864,SE,SE12,SE123,0563,Valdemarsvik,7956,769.49023152,2019,SE_0563,official,TRUE
SE_0580,15.616603221787994,58.40512830753288,SE,SE12,SE123,0580,Linköping,161034,1578.17043717,2019,SE_0580,official,TRUE
SE_0581,16.183395879772664,58.58749158452387,SE,SE12,SE123,0581,Norrköping,141676,1603.96950716,2019,SE_0581,official,TRUE
SE_0582,16.316192858462635,58.47568888014355,SE,SE12,SE123,0582,Söderköping,14618,681.52610983,2019,SE_0582,official,TRUE
SE_0583,15.046573992204664,58.54314864115483,SE,SE12,SE123,0583,Motala,43687,1275.00991203,2019,SE_0583,official,TRUE
SE_0584,14.89851997567381,58.44587638665082,SE,SE12,SE123,0584,Vadstena,7514,414.1626193,2019,SE_0584,official,TRUE
SE_0586,15.136960211523643,58.33322498577656,SE,SE12,SE123,0586,Mjölby,27373,558.84853485,2019,SE_0586,official,TRUE
SE_0604,14.817306955529526,57.84142792763399,SE,SE21,SE211,0604,Aneby,6832,556.8480417,2019,SE_0604,official,TRUE
SE_0617,13.75941324225269,57.34770873208926,SE,SE21,SE211,0617,Gnosjö,9776,451.96298404,2019,SE_0617,official,TRUE
SE_0642,13.875923632935024,57.9220023046994,SE,SE21,SE211,0642,Mullsjö,7324,212.08550121,2019,SE_0642,official,TRUE
SE_0643,14.079070062803781,57.910199506129864,SE,SE21,SE211,0643,Habo,12140,462.13839966,2019,SE_0643,official,TRUE
SE_0662,13.532747100222739,57.270844503744705,SE,SE21,SE211,0662,Gislaved,29857,1223.8341702,2019,SE_0662,official,TRUE
SE_0665,14.12559367860932,57.47248467653781,SE,SE21,SE211,0665,Vaggeryd,13980,860.06287237,2019,SE_0665,official,TRUE
SE_0680,14.18887724710245,57.778680071393495,SE,SE21,SE211,0680,Jönköping,139222,1937.39461137,2019,SE_0680,official,TRUE
SE_0682,14.690528820638912,57.651817145568245,SE,SE21,SE211,0682,Nässjö,31477,994.23699466,2019,SE_0682,official,TRUE
SE_0683,14.041500362686246,57.177493952641136,SE,SE21,SE211,0683,Värnamo,34428,1390.10666643,2019,SE_0683,official,TRUE
SE_0684,14.64220185115131,57.38605495507493,SE,SE21,SE211,0684,Sävsjö,11631,733.24538577,2019,SE_0684,official,TRUE
SE_0685,15.075751110036558,57.42223900481169,SE,SE21,SE211,0685,Vetlanda,27504,1606.84738544,2019,SE_0685,official,TRUE
SE_0686,15.003598594244568,57.66256505699666,SE,SE21,SE211,0686,Eksjö,17667,877.46272657,2019,SE_0686,official,TRUE
SE_0687,14.975213816980897,58.034995612933116,SE,SE21,SE211,0687,Tranås,18987,440.41346083,2019,SE_0687,official,TRUE
SE_0760,15.345983905289332,57.10716463257717,SE,SE21,SE212,0760,Uppvidinge,9581,1233.49850835,2019,SE_0760,official,TRUE
SE_0761,15.235299073547582,56.768786842764854,SE,SE21,SE212,0761,Lessebo,8780,458.09389559,2019,SE_0761,official,TRUE
SE_0763,14.933582715153737,56.53114496521971,SE,SE21,SE212,0763,Tingsryd,12407,1212.4887516,2019,SE_0763,official,TRUE
SE_0764,14.549838900750503,56.90045517220269,SE,SE21,SE212,0764,Alvesta,20150,1080.36369801,2019,SE_0764,official,TRUE
SE_0765,14.141041503153225,56.55664101732783,SE,SE21,SE212,0765,Älmhult,17568,981.02453483,2019,SE_0765,official,TRUE
SE_0767,13.646626591945568,56.494950242906384,SE,SE21,SE212,0767,Markaryd,10260,535.83852589,2019,SE_0767,official,TRUE
SE_0780,14.806742459889318,56.888135632584984,SE,SE21,SE212,0780,Växjö,92567,1923.0388298,2019,SE_0780,official,TRUE
SE_0781,13.940656084304518,56.83529713881461,SE,SE21,SE212,0781,Ljungby,28573,2002.3340957,2019,SE_0781,official,TRUE
SE_0821,16.021880510131115,57.16671318409658,SE,SE21,SE213,0821,Högsby,6094,803.97858966,2019,SE_0821,official,TRUE
SE_0834,16.025982323890226,56.4149318035227,SE,SE21,SE213,0834,Torsås,7098,471.70950976,2019,SE_0834,official,TRUE
SE_0840,16.473764854702928,56.63044326963216,SE,SE21,SE213,0840,Mörbylånga,15048,669.45892387,2019,SE_0840,official,TRUE
SE_0860,15.80910324066804,57.459473074896,SE,SE21,SE213,0860,Hultsfred,14360,1196.00237246,2019,SE_0860,official,TRUE
SE_0861,16.415603810599155,57.02566647642593,SE,SE21,SE213,0861,Mönsterås,13565,602.52493865,2019,SE_0861,official,TRUE
SE_0862,15.540468293264174,56.62833213300339,SE,SE21,SE213,0862,Emmaboda,9400,722.39736915,2019,SE_0862,official,TRUE
SE_0880,16.333179752124387,56.68218162656762,SE,SE21,SE213,0880,Kalmar,68510,961.29948049,2019,SE_0880,official,TRUE
SE_0881,15.909116962866522,56.74719074605974,SE,SE21,SE213,0881,Nybro,20350,1208.33933338,2019,SE_0881,official,TRUE
SE_0882,16.447226710137773,57.263383513267286,SE,SE21,SE213,0882,Oskarshamn,26928,1081.72692889,2019,SE_0882,official,TRUE
SE_0883,16.613328159830715,57.762584430173035,SE,SE21,SE213,0883,Västervik,36680,2012.74255066,2019,SE_0883,official,TRUE
SE_0884,15.856846969895098,57.67012558762873,SE,SE21,SE213,0884,Vimmerby,15764,1223.44314323,2019,SE_0884,official,TRUE
SE_0885,16.66973101863314,56.880209785392886,SE,SE21,SE213,0885,Borgholm,10873,681.77468249,2019,SE_0885,official,TRUE
SE_0980,18.309159183562123,57.61604188132452,SE,SE21,SE214,0980,Gotland,59249,3178.04635139,2019,SE_0980,official,TRUE
SE_1060,14.532538936657804,56.27764691617423,SE,SE22,SE221,1060,Olofström,13516,414.77268935,2019,SE_1060,official,TRUE
SE_1080,15.615921371138175,56.18667411013075,SE,SE22,SE221,1080,Karlskrona,66675,1063.46505699,2019,SE_1080,official,TRUE
SE_1081,15.276492824522022,56.21460134348367,SE,SE22,SE221,1081,Ronneby,29695,862.03008436,2019,SE_1081,official,TRUE
SE_1082,14.849029567395203,56.183719222167575,SE,SE22,SE221,1082,Karlshamn,32330,510.19281157,2019,SE_1082,official,TRUE
SE_1083,14.589572271190917,56.05254163029411,SE,SE22,SE221,1083,Sölvesborg,17468,187.84529989,2019,SE_1083,official,TRUE
SE_1214,13.099405883357322,55.908219981326624,SE,SE22,SE224,1214,Svalöv,14123,389.92940405,2019,SE_1214,official,TRUE
SE_1230,13.192233805986405,55.6488348032739,SE,SE22,SE224,1230,Staffanstorp,24724,107.71932154,2019,SE_1230,official,TRUE
SE_1231,13.084420603620545,55.638998116830784,SE,SE22,SE224,1231,Burlöv,18360,19.9992262,2019,SE_1231,official,TRUE
SE_1233,12.955787030954676,55.42795776636461,SE,SE22,SE224,1233,Vellinge,36499,144.86615936,2019,SE_1233,official,TRUE
SE_1256,14.098437208432372,56.23696789017497,SE,SE22,SE224,1256,Östra Göinge,14915,452.92754696,2019,SE_1256,official,TRUE
SE_1257,13.29797909506564,56.29124211602819,SE,SE22,SE224,1257,Örkelljunga,10174,333.27853466,2019,SE_1257,official,TRUE
SE_1260,12.93537932170066,56.068930099626776,SE,SE22,SE224,1260,Bjuv,15501,116.09112857,2019,SE_1260,official,TRUE
SE_1261,13.056082508903138,55.77966491545671,SE,SE22,SE224,1261,Kävlinge,31491,155.02440116,2019,SE_1261,official,TRUE
SE_1262,13.061151158305968,55.69045319170869,SE,SE22,SE224,1262,Lomma,24763,56.30581526,2019,SE_1262,official,TRUE
SE_1263,13.224523390496348,55.52834270421147,SE,SE22,SE224,1263,Svedala,21576,227.70380817,2019,SE_1263,official,TRUE
SE_1264,13.511855230201583,55.47542729864519,SE,SE22,SE224,1264,Skurup,15759,195.91562614,2019,SE_1264,official,TRUE
SE_1265,13.70555652664665,55.635261286242745,SE,SE22,SE224,1265,Sjöbo,19153,509.03136217,2019,SE_1265,official,TRUE
SE_1266,13.66233850274656,55.85246719679115,SE,SE22,SE224,1266,Hörby,15635,433.87964244,2019,SE_1266,official,TRUE
SE_1267,13.545885910853865,55.9332135749272,SE,SE22,SE224,1267,Höör,16637,321.58604821,2019,SE_1267,official,TRUE
SE_1270,13.959011083935854,55.548490056351206,SE,SE22,SE224,1270,Tomelilla,13557,398.4263931,2019,SE_1270,official,TRUE
SE_1272,14.479021619684904,56.08160932088406,SE,SE22,SE224,1272,Bromölla,12876,186.65741957,2019,SE_1272,official,TRUE
SE_1273,14.040776936024141,56.38682408027047,SE,SE22,SE224,1273,Osby,13267,602.2982353,2019,SE_1273,official,TRUE
SE_1275,13.393301018575485,56.14106425197546,SE,SE22,SE224,1275,Perstorp,7479,161.86455591,2019,SE_1275,official,TRUE
SE_1276,13.139920990267356,56.133734199044774,SE,SE22,SE224,1276,Klippan,17600,380.87483344,2019,SE_1276,official,TRUE
SE_1277,12.932324120897952,56.1278032851064,SE,SE22,SE224,1277,Åstorp,15987,93.40417494,2019,SE_1277,official,TRUE
SE_1278,12.830969966432672,56.40539878170731,SE,SE22,SE224,1278,Båstad,14948,218.87003905,2019,SE_1278,official,TRUE
SE_1280,13.006016580975567,55.58765738339172,SE,SE22,SE224,1280,Malmö,339313,158.51001132,2019,SE_1280,official,TRUE
SE_1281,13.208305980301088,55.70322081710627,SE,SE22,SE224,1281,Lund,122948,442.75839852,2019,SE_1281,official,TRUE
SE_1282,12.838049168948345,55.87865623142266,SE,SE22,SE224,1282,Landskrona,45775,144.22499886,2019,SE_1282,official,TRUE
SE_1283,12.717153097733252,56.04864817926441,SE,SE22,SE224,1283,Helsingborg,145415,347.15274005,2019,SE_1283,official,TRUE
SE_1284,12.571412076649457,56.18931965003697,SE,SE22,SE224,1284,Höganäs,26566,144.55924763,2019,SE_1284,official,TRUE
SE_1285,13.300997976402678,55.839606125851724,SE,SE22,SE224,1285,Eslöv,33557,425.9343037,2019,SE_1285,official,TRUE
SE_1286,13.821226513710654,55.434901518009895,SE,SE22,SE224,1286,Ystad,30226,357.72798859,2019,SE_1286,official,TRUE
SE_1287,13.167273527136798,55.38028572308798,SE,SE22,SE224,1287,Trelleborg,44902,343.92916026,2019,SE_1287,official,TRUE
SE_1290,14.16804533730514,56.02401603068033,SE,SE22,SE224,1290,Kristianstad,84908,1346.42567151,2019,SE_1290,official,TRUE
SE_1291,14.306689609723735,55.544872459069396,SE,SE22,SE224,1291,Simrishamn,19278,395.5744887,2019,SE_1291,official,TRUE
SE_1292,12.870342988425028,56.248819557724254,SE,SE22,SE224,1292,Ängelholm,42131,431.85516276,2019,SE_1292,official,TRUE
SE_1293,13.759332796343747,56.16142940030611,SE,SE22,SE224,1293,Hässleholm,52121,1314.59194915,2019,SE_1293,official,TRUE
SE_1315,13.227817861700728,56.99177448575482,SE,SE23,SE231,1315,Hylte,10914,1053.94324382,2019,SE_1315,official,TRUE
SE_1380,12.869403335473567,56.67570371372117,SE,SE23,SE231,1380,Halmstad,101268,1034.29687949,2019,SE_1380,official,TRUE
SE_1381,13.049549255544878,56.504968360475665,SE,SE23,SE231,1381,Laholm,25491,906.53805445,2019,SE_1381,official,TRUE
SE_1382,12.50512705522546,56.907140044317046,SE,SE23,SE231,1382,Falkenberg,44701,1162.4558792,2019,SE_1382,official,TRUE
SE_1383,12.268179755572618,57.11134531869407,SE,SE23,SE231,1383,Varberg,63630,914.14556436,2019,SE_1383,official,TRUE
SE_1384,12.063769135356695,57.473612672168066,SE,SE23,SE231,1384,Kungsbacka,83348,641.26206916,2019,SE_1384,official,TRUE
SE_1401,12.170129940170593,57.66673200735965,SE,SE23,SE232,1401,Härryda,37802,294.58625916,2019,SE_1401,official,TRUE
SE_1402,12.102375473853137,57.728841044663284,SE,SE23,SE232,1402,Partille,38443,58.88888938,2019,SE_1402,official,TRUE
SE_1407,11.650065972539107,57.69868941308852,SE,SE23,SE232,1407,Öckerö,12945,24.173098,2019,SE_1407,official,TRUE
SE_1415,11.836513025466495,58.05922403157233,SE,SE23,SE232,1415,Stenungsund,26503,266.33599901,2019,SE_1415,official,TRUE
SE_1419,11.641259139333357,58.007732237469185,SE,SE23,SE232,1419,Tjörn,15922,162.64194774,2019,SE_1419,official,TRUE
SE_1421,11.687297009425647,58.19056427724529,SE,SE23,SE232,1421,Orust,15110,388.30442972,2019,SE_1421,official,TRUE
SE_1427,11.279416062586927,58.39473747155552,SE,SE23,SE232,1427,Sotenäs,9030,136.21142418,2019,SE_1427,official,TRUE
SE_1430,11.660269992823771,58.48919392378462,SE,SE23,SE232,1430,Munkedal,10503,669.64179716,2019,SE_1430,official,TRUE
SE_1435,11.299665871228784,58.68554053546962,SE,SE23,SE232,1435,Tanum,12873,952.52366233,2019,SE_1435,official,TRUE
SE_1438,11.921325320988156,58.90950437936247,SE,SE23,SE232,1438,Dals-Ed,4806,830.59479492,2019,SE_1438,official,TRUE
SE_1439,12.007708296483163,58.58371081442214,SE,SE23,SE232,1439,Färgelanda,6602,621.64290429,2019,SE_1439,official,TRUE
SE_1440,12.070376014878011,57.89385642605382,SE,SE23,SE232,1440,Ale,30926,333.60726113,2019,SE_1440,official,TRUE
SE_1441,12.29769514384931,57.79203910800742,SE,SE23,SE232,1441,Lerum,42137,312.2854452,2019,SE_1441,official,TRUE
SE_1442,12.808712456061016,58.031033164835414,SE,SE23,SE232,1442,Vårgårda,11658,444.23487667,2019,SE_1442,official,TRUE
SE_1443,12.57591565739297,57.675062896293674,SE,SE23,SE232,1443,Bollebygd,9427,284.1840514,2019,SE_1443,official,TRUE
SE_1444,12.68155028136859,58.33256271181202,SE,SE23,SE232,1444,Grästorp,5731,282.89034777,2019,SE_1444,official,TRUE
SE_1445,12.725388215964012,58.189567461693485,SE,SE23,SE232,1445,Essunga,5671,235.21976042,2019,SE_1445,official,TRUE
SE_1446,14.477087007095523,58.53182733514706,SE,SE23,SE232,1446,Karlsborg,6941,802.35365704,2019,SE_1446,official,TRUE
SE_1447,14.148183135843134,58.913965579983056,SE,SE23,SE232,1447,Gullspång,5293,557.25448033,2019,SE_1447,official,TRUE
SE_1452,13.360211627933039,57.511325646862375,SE,SE23,SE232,1452,Tranemo,11874,783.77764018,2019,SE_1452,official,TRUE
SE_1460,12.243332114330281,58.98810592577033,SE,SE23,SE232,1460,Bengtsfors,9846,1063.91846909,2019,SE_1460,official,TRUE
SE_1461,12.453628389621619,58.70124597582308,SE,SE23,SE232,1461,Mellerud,9354,950.69929006,2019,SE_1461,official,TRUE
SE_1462,12.13186862048009,58.11967635893264,SE,SE23,SE232,1462,Lilla Edet,14046,344.13848284,2019,SE_1462,official,TRUE
SE_1463,12.664695576991905,57.50014959247807,SE,SE23,SE232,1463,Mark,34781,1018.01413876,2019,SE_1463,official,TRUE
SE_1465,13.097569535850154,57.492650463440064,SE,SE23,SE232,1465,Svenljunga,10683,991.05767553,2019,SE_1465,official,TRUE
SE_1466,13.030869894876776,58.06697339654722,SE,SE23,SE232,1466,Herrljunga,9494,511.60727593,2019,SE_1466,official,TRUE
SE_1470,12.977281400412387,58.26278904892491,SE,SE23,SE232,1470,Vara,15952,703.12459421,2019,SE_1470,official,TRUE
SE_1471,13.455685769458963,58.525030504803894,SE,SE23,SE232,1471,Götene,13232,626.23139098,2019,SE_1471,official,TRUE
SE_1472,14.168887624174213,58.42302352073648,SE,SE23,SE232,1472,Tibro,11168,235.72463108,2019,SE_1472,official,TRUE
SE_1473,14.128017061966766,58.708188645134456,SE,SE23,SE232,1473,Töreboda,9312,593.44643434,2019,SE_1473,official,TRUE
SE_1480,11.962794646036418,57.708225466451744,SE,SE23,SE232,1480,Göteborg,571868,455.98510256,2019,SE_1480,official,TRUE
SE_1481,12.01678681060541,57.64767873600308,SE,SE23,SE232,1481,Mölndal,68152,153.62493503,2019,SE_1481,official,TRUE
SE_1482,11.952913161528715,57.87487800693908,SE,SE23,SE232,1482,Kungälv,45086,369.20535829,2019,SE_1482,official,TRUE
SE_1484,11.447368135800513,58.29123577070342,SE,SE23,SE232,1484,Lysekil,14611,206.82823279,2019,SE_1484,official,TRUE
SE_1485,11.930055068178381,58.3529136608223,SE,SE23,SE232,1485,Uddevalla,56259,654.33600546,2019,SE_1485,official,TRUE
SE_1486,11.188685162304418,58.940567847752774,SE,SE23,SE232,1486,Strömstad,13253,474.33656637,2019,SE_1486,official,TRUE
SE_1487,12.340379479021456,58.37278684866177,SE,SE23,SE232,1487,Vänersborg,39411,902.26762344,2019,SE_1487,official,TRUE
SE_1488,12.29355313722349,58.275724546981984,SE,SE23,SE232,1488,Trollhättan,58728,430.06028561,2019,SE_1488,official,TRUE
SE_1489,12.529375002995419,57.933306200279006,SE,SE23,SE232,1489,Alingsås,41070,553.72873692,2019,SE_1489,official,TRUE
SE_1490,12.948460472079542,57.72508363929196,SE,SE23,SE232,1490,Borås,112178,973.61724692,2019,SE_1490,official,TRUE
SE_1491,13.417407195017839,57.79240698089236,SE,SE23,SE232,1491,Ulricehamn,24445,1122.20859635,2019,SE_1491,official,TRUE
SE_1492,12.696135048045047,59.052729389472006,SE,SE23,SE232,1492,Åmål,12720,892.93187991,2019,SE_1492,official,TRUE
SE_1493,13.820169073135505,58.70404397170161,SE,SE23,SE232,1493,Mariestad,24372,1513.09463313,2019,SE_1493,official,TRUE
SE_1494,13.151914351435444,58.49921810994418,SE,SE23,SE232,1494,Lidköping,39879,1378.9610153,2019,SE_1494,official,TRUE
SE_1495,13.438604027359109,58.3866091608033,SE,SE23,SE232,1495,Skara,18829,452.84006611,2019,SE_1495,official,TRUE
SE_1496,13.853346621493621,58.400853750047126,SE,SE23,SE232,1496,Skövde,55729,687.45966137999994,2019,SE_1496,official,TRUE
SE_1497,14.279913896221533,58.30468321872218,SE,SE23,SE232,1497,Hjo,9176,588.72580886,2019,SE_1497,official,TRUE
SE_1498,13.960297080473294,58.179364184821345,SE,SE23,SE232,1498,Tidaholm,12828,525.95399168,2019,SE_1498,official,TRUE
SE_1499,13.556808053826419,58.170515890375064,SE,SE23,SE232,1499,Falköping,33155,1069.60501583,2019,SE_1499,official,TRUE
SE_1715,13.314647969239756,59.504288835829,SE,SE31,SE311,1715,Kil,11962,409.39677089,2019,SE_1715,official,TRUE
SE_1730,12.303980021550187,59.857715185393886,SE,SE31,SE311,1730,Eda,8575,898.08232895,2019,SE_1730,official,TRUE
SE_1737,13.002793138462957,60.157512868900234,SE,SE31,SE311,1737,Torsby,11719,4381.13520373,2019,SE_1737,official,TRUE
SE_1760,14.282588139555275,59.52744468922008,SE,SE31,SE311,1760,Storfors,4055,475.78475442,2019,SE_1760,official,TRUE
SE_1761,13.492411568356092,59.32639346088294,SE,SE31,SE311,1761,Hammarö,16483,466.22280265,2019,SE_1761,official,TRUE
SE_1762,13.540378406951913,59.83360631698604,SE,SE31,SE311,1762,Munkfors,3789,148.44528025,2019,SE_1762,official,TRUE
SE_1763,13.479005486422636,59.544370018937784,SE,SE31,SE311,1763,Forshaga,11518,398.58536358,2019,SE_1763,official,TRUE
SE_1764,13.101319168233408,59.344363584690505,SE,SE31,SE311,1764,Grums,9016,481.27394723,2019,SE_1764,official,TRUE
SE_1765,12.059590109711356,59.418473016470394,SE,SE31,SE311,1765,Årjäng,10011,1661.75686873,2019,SE_1765,official,TRUE
SE_1766,13.1413930491654,59.8429219207892,SE,SE31,SE311,1766,Sunne,13261,1458.01693388,2019,SE_1766,official,TRUE
SE_1780,13.510100014185612,59.38940636513454,SE,SE31,SE311,1780,Karlstad,92497,1524.45981968,2019,SE_1780,official,TRUE
SE_1781,14.110693064558285,59.30797224294123,SE,SE31,SE311,1781,Kristinehamn,24336,1388.74116844,2019,SE_1781,official,TRUE
SE_1782,14.171602992082791,59.716182352922374,SE,SE31,SE311,1782,Filipstad,10837,1721.178534,2019,SE_1782,official,TRUE
SE_1783,13.6625317982678,60.05195873979891,SE,SE31,SE311,1783,Hagfors,11698,2013.36250088,2019,SE_1783,official,TRUE
SE_1784,12.593525071891877,59.658128871926316,SE,SE31,SE311,1784,Arvika,26082,1968.22338135,2019,SE_1784,official,TRUE
SE_1785,12.921775339493795,59.13506642471002,SE,SE31,SE311,1785,Säffle,15643,2514.53639181,2019,SE_1785,official,TRUE
SE_1814,14.85868269833564,59.18343148453234,SE,SE12,SE124,1814,Lekeberg,8116,484.15140833,2019,SE_1814,official,TRUE
SE_1860,14.614740046057403,58.9807946949044,SE,SE12,SE124,1860,Laxå,5637,743.01639557,2019,SE_1860,official,TRUE
SE_1861,15.13058367157174,59.06493861504677,SE,SE12,SE124,1861,Hallsberg,15954,672.09868701,2019,SE_1861,official,TRUE
SE_1862,14.43467783977593,59.23871606902257,SE,SE12,SE124,1862,Degerfors,9665,437.02452205,2019,SE_1862,official,TRUE
SE_1863,14.526312171131323,59.775284407708696,SE,SE12,SE124,1863,Hällefors,6983,1158.60224782,2019,SE_1863,official,TRUE
SE_1864,14.992369882378227,59.88055396630479,SE,SE12,SE124,1864,Ljusnarsberg,4846,632.95097474,2019,SE_1864,official,TRUE
SE_1880,15.209724406846513,59.27416792227908,SE,SE12,SE124,1880,Örebro,153367,1631.1630058,2019,SE_1880,official,TRUE
SE_1881,15.141906237828374,59.12703295237873,SE,SE12,SE124,1881,Kumla,21640,207.40255155,2019,SE_1881,official,TRUE
SE_1882,14.925085887346196,58.88963852942656,SE,SE12,SE124,1882,Askersund,11313,1024.51387571,2019,SE_1882,official,TRUE
SE_1883,14.51471523348235,59.32545124348012,SE,SE12,SE124,1883,Karlskoga,30419,514.50991801,2019,SE_1883,official,TRUE
SE_1884,15.028926183232167,59.520390992033256,SE,SE12,SE124,1884,Nora,10737,692.96009394,2019,SE_1884,official,TRUE
SE_1885,15.262811363952448,59.57528677641701,SE,SE12,SE124,1885,Lindesberg,23575,1488.87220445,2019,SE_1885,official,TRUE
SE_1904,15.6932972494451,59.82275091963928,SE,SE12,SE125,1904,Skinnskatteberg,4429,722.29061364,2019,SE_1904,official,TRUE
SE_1907,16.214694915617308,59.72355703532375,SE,SE12,SE125,1907,Surahammar,10088,370.54621615,2019,SE_1907,official,TRUE
SE_1960,16.090913264608865,59.422160176718926,SE,SE12,SE125,1960,Kungsör,8667,228.56055704,2019,SE_1960,official,TRUE
SE_1961,16.236900397454225,59.611846120453464,SE,SE12,SE125,1961,Hallstahammar,16186,181.77805261,2019,SE_1961,official,TRUE
SE_1962,15.928893926536462,60.06510503949713,SE,SE12,SE125,1962,Norberg,5795,450.82721199,2019,SE_1962,official,TRUE
SE_1980,16.54590387688393,59.61750162219285,SE,SE12,SE125,1980,Västerås,152078,1142.74308518,2019,SE_1980,official,TRUE
SE_1981,16.59440028938239,59.91797171583386,SE,SE12,SE125,1981,Sala,22816,1209.72111114,2019,SE_1981,official,TRUE
SE_1982,15.802628921457478,60.00420342879355,SE,SE12,SE125,1982,Fagersta,13464,310.95246047,2019,SE_1982,official,TRUE
SE_1983,15.988348408539547,59.520139395193176,SE,SE12,SE125,1983,Köping,26268,648.23842012,2019,SE_1983,official,TRUE
SE_1984,15.841345200808634,59.39363748531476,SE,SE12,SE125,1984,Arboga,14138,421.65825711,2019,SE_1984,official,TRUE
SE_2021,14.254645460786689,60.51347843592471,SE,SE31,SE312,2021,Vansbro,6807,1668.34281138,2019,SE_2021,official,TRUE
SE_2023,13.655922138756942,60.74069278448766,SE,SE31,SE312,2023,Malung-Sälen,10106,4338.12113389,2019,SE_2023,official,TRUE
SE_2026,15.054650963331209,60.538474779848876,SE,SE31,SE312,2026,Gagnef,10271,811.69229881,2019,SE_2026,official,TRUE
SE_2029,15.011885418952089,60.72188672093941,SE,SE31,SE312,2029,Leksand,15804,1423.7229741,2019,SE_2029,official,TRUE
SE_2031,15.114376787087084,60.89467390815695,SE,SE31,SE312,2031,Rättvik,10907,2151.86343551,2019,SE_2031,official,TRUE
SE_2034,14.6235581508128,61.11944639245648,SE,SE31,SE312,2034,Orsa,6892,1805.6610208500001,2019,SE_2034,official,TRUE
SE_2039,13.833215415503876,61.33007718906176,SE,SE31,SE312,2039,Älvdalen,7121,7190.41148318,2019,SE_2039,official,TRUE
SE_2061,15.414679021522216,60.14067972012963,SE,SE31,SE312,2061,Smedjebacken,10897,1064.83461662,2019,SE_2061,official,TRUE
SE_2062,14.547503696406741,61.00378075042975,SE,SE31,SE312,2062,Mora,20390,3131.09696482,2019,SE_2062,official,TRUE
SE_2080,15.637936079878605,60.613080483656574,SE,SE31,SE312,2080,Falun,58923,2287.08655956,2019,SE_2080,official,TRUE
SE_2081,15.422653313627125,60.491123790859525,SE,SE31,SE312,2081,Borlänge,52224,639.07547699,2019,SE_2081,official,TRUE
SE_2082,15.7315318986092,60.35550991486524,SE,SE31,SE312,2082,Säter,11123,627.51480288,2019,SE_2082,official,TRUE
SE_2083,15.982998147682409,60.290250601725226,SE,SE31,SE312,2083,Hedemora,15457,929.10600966,2019,SE_2083,official,TRUE
SE_2084,16.184814978544697,60.14538170673077,SE,SE31,SE312,2084,Avesta,23323,673.15782354,2019,SE_2084,official,TRUE
SE_2085,15.17215050325991,60.14235406158571,SE,SE31,SE312,2085,Ludvika,26946,1656.63672592,2019,SE_2085,official,TRUE
SE_2101,16.705780478323497,60.89878208477005,SE,SE31,SE313,2101,Ockelbo,5906,1135.99199568,2019,SE_2101,official,TRUE
SE_2104,16.292782788998473,60.54394618935035,SE,SE31,SE313,2104,Hofors,9602,449.0466975,2019,SE_2104,official,TRUE
SE_2121,15.881860469876173,61.36829528825982,SE,SE31,SE313,2121,Ovanåker,11684,2027.60687559,2019,SE_2121,official,TRUE
SE_2132,17.135246627122076,61.9759208857491,SE,SE31,SE313,2132,Nordanstig,9517,1458.16757396,2019,SE_2132,official,TRUE
SE_2161,16.08053863018738,61.819599452572064,SE,SE31,SE313,2161,Ljusdal,19033,5639.47828967,2019,SE_2161,official,TRUE
SE_2180,17.144262660456754,60.67201738441251,SE,SE31,SE313,2180,Gävle,101455,1770.8746484,2019,SE_2180,official,TRUE
SE_2181,16.753174888655998,60.61542281050943,SE,SE31,SE313,2181,Sandviken,39208,1304.96206804,2019,SE_2181,official,TRUE
SE_2182,17.05740297900208,61.29896686675082,SE,SE31,SE313,2182,Söderhamn,25721,1172.87040777,2019,SE_2182,official,TRUE
SE_2183,16.395708701626294,61.357626010836626,SE,SE31,SE313,2183,Bollnäs,26991,1989.4409154,2019,SE_2183,official,TRUE
SE_2184,17.069845803235616,61.722066233963915,SE,SE31,SE313,2184,Hudiksvall,37430,2756.65790388,2019,SE_2184,official,TRUE
SE_2260,15.816077252370587,62.51562497753835,SE,SE32,SE321,2260,Ånge,9411,3318.44027052,2019,SE_2260,official,TRUE
SE_2262,17.353849943969646,62.49468440790746,SE,SE32,SE321,2262,Timrå,18060,824.03930479,2019,SE_2262,official,TRUE
SE_2280,17.936400497749396,62.634192512151785,SE,SE32,SE321,2280,Härnösand,25120,1106.79287237,2019,SE_2280,official,TRUE
SE_2281,17.299536943082963,62.392170298508724,SE,SE32,SE321,2281,Sundsvall,98850,3470.4395724,2019,SE_2281,official,TRUE
SE_2282,17.807088465432862,62.93739830359482,SE,SE32,SE321,2282,Kramfors,18423,1795.23956682,2019,SE_2282,official,TRUE
SE_2283,17.229620131345232,63.1870188983775,SE,SE32,SE321,2283,Sollefteå,19500,5797.85015969,2019,SE_2283,official,TRUE
SE_2284,18.69440598709888,63.29306658832278,SE,SE32,SE321,2284,Örnsköldsvik,56089,6771.72652441,2019,SE_2284,official,TRUE
SE_2303,16.286841785935938,63.101874984323835,SE,SE32,SE322,2303,Ragunda,5343,2649.39757549,2019,SE_2303,official,TRUE
SE_2305,15.400597850897805,62.8211241904906,SE,SE32,SE322,2305,Bräcke,6376,3809.88184279,2019,SE_2305,official,TRUE
SE_2309,14.454609160391486,63.31175364142315,SE,SE32,SE322,2309,Krokom,14858,6857.53050043,2019,SE_2309,official,TRUE
SE_2313,15.578852897418408,63.861851130376664,SE,SE32,SE322,2313,Strömsund,11703,11858.34400663,2019,SE_2313,official,TRUE
SE_2321,13.25590141594178,63.36264880033844,SE,SE32,SE322,2321,Åre,11529,8287.82039113,2019,SE_2321,official,TRUE
SE_2326,14.409811766159669,62.80264242720411,SE,SE32,SE322,2326,Berg,7097,6182.44841536,2019,SE_2326,official,TRUE
SE_2361,14.076983484027783,62.13976871150495,SE,SE32,SE322,2361,Härjedalen,10147,11930.55418898,2019,SE_2361,official,TRUE
SE_2380,14.662712499138962,63.16930952864487,SE,SE32,SE322,2380,Östersund,63227,2512.33653263,2019,SE_2380,official,TRUE
SE_2401,19.488864264535803,63.57294617320488,SE,SE33,SE331,2401,Nordmaling,7118,1276.69095755,2019,SE_2401,official,TRUE
SE_2403,19.21372942965497,63.929576624680855,SE,SE33,SE331,2403,Bjurholm,2450,1376.0653021,2019,SE_2403,official,TRUE
SE_2404,19.706666873581835,64.20609700282888,SE,SE33,SE331,2404,Vindeln,5436,2863.96489241,2019,SE_2404,official,TRUE
SE_2409,20.868139479489248,64.1923612868147,SE,SE33,SE331,2409,Robertsfors,6762,1322.18093828,2019,SE_2409,official,TRUE
SE_2417,19.507851814458878,64.90723633995276,SE,SE33,SE331,2417,Norsjö,4094,1936.27283795,2019,SE_2417,official,TRUE
SE_2418,18.746619673083693,65.18738049822281,SE,SE33,SE331,2418,Malå,3122,1742.38557807,2019,SE_2418,official,TRUE
SE_2421,17.01899658318784,65.13220235380999,SE,SE33,SE331,2421,Storuman,5912,8289.54664838,2019,SE_2421,official,TRUE
SE_2422,17.506704864337248,65.53339261466633,SE,SE33,SE331,2422,Sorsele,2522,8009.97900564,2019,SE_2422,official,TRUE
SE_2425,16.402313151391315,64.26779875184623,SE,SE33,SE331,2425,Dorotea,2568,2965.08937116,2019,SE_2425,official,TRUE
SE_2460,19.76530097871583,63.90905965210015,SE,SE33,SE331,2460,Vännäs,8785,555.93415889,2019,SE_2460,official,TRUE
SE_2462,16.64314544057587,64.63021144085631,SE,SE33,SE331,2462,Vilhelmina,6752,8790.93295497,2019,SE_2462,official,TRUE
SE_2463,17.365073137055177,64.15816729865291,SE,SE33,SE331,2463,Åsele,2819,4577.38218495,2019,SE_2463,official,TRUE
SE_2480,20.28417608383866,63.8219308784437,SE,SE33,SE331,2480,Umeå,127119,2396.277046,2019,SE_2480,official,TRUE
SE_2481,18.677923579655403,64.59291107013738,SE,SE33,SE331,2481,Lycksele,12228,5923.02359936,2019,SE_2481,official,TRUE
SE_2482,20.981134901855288,64.74603715905515,SE,SE33,SE331,2482,Skellefteå,72467,7213.30139489,2019,SE_2482,official,TRUE
SE_2505,19.18614595021423,65.59152488762255,SE,SE33,SE332,2505,Arvidsjaur,6334,6164.20030417,2019,SE_2505,official,TRUE
SE_2506,17.883199018003904,66.04757069471886,SE,SE33,SE332,2506,Arjeplog,2794,14589.05414346,2019,SE_2506,official,TRUE
SE_2510,19.86041763019424,66.60107704213556,SE,SE33,SE332,2510,Jokkmokk,5001,19472.67674246,2019,SE_2510,official,TRUE
SE_2513,22.836511708445034,66.33116712365195,SE,SE33,SE332,2513,Överkalix,3302,2938.10694222,2019,SE_2513,official,TRUE
SE_2514,23.133901065122625,65.85841669044565,SE,SE33,SE332,2514,Kalix,16058,1915.48660955,2019,SE_2514,official,TRUE
SE_2518,23.656266762571224,66.40543559491341,SE,SE33,SE332,2518,Övertorneå,4410,2495.55052741,2019,SE_2518,official,TRUE
SE_2521,23.298026060561206,67.19361539817635,SE,SE33,SE332,2521,Pajala,6039,8116.00280785,2019,SE_2521,official,TRUE
SE_2523,20.673746454639595,67.14188631654365,SE,SE33,SE332,2523,Gällivare,17630,16939.25782365,2019,SE_2523,official,TRUE
SE_2560,20.985557086831385,65.67980722188312,SE,SE33,SE332,2560,Älvsbyn,8140,1808.66684708,2019,SE_2560,official,TRUE
SE_2580,22.15688266437778,65.60067560478029,SE,SE33,SE332,2580,Luleå,77832,2255.0699036,2019,SE_2580,official,TRUE
SE_2581,21.47324126696726,65.32418137572162,SE,SE33,SE332,2581,Piteå,42116,3254.01757347,2019,SE_2581,official,TRUE
SE_2582,21.69080454414479,65.81863098467745,SE,SE33,SE332,2582,Boden,28064,4316.18683584,2019,SE_2582,official,TRUE
SE_2583,24.122127062475972,65.837166148710807,SE,SE33,SE332,2583,Haparanda,9785,960.79638928,2019,SE_2583,official,TRUE
SE_2584,20.26771077154072,67.85085176317206,SE,SE33,SE332,2584,Kiruna,22992,20687.67137165,2019,SE_2584,official,TRUE
