gisco_id,longitude,latitude,country,nuts_2,nuts_3,lau_id,lau_name,population,area_km2,year,fid,concordance,pop_weighted
SI_001,13.907802097063653,45.88741463712608,SI,SI04,SI043,001,Ajdovščina,19249,245.22481222,2019,SI_001,official,TRUE
SI_002,16.229687738687485,46.608564193310194,SI,SI03,SI031,002,Beltinci,8104,62.2297581,2019,SI_002,official,TRUE
SI_003,14.114045640441601,46.367094161619086,SI,SI04,SI042,003,Bled,7835,72.2972893,2019,SI_003,official,TRUE
SI_004,13.944012068794617,46.2785717933233,SI,SI04,SI042,004,Bohinj,5105,333.76712746,2019,SI_004,official,TRUE
SI_005,14.361360035472714,45.92321991580968,SI,SI04,SI041,005,Borovnica,4483,42.32903883,2019,SI_005,official,TRUE
SI_006,13.545307931317428,46.333379476543456,SI,SI04,SI043,006,Bovec,3048,367.28340304,2019,SI_006,official,TRUE
SI_007,13.544628930694287,45.997064590203074,SI,SI04,SI043,007,Brda,5602,71.96947773,2019,SI_007,official,TRUE
SI_008,14.413446891537118,46.00075659727421,SI,SI04,SI041,008,Brezovica,12412,91.1813544,2019,SI_008,official,TRUE
SI_009,15.604177616688737,45.90565894799708,SI,SI03,SI036,009,Brežice,24084,267.89194746,2019,SI_009,official,TRUE
SI_010,16.08698803175522,46.65564745301185,SI,SI03,SI031,010,Tišina,3952,38.81076841,2019,SI_010,official,TRUE
SI_011,15.262233656100545,46.241306653849755,SI,SI03,SI034,011,Celje,49473,94.93270915,2019,SI_011,official,TRUE
SI_012,14.490690856417661,46.24880459219111,SI,SI04,SI042,012,Cerklje na Gorenjskem,7632,78.05325204,2019,SI_012,official,TRUE
SI_013,14.357033269506129,45.79821744691838,SI,SI03,SI038,013,Cerknica,11554,241.01221373,2019,SI_013,official,TRUE
SI_014,13.987765120498326,46.1279055538673,SI,SI04,SI043,014,Cerkno,4580,131.61291202,2019,SI_014,official,TRUE
SI_015,16.29049903326021,46.56322526650545,SI,SI03,SI031,015,Črenšovci,3949,33.69491965,2019,SI_015,official,TRUE
SI_016,14.849550706368934,46.4717418016737,SI,SI03,SI033,016,Črna na Koroškem,3303,155.95809752,2019,SI_016,official,TRUE
SI_017,15.191872239588957,45.57264783240889,SI,SI03,SI037,017,Črnomelj,14299,339.15346775,2019,SI_017,official,TRUE
SI_018,15.877179599479948,46.486411944057664,SI,SI03,SI032,018,Destrnik,2585,34.36104163,2019,SI_018,official,TRUE
SI_019,13.985658241033533,45.687179882121306,SI,SI04,SI044,019,Divača,4157,145.05529295,2019,SI_019,official,TRUE
SI_020,14.697807515340584,45.84330682654424,SI,SI04,SI041,020,Dobrepolje,3856,103.17690639,2019,SI_020,official,TRUE
SI_021,14.377937644421335,46.057925542165286,SI,SI04,SI041,021,Dobrova - Polhov Gradec,7664,117.48460332,2019,SI_021,official,TRUE
SI_022,14.658515959437523,46.09197845380009,SI,SI04,SI041,022,Dol pri Ljubljani,6218,33.2942927,2019,SI_022,official,TRUE
SI_023,14.600040586278523,46.14370088411744,SI,SI04,SI041,023,Domžale,36264,72.30082215,2019,SI_023,official,TRUE
SI_024,15.96083921398805,46.43535521852626,SI,SI03,SI032,024,Dornava,2892,28.40619796,2019,SI_024,official,TRUE
SI_025,15.025760512171006,46.58730411565311,SI,SI03,SI033,025,Dravograd,8783,105.05038801,2019,SI_025,official,TRUE
SI_026,15.749366485993773,46.50810968311499,SI,SI03,SI032,026,Duplek,6937,39.98731142,2019,SI_026,official,TRUE
SI_027,14.148848024682904,46.110113770013854,SI,SI04,SI042,027,Gorenja vas - Poljane,7539,153.2554597,2019,SI_027,official,TRUE
SI_028,16.009881855403766,46.40676819105903,SI,SI03,SI032,028,Gorišnica,4069,29.09858369,2019,SI_028,official,TRUE
SI_029,15.989779695262326,46.67078374399053,SI,SI03,SI031,029,Gornja Radgona,8392,74.60489901,2019,SI_029,official,TRUE
SI_030,14.811586945414035,46.2944790926268,SI,SI03,SI034,030,Gornji Grad,2511,90.11971365,2019,SI_030,official,TRUE
SI_031,16.205236750338837,46.81298860570764,SI,SI03,SI031,031,Gornji Petrovci,1985,66.86531207,2019,SI_031,official,TRUE
SI_032,14.654826535154308,45.9581574379807,SI,SI04,SI041,032,Grosuplje,21013,133.82727482,2019,SI_032,official,TRUE
SI_033,16.271328709148328,46.818355650049625,SI,SI03,SI031,033,Šalovci,1392,58.17312558,2019,SI_033,official,TRUE
SI_034,15.082693643612751,46.14436854956099,SI,SI03,SI035,034,Hrastnik,9154,58.58507831,2019,SI_034,official,TRUE
SI_035,13.948415697480016,45.6031954934095,SI,SI04,SI044,035,Hrpelje - Kozina,4467,194.88299926,2019,SI_035,official,TRUE
SI_036,14.023483956924707,46.002915658144964,SI,SI04,SI043,036,Idrija,11748,293.70360803,2019,SI_036,official,TRUE
SI_037,14.52493996987769,45.9535916149808,SI,SI04,SI041,037,Ig,7463,98.78020665,2019,SI_037,official,TRUE
SI_038,14.242307542964742,45.56658563079844,SI,SI03,SI038,038,Ilirska Bistrica,13340,479.904242,2019,SI_038,official,TRUE
SI_039,14.80540434041996,45.9378996201842,SI,SI04,SI041,039,Ivančna Gorica,16793,227.06097597,2019,SI_039,official,TRUE
SI_040,13.662374761873041,45.53336192573245,SI,SI04,SI044,040,Izola/Isola,16322,28.58846555,2019,SI_040,official,TRUE
SI_041,14.051432865419013,46.43798876846853,SI,SI04,SI042,041,Jesenice,20991,75.8583653,2019,SI_041,official,TRUE
SI_042,15.973854129024962,46.48546362671535,SI,SI03,SI032,042,Juršinci,2362,36.26658628,2019,SI_042,official,TRUE
SI_043,14.605545444993908,46.2174132277838,SI,SI04,SI041,043,Kamnik,29686,265.69003865,2019,SI_043,official,TRUE
SI_044,13.628032560547114,46.072749881992095,SI,SI04,SI043,044,Kanal,5301,146.52459495,2019,SI_044,official,TRUE
SI_045,15.776832515980693,46.39884857507661,SI,SI03,SI032,045,Kidričevo,6495,71.50742165,2019,SI_045,official,TRUE
SI_046,13.576371044981128,46.245444603384925,SI,SI04,SI043,046,Kobarid,4079,192.51581295,2019,SI_046,official,TRUE
SI_047,16.390206121229728,46.68719010736129,SI,SI03,SI031,047,Kobilje,542,19.73334901,2019,SI_047,official,TRUE
SI_048,14.860981017865754,45.64082015376383,SI,SI03,SI037,048,Kočevje,15686,555.22409311,2019,SI_048,official,TRUE
SI_049,13.76621172615908,45.81481892203731,SI,SI04,SI044,049,Komen,3534,102.68807226,2019,SI_049,official,TRUE
SI_050,13.72981053250689,45.538592201275456,SI,SI04,SI044,050,Koper/Capodistria,52234,303.21978246,2019,SI_050,official,TRUE
SI_051,15.553437525618225,46.07885485722103,SI,SI03,SI034,051,Kozje,3037,89.71002695,2019,SI_051,official,TRUE
SI_052,14.360479820190507,46.24159202544091,SI,SI04,SI042,052,Kranj,56267,150.93147203,2019,SI_052,official,TRUE
SI_053,13.847806225486288,46.47851132661719,SI,SI04,SI042,053,Kranjska Gora,5201,256.3516858,2019,SI_053,official,TRUE
SI_054,15.488202477893251,45.96438521297911,SI,SI03,SI036,054,Krško,25996,286.5179198,2019,SI_054,official,TRUE
SI_055,15.625032611538836,46.63131039092474,SI,SI03,SI032,055,Kungota,4705,48.97309796,2019,SI_055,official,TRUE
SI_056,16.08220592705013,46.83373593608587,SI,SI03,SI031,056,Kuzma,1573,22.83786658,2019,SI_056,official,TRUE
SI_057,15.233603783085943,46.15435059826484,SI,SI03,SI034,057,Laško,13006,197.50865012,2019,SI_057,official,TRUE
SI_058,15.824465097976377,46.57326238852028,SI,SI03,SI032,058,Lenart,8432,62.11020641,2019,SI_058,official,TRUE
SI_059,16.451256016777958,46.56026164164535,SI,SI03,SI031,059,Lendava/Lendva,10411,120.7001672,2019,SI_059,official,TRUE
SI_060,14.832666448146563,46.05882258061917,SI,SI03,SI035,060,Litija,15356,221.42656347,2019,SI_060,official,TRUE
SI_061,14.511122323420405,46.062429731731044,SI,SI04,SI041,061,Ljubljana,292988,275.04841528,2019,SI_061,official,TRUE
SI_062,14.83952526372627,46.342140677713516,SI,SI03,SI034,062,Ljubno,2541,78.93025625,2019,SI_062,official,TRUE
SI_063,16.19597700689868,46.51930562555486,SI,SI03,SI031,063,Ljutomer,11261,107.22988276,2019,SI_063,official,TRUE
SI_064,14.22320000549845,45.918590757625445,SI,SI04,SI041,064,Logatec,14150,173.09249709,2019,SI_064,official,TRUE
SI_065,14.477283855122446,45.70918785272907,SI,SI03,SI038,065,Loška dolina,3744,166.0947987,2019,SI_065,official,TRUE
SI_066,14.591949046495003,45.69814251022628,SI,SI03,SI037,066,Loški Potok,1798,134.48679829,2019,SI_066,official,TRUE
SI_067,14.747254026942704,46.356319653904514,SI,SI03,SI034,067,Luče,1462,109.47987215,2019,SI_067,official,TRUE
SI_068,14.696824306138398,46.16774077628767,SI,SI04,SI041,068,Lukovica,5838,74.92004343,2019,SI_068,official,TRUE
SI_069,15.73704620568585,46.34418998652189,SI,SI03,SI032,069,Majšperk,4042,72.79784131,2019,SI_069,official,TRUE
SI_070,15.642548537778623,46.54787689186202,SI,SI03,SI032,070,Maribor,112065,147.47949726,2019,SI_070,official,TRUE
SI_071,14.411199078817603,46.14314511948026,SI,SI04,SI041,071,Medvode,16573,77.59526129,2019,SI_071,official,TRUE
SI_072,14.57275982389595,46.16516690270248,SI,SI04,SI041,072,Mengeš,8117,22.46556589,2019,SI_072,official,TRUE
SI_073,15.313416425115264,45.648437078205085,SI,SI03,SI037,073,Metlika,8375,105.36333021,2019,SI_073,official,TRUE
SI_074,14.852606726185762,46.51906744848778,SI,SI03,SI033,074,Mežica,3565,26.45170255,2019,SI_074,official,TRUE
SI_075,13.610470685978427,45.885506395037346,SI,SI04,SI043,075,Miren - Kostanjevica,4949,62.76046022,2019,SI_075,official,TRUE
SI_076,15.19637902951133,46.444150325175,SI,SI03,SI033,076,Mislinja,4544,112.18832929,2019,SI_076,official,TRUE
SI_077,14.737539318072232,46.13384309101694,SI,SI04,SI041,077,Moravče,5414,61.38207681,2019,SI_077,official,TRUE
SI_078,16.24457896500441,46.68584299182529,SI,SI03,SI031,078,Moravske Toplice,5812,144.45447055,2019,SI_078,official,TRUE
SI_079,14.958126360156593,46.34048537504104,SI,SI03,SI034,079,Mozirje,4106,53.57445719,2019,SI_079,official,TRUE
SI_080,16.160266526273418,46.65840915956902,SI,SI03,SI031,080,Murska Sobota,18730,64.44604189,2019,SI_080,official,TRUE
SI_081,15.161044189113287,46.60967646052604,SI,SI03,SI033,081,Muta,3383,38.77161608,2019,SI_081,official,TRUE
SI_082,14.30761640718586,46.281297994251304,SI,SI04,SI042,082,Naklo,5422,28.29148911,2019,SI_082,official,TRUE
SI_083,14.941924313857593,46.31044038167904,SI,SI03,SI034,083,Nazarje,2623,43.4091253,2019,SI_083,official,TRUE
SI_084,13.647901434509906,45.956651215419335,SI,SI04,SI043,084,Nova Gorica,31799,279.50432239,2019,SI_084,official,TRUE
SI_085,15.166651838930381,45.800887538348945,SI,SI03,SI037,085,Novo mesto,37063,235.86213671,2019,SI_085,official,TRUE
SI_086,16.275842730279642,46.586658663935935,SI,SI03,SI031,086,Odranci,1641,6.93712831,2019,SI_086,official,TRUE
SI_087,16.139778577174614,46.41742262758017,SI,SI03,SI032,087,Ormož,11942,141.59837063,2019,SI_087,official,TRUE
SI_088,14.699836542268239,45.537890645233034,SI,SI03,SI037,088,Osilnica,369,36.22439219,2019,SI_088,official,TRUE
SI_089,15.694353614428294,46.614504008206545,SI,SI03,SI032,089,Pesnica,7331,75.86279545,2019,SI_089,official,TRUE
SI_090,13.600901081342478,45.5097098610222,SI,SI04,SI044,090,Piran/Pirano,17671,43.35813081,2019,SI_090,official,TRUE
SI_091,14.194872049722482,45.6770107778842,SI,SI03,SI038,091,Pivka,6162,223.28595404,2019,SI_091,official,TRUE
SI_092,15.591969044340859,46.151803270539645,SI,SI03,SI034,092,Podčetrtek,3430,60.84108536,2019,SI_092,official,TRUE
SI_093,15.330321531689215,46.592043088853956,SI,SI03,SI033,093,Podvelka,2355,103.89140861,2019,SI_093,official,TRUE
SI_094,14.213332773501655,45.772015902153065,SI,SI03,SI038,094,Postojna,16189,269.89205747,2019,SI_094,official,TRUE
SI_095,14.417181158797229,46.30168960504405,SI,SI04,SI042,095,Preddvor,3688,86.97256234,2019,SI_095,official,TRUE
SI_096,15.875385403707307,46.42654426104211,SI,SI03,SI032,096,Ptuj,23257,66.66212501,2019,SI_096,official,TRUE
SI_097,16.13549768848039,46.724305947421456,SI,SI03,SI031,097,Puconci,5881,107.66005857,2019,SI_097,official,TRUE
SI_098,15.660114789421344,46.45083185754254,SI,SI03,SI032,098,Rače - Fram,7371,51.24969028,2019,SI_098,official,TRUE
SI_099,15.180574629906667,46.06572192149432,SI,SI03,SI036,099,Radeče,4165,51.97800601,2019,SI_099,official,TRUE
SI_100,16.040066979102708,46.636418442303174,SI,SI03,SI031,100,Radenci,5108,34.12697799,2019,SI_100,official,TRUE
SI_101,15.22657637828119,46.61388548141062,SI,SI03,SI033,101,Radlje ob Dravi,6185,93.93409507,2019,SI_101,official,TRUE
SI_102,14.178447656720135,46.34744905685523,SI,SI04,SI042,102,Radovljica,19025,118.7146104,2019,SI_102,official,TRUE
SI_103,14.969108846031505,46.53944016684013,SI,SI03,SI033,103,Ravne na Koroškem,11294,63.47708747,2019,SI_103,official,TRUE
SI_104,14.730834474758092,45.73696075887789,SI,SI03,SI037,104,Ribnica,9483,153.65944476,2019,SI_104,official,TRUE
SI_105,16.034655273877178,46.80380576185457,SI,SI03,SI031,105,Rogašovci,3060,40.1860417,2019,SI_105,official,TRUE
SI_106,15.630317527196613,46.23995635432326,SI,SI03,SI034,106,Rogaška Slatina,11057,71.48300404,2019,SI_106,official,TRUE
SI_107,15.706739863439765,46.229434939453185,SI,SI03,SI034,107,Rogatec,3060,39.53406527,2019,SI_107,official,TRUE
SI_108,15.516292054089302,46.541106051163126,SI,SI03,SI032,108,Ruše,7070,60.82220686,2019,SI_108,official,TRUE
SI_109,15.183344616448709,45.65261368122777,SI,SI03,SI037,109,Semič,3824,146.6988704,2019,SI_109,official,TRUE
SI_110,15.291346372377994,46.01152117737285,SI,SI03,SI036,110,Sevnica,17537,272.22037968,2019,SI_110,official,TRUE
SI_111,13.869351847495997,45.70999635656791,SI,SI04,SI044,111,Sežana,13425,217.39600448,2019,SI_111,official,TRUE
SI_112,15.085497308531705,46.50544835090289,SI,SI03,SI033,112,Slovenj Gradec,16596,173.72630044,2019,SI_112,official,TRUE
SI_113,15.569814129574729,46.39381558474,SI,SI03,SI032,113,Slovenska Bistrica,25599,260.1235917,2019,SI_113,official,TRUE
SI_114,15.430534458817224,46.336646036206865,SI,SI03,SI034,114,Slovenske Konjice,14917,97.8673279,2019,SI_114,official,TRUE
SI_115,15.75570538117365,46.45831908364762,SI,SI03,SI032,115,Starše,3974,33.96874205,2019,SI_115,official,TRUE
SI_116,16.018608611916186,46.56455955452078,SI,SI03,SI031,116,Sveti Jurij ob Ščavnici,2806,51.31897835,2019,SI_116,official,TRUE
SI_117,14.41980074780614,46.246616895448994,SI,SI04,SI042,117,Šenčur,8650,40.29470384,2019,SI_117,official,TRUE
SI_118,15.679162125947173,46.683117518485766,SI,SI03,SI032,118,Šentilj,8438,64.99614948,2019,SI_118,official,TRUE
SI_119,15.334268147513773,45.8390046856056,SI,SI03,SI037,119,Šentjernej,7125,95.98885172,2019,SI_119,official,TRUE
SI_120,15.400673867270514,46.21781514909623,SI,SI03,SI034,120,Šentjur,19084,222.31319769,2019,SI_120,official,TRUE
SI_121,15.297448689520877,45.90558915104849,SI,SI03,SI037,121,Škocjan,3290,60.45391227,2019,SI_121,official,TRUE
SI_122,14.311567563752678,46.16957906857143,SI,SI04,SI042,122,Škofja Loka,23076,146.02649575,2019,SI_122,official,TRUE
SI_123,14.56871785815049,45.98195163990489,SI,SI04,SI041,123,Škofljica,11180,43.30441087,2019,SI_123,official,TRUE
SI_124,15.516831156791753,46.2287293981988,SI,SI03,SI034,124,Šmarje pri Jelšah,10256,107.64492185,2019,SI_124,official,TRUE
SI_125,15.032495996013663,46.331377371511934,SI,SI03,SI034,125,Šmartno ob Paki,3261,18.1590652,2019,SI_125,official,TRUE
SI_126,15.047736485549006,46.38255542869343,SI,SI03,SI034,126,Šoštanj,8701,95.61492885,2019,SI_126,official,TRUE
SI_127,15.319010928267971,46.21942285660496,SI,SI03,SI034,127,Štore,4616,28.15102124,2019,SI_127,official,TRUE
SI_128,13.741117344750226,46.181304183222494,SI,SI04,SI043,128,Tolmin,11073,382.33041852,2019,SI_128,official,TRUE
SI_129,15.0495197817184,46.150584313323556,SI,SI03,SI035,129,Trbovlje,16018,58.17327701,2019,SI_129,official,TRUE
SI_130,15.001820590336306,45.91037054485731,SI,SI03,SI037,130,Trebnje,12903,163.34485808,2019,SI_130,official,TRUE
SI_131,14.29677832824817,46.35534409365516,SI,SI04,SI042,131,Tržič,14880,155.42716946,2019,SI_131,official,TRUE
SI_132,16.316059778414807,46.62224712499438,SI,SI03,SI031,132,Turnišče,3194,23.84458519,2019,SI_132,official,TRUE
SI_133,15.117762562262145,46.36063104096815,SI,SI03,SI034,133,Velenje,33293,83.51421655,2019,SI_133,official,TRUE
SI_134,14.62655320889112,45.84084581426765,SI,SI04,SI041,134,Velike Lašče,4351,103.19599866,2019,SI_134,official,TRUE
SI_135,15.884442529229833,46.36938613573102,SI,SI03,SI032,135,Videm,5568,79.98255224,2019,SI_135,official,TRUE
SI_136,13.956539652087832,45.83785496240305,SI,SI04,SI043,136,Vipava,5600,107.41370098,2019,SI_136,official,TRUE
SI_137,15.297808510714153,46.38161351472838,SI,SI03,SI034,137,Vitanje,2262,59.39046025,2019,SI_137,official,TRUE
SI_138,14.497987739334494,46.17895388095291,SI,SI04,SI041,138,Vodice,4958,31.39668105,2019,SI_138,official,TRUE
SI_139,15.302258858075634,46.299161536613106,SI,SI03,SI034,139,Vojnik,8801,75.28523509,2019,SI_139,official,TRUE
SI_140,14.297080212350915,45.96624074096785,SI,SI04,SI041,140,Vrhnika,17272,115.61731538,2019,SI_140,official,TRUE
SI_141,15.162345817774767,46.594012181389964,SI,SI03,SI033,141,Vuzenica,2658,50.12801405,2019,SI_141,official,TRUE
SI_142,14.992013094001361,46.13320466857216,SI,SI03,SI035,142,Zagorje ob Savi,16434,147.15470194,2019,SI_142,official,TRUE
SI_143,16.04776920697374,46.35951760222301,SI,SI03,SI032,143,Zavrč,1525,19.30404248,2019,SI_143,official,TRUE
SI_144,15.386412537359853,46.373392880600775,SI,SI03,SI034,144,Zreče,6443,67.06208315,2019,SI_144,official,TRUE
SI_146,14.167257985246525,46.228119088318245,SI,SI04,SI042,146,Železniki,6689,163.81876093,2019,SI_146,official,TRUE
SI_147,14.112808314981992,46.051203625206306,SI,SI04,SI042,147,Žiri,4876,49.23019756,2019,SI_147,official,TRUE
SI_148,15.894115777480453,46.609547671587606,SI,SI03,SI032,148,Benedikt,2577,24.14487566,2019,SI_148,official,TRUE
SI_149,15.65242469512701,46.0587443583427,SI,SI03,SI036,149,Bistrica ob Sotli,1327,31.17445223,2019,SI_149,official,TRUE
SI_150,14.504019717681196,45.7767820885851,SI,SI03,SI038,150,Bloke,1555,75.08928212,2019,SI_150,official,TRUE
SI_151,15.05093718821406,46.279242294038035,SI,SI03,SI034,151,Braslovče,5523,54.99575504,2019,SI_151,official,TRUE
SI_152,16.02438728934868,46.730748430043036,SI,SI03,SI031,152,Cankova,1735,30.56529158,2019,SI_152,official,TRUE
SI_153,15.945816047829604,46.56380756225062,SI,SI03,SI032,153,Cerkvenjak,2058,24.54656249,2019,SI_153,official,TRUE
SI_154,15.39625333772273,46.13517787618018,SI,SI03,SI034,154,Dobje,966,17.48996283,2019,SI_154,official,TRUE
SI_155,15.22624159402071,46.33899034284529,SI,SI03,SI034,155,Dobrna,2226,31.66010407,2019,SI_155,official,TRUE
SI_156,16.34481148004758,46.65283099534165,SI,SI03,SI031,156,Dobrovnik/Dobronak,1284,31.12033357,2019,SI_156,official,TRUE
SI_157,15.05047684383227,45.75426373176263,SI,SI03,SI037,157,Dolenjske Toplice,3489,110.22937827,2019,SI_157,official,TRUE
SI_158,16.087463237411253,46.79649924282388,SI,SI03,SI031,158,Grad,2076,37.39912426,2019,SI_158,official,TRUE
SI_159,15.828073600387995,46.42107888082094,SI,SI03,SI032,159,Hajdina,3797,21.81712913,2019,SI_159,official,TRUE
SI_160,15.65627848434072,46.48619660220817,SI,SI03,SI032,160,Hoče - Slivnica,11768,53.7075699,2019,SI_160,official,TRUE
SI_161,16.325433760571244,46.82584399200225,SI,SI03,SI031,161,Hodoš/Hodos,354,18.11897197,2019,SI_161,official,TRUE
SI_162,14.295545529095799,46.02395666198014,SI,SI04,SI041,162,Horjul,3016,32.55981427,2019,SI_162,official,TRUE
SI_163,14.497921030943084,46.39548656102939,SI,SI04,SI042,163,Jezersko,634,68.78589429,2019,SI_163,official,TRUE
SI_164,14.54554164470872,46.199535499258154,SI,SI04,SI041,164,Komenda,6268,24.06396872,2019,SI_164,official,TRUE
SI_165,14.876041471012613,45.48442441106196,SI,SI03,SI037,165,Kostel,639,55.79083106,2019,SI_165,official,TRUE
SI_166,16.131455976246208,46.56083580106871,SI,SI03,SI031,166,Križevci,3560,46.2308041,2019,SI_166,official,TRUE
SI_167,15.39029498849782,46.53822240733321,SI,SI03,SI032,167,Lovrenc na Pohorju,2979,84.4568673,2019,SI_167,official,TRUE
SI_168,15.955092018176048,46.38859940780575,SI,SI03,SI032,168,Markovci,4014,29.83884995,2019,SI_168,official,TRUE
SI_169,15.698677474380348,46.49684300648423,SI,SI03,SI032,169,Miklavž na Dravskem polju,6744,12.53983229,2019,SI_169,official,TRUE
SI_170,15.08996541692492,45.860020592876516,SI,SI03,SI037,170,Mirna Peč,2974,48.04992001,2019,SI_170,official,TRUE
SI_171,15.445817021427557,46.386659758012286,SI,SI03,SI032,171,Oplotnica,4118,33.16077208,2019,SI_171,official,TRUE
SI_172,15.869589853338189,46.3201699143067,SI,SI03,SI032,172,Podlehnik,1817,46.02764636,2019,SI_172,official,TRUE
SI_173,15.079899493603548,46.277937406858435,SI,SI03,SI034,173,Polzela,6191,34.01328186,2019,SI_173,official,TRUE
SI_174,15.090791881278735,46.237351121935625,SI,SI03,SI034,174,Prebold,5084,40.64467052,2019,SI_174,official,TRUE
SI_175,14.920584684619406,46.54795420655733,SI,SI03,SI033,175,Prevalje,6794,58.07218319,2019,SI_175,official,TRUE
SI_176,16.276698430141263,46.5212477480127,SI,SI03,SI031,176,Razkrižje,1265,9.83036655,2019,SI_176,official,TRUE
SI_177,15.278320696913482,46.53302424758756,SI,SI03,SI033,177,Ribnica na Pohorju,1128,59.32952095,2019,SI_177,official,TRUE
SI_178,15.492106886361768,46.553888664243175,SI,SI03,SI032,178,Selnica ob Dravi,4494,64.48642155,2019,SI_178,official,TRUE
SI_179,14.632754110090932,45.76233523504506,SI,SI03,SI037,179,Sodražica,2177,49.4961152,2019,SI_179,official,TRUE
SI_180,14.691307962189219,46.41423355028705,SI,SI03,SI034,180,Solčava,514,102.75210157,2019,SI_180,official,TRUE
SI_181,15.838606686944864,46.650282511671065,SI,SI03,SI032,181,Sveta Ana,2285,37.16766209,2019,SI_181,official,TRUE
SI_182,15.948390157872579,46.52746274016995,SI,SI03,SI032,182,Sveti Andraž v Slov. goricah,1180,17.59741256,2019,SI_182,official,TRUE
SI_183,13.639086829134763,45.925599352543,SI,SI04,SI043,183,Šempeter - Vrtojba,6234,14.93054288,2019,SI_183,official,TRUE
SI_184,15.018688171164234,46.23717042360572,SI,SI03,SI034,184,Tabor,1645,34.70864015,2019,SI_184,official,TRUE
SI_185,15.88307267085254,46.51972481693751,SI,SI03,SI032,185,Trnovska vas,1359,22.89235222,2019,SI_185,official,TRUE
SI_186,14.559201439925502,46.13242434795928,SI,SI04,SI041,186,Trzin,3922,8.62298817,2019,SI_186,official,TRUE
SI_187,16.34496998309549,46.575203462707705,SI,SI03,SI031,187,Velika Polana,1416,18.65607268,2019,SI_187,official,TRUE
SI_188,16.16564847382318,46.58391933933135,SI,SI03,SI031,188,Veržej,1288,12.02205308,2019,SI_188,official,TRUE
SI_189,14.95616023149247,46.245305189176726,SI,SI03,SI034,189,Vransko,2616,53.35014766,2019,SI_189,official,TRUE
SI_190,15.156847748157853,46.24992086329959,SI,SI03,SI034,190,Žalec,21340,117.12789504,2019,SI_190,official,TRUE
SI_191,15.79411345899047,46.27942954132661,SI,SI03,SI032,191,Žetale,1293,38.1003933,2019,SI_191,official,TRUE
SI_192,14.1450748501223,46.39812348898747,SI,SI04,SI042,192,Žirovnica,4398,42.59020501,2019,SI_192,official,TRUE
SI_193,14.940689954927164,45.821917366362925,SI,SI03,SI037,193,Žužemberk,4628,164.37741399,2019,SI_193,official,TRUE
SI_194,14.844531384872708,46.04070529609969,SI,SI04,SI041,194,Šmartno pri Litiji,5603,94.91859042,2019,SI_194,official,TRUE
SI_195,15.896240096033557,46.69427417379588,SI,SI03,SI031,195,Apače,3516,53.45057533,2019,SI_195,official,TRUE
SI_196,15.992803440596544,46.34182499933477,SI,SI03,SI032,196,Cirkulane,2391,32.0854522,2019,SI_196,official,TRUE
SI_197,15.41879252787392,45.84064447769771,SI,SI03,SI036,197,Kostanjevica na Krki,2450,58.28956066,2019,SI_197,official,TRUE
SI_198,15.669108987018946,46.326349508632745,SI,SI03,SI032,198,Makole,2015,36.95086269,2019,SI_198,official,TRUE
SI_199,15.143776064718908,45.93759376545308,SI,SI03,SI037,199,Mokronog - Trebelno,3057,73.41313914,2019,SI_199,official,TRUE
SI_200,15.58069415183104,46.31090763314987,SI,SI03,SI032,200,Poljčane,4431,37.50296313,2019,SI_200,official,TRUE
SI_201,13.674401337435807,45.89279191599042,SI,SI04,SI043,201,Renče - Vogrsko,4354,29.4699059,2019,SI_201,official,TRUE
SI_202,16.263481205105407,46.39779646396049,SI,SI03,SI032,202,Središče ob Dravi,1957,32.78873558,2019,SI_202,official,TRUE
SI_203,15.076467279980376,45.78487502614614,SI,SI03,SI037,203,Straža,3912,28.54815249,2019,SI_203,official,TRUE
SI_204,15.87811318075993,46.57284132710052,SI,SI03,SI032,204,Sveta Trojica v Slov. goricah,2078,25.90262559,2019,SI_204,official,TRUE
SI_205,16.072533440868938,46.480566723349625,SI,SI03,SI032,205,Sveti Tomaž,2015,38.10674758,2019,SI_205,official,TRUE
SI_206,15.24928798927948,45.8760326568648,SI,SI03,SI037,206,Šmarješke Toplice,3378,34.22661751,2019,SI_206,official,TRUE
SI_207,14.071862913092614,46.381951289414815,SI,SI04,SI042,207,Gorje,2762,116.22878817,2019,SI_207,official,TRUE
SI_208,14.374770412609612,46.01677959200592,SI,SI04,SI041,208,Log - Dragomer,3669,11.06879546,2019,SI_208,official,TRUE
SI_209,14.918216173028751,46.3181781860742,SI,SI03,SI034,209,Rečica ob Savinji,2314,30.08742054,2019,SI_209,official,TRUE
SI_210,15.783523235975654,46.60896362221617,SI,SI03,SI032,210,Sveti Jurij v Slov. goricah,2075,30.71076782,2019,SI_210,official,TRUE
SI_211,15.094485274308395,45.9643676903554,SI,SI03,SI037,211,Šentrupert,2947,49.0870647,2019,SI_211,official,TRUE
SI_212,15.060324228926612,45.95465917754694,SI,SI03,SI037,212,Mirna,2616,31.31696309,2019,SI_212,official,TRUE
SI_213,13.736186973286083,45.57804743054954,SI,SI04,SI044,213,Ankaran/Ancarano,3206,8.04875124,2019,SI_213,official,TRUE
