gisco_id,longitude,latitude,country,nuts_2,nuts_3,lau_id,lau_name,population,area_km2,year,fid,concordance,pop_weighted
AT_10101,16.52910441141863,47.84567956739164,AT,AT11,AT112,10101,Eisenstadt,14816,42.46519302,2020,AT_10101,official,TRUE
AT_10201,16.674087770656577,47.801175118448995,AT,AT11,AT112,10201,Rust,1980,20.12168637,2020,AT_10201,official,TRUE
AT_10301,16.733160888278064,47.94617333336883,AT,AT11,AT112,10301,Breitenbrunn am Neusiedler See,1871,25.61635914,2020,AT_10301,official,TRUE
AT_10302,16.642850533973693,47.893895929518955,AT,AT11,AT112,10302,Donnerskirchen,1843,34.20501906,2020,AT_10302,official,TRUE
AT_10303,16.47741910017132,47.836417132774955,AT,AT11,AT112,10303,Großhöflein,2104,14.30640626,2020,AT_10303,official,TRUE
AT_10304,16.442022396957956,47.88036078228864,AT,AT11,AT112,10304,Hornstein,3129,37.0082832,2020,AT_10304,official,TRUE
AT_10305,16.53962570745995,47.75371360603811,AT,AT11,AT112,10305,Klingenbach,1147,4.80632436,2020,AT_10305,official,TRUE
AT_10306,16.481825733717987,47.93198999661175,AT,AT11,AT112,10306,Leithaprodersdorf,1208,18.8905907,2020,AT_10306,official,TRUE
AT_10307,16.66762967201146,47.75436181410297,AT,AT11,AT112,10307,Mörbisch am See,2203,28.10744065,2020,AT_10307,official,TRUE
AT_10308,16.46213995266462,47.84004867593148,AT,AT11,AT112,10308,Müllendorf,1383,12.74639932,2020,AT_10308,official,TRUE
AT_10309,16.375857983656662,47.86961549079341,AT,AT11,AT112,10309,Neufeld an der Leitha,3486,4.23712266,2020,AT_10309,official,TRUE
AT_10310,16.665538229256107,47.83555930365319,AT,AT11,AT112,10310,Oggau am Neusiedler See,1753,51.46298201,2020,AT_10310,official,TRUE
AT_10311,16.624368911393947,47.83021401090418,AT,AT11,AT112,10311,Oslip,1255,18.1014007,2020,AT_10311,official,TRUE
AT_10312,16.69491009298204,47.91396794665641,AT,AT11,AT112,10312,Purbach am Neusiedler See,2885,45.97247962,2020,AT_10312,official,TRUE
AT_10313,16.60843972408376,47.80358365530248,AT,AT11,AT112,10313,Sankt Margarethen im Burgenland,2669,26.48055572,2020,AT_10313,official,TRUE
AT_10314,16.625800686039902,47.85276681664075,AT,AT11,AT112,10314,Schützen am Gebirge,1421,21.3077268,2020,AT_10314,official,TRUE
AT_10315,16.53821532596906,47.78132722755825,AT,AT11,AT112,10315,Siegendorf,3066,23.17054892,2020,AT_10315,official,TRUE
AT_10316,16.406123462929024,47.83825980894859,AT,AT11,AT112,10316,Steinbrunn,2776,15.36079315,2020,AT_10316,official,TRUE
AT_10317,16.557119835292472,47.81548679672766,AT,AT11,AT112,10317,Trausdorf an der Wulka,2063,15.47464171,2020,AT_10317,official,TRUE
AT_10318,16.434050486872025,47.9158357308523,AT,AT11,AT112,10318,Wimpassing an der Leitha,1664,7.85928232,2020,AT_10318,official,TRUE
AT_10319,16.500863222057486,47.79696906994897,AT,AT11,AT112,10319,Wulkaprodersdorf,1980,12.04131788,2020,AT_10319,official,TRUE
AT_10320,16.517064237359087,47.916828401515296,AT,AT11,AT112,10320,Loretto,483,2.40047383,2020,AT_10320,official,TRUE
AT_10321,16.540918041767846,47.90739748550111,AT,AT11,AT112,10321,Stotzing,810,12.95909846,2020,AT_10321,official,TRUE
AT_10322,16.40758296764624,47.81429764481822,AT,AT11,AT112,10322,Zillingtal,961,13.168193,2020,AT_10322,official,TRUE
AT_10323,16.519896241025528,47.761250422225295,AT,AT11,AT112,10323,Zagersdorf,1076,7.40428669,2020,AT_10323,official,TRUE
AT_10401,16.178704588028264,47.143390755203114,AT,AT11,AT113,10401,Bocksdorf,807,9.95186186,2020,AT_10401,official,TRUE
AT_10402,16.11922295715036,47.167391263149526,AT,AT11,AT113,10402,Burgauberg-Neudauberg,1326,10.96109373,2020,AT_10402,official,TRUE
AT_10403,16.462422823253867,47.09831787814882,AT,AT11,AT113,10403,Eberau,936,30.61809473,2020,AT_10403,official,TRUE
AT_10404,16.25576812185602,47.07129481082822,AT,AT11,AT113,10404,Gerersdorf-Sulz,992,21.72137769,2020,AT_10404,official,TRUE
AT_10405,16.3278360415645,47.060695555495,AT,AT11,AT113,10405,Güssing,3667,49.2660769,2020,AT_10405,official,TRUE
AT_10406,16.288350250236885,47.15713643091794,AT,AT11,AT113,10406,Güttenbach,880,15.73224094,2020,AT_10406,official,TRUE
AT_10407,16.427523415154162,47.02209121120211,AT,AT11,AT113,10407,Heiligenbrunn,753,33.50990398,2020,AT_10407,official,TRUE
AT_10408,16.184612409711082,47.070539478259114,AT,AT11,AT113,10408,Kukmirn,1983,40.86769069,2020,AT_10408,official,TRUE
AT_10409,16.25571231163446,47.17115746883073,AT,AT11,AT113,10409,Neuberg im Burgenland,968,17.5968766,2020,AT_10409,official,TRUE
AT_10410,16.261820793005633,47.02406255168561,AT,AT11,AT113,10410,Neustift bei Güssing,464,11.35185694,2020,AT_10410,official,TRUE
AT_10411,16.207159863923845,47.19417801248253,AT,AT11,AT113,10411,Olbendorf,1433,17.24492325,2020,AT_10411,official,TRUE
AT_10412,16.156797673121485,47.18509408461075,AT,AT11,AT113,10412,Ollersdorf im Burgenland,938,8.75381253,2020,AT_10412,official,TRUE
AT_10413,16.26898250996478,47.127194619742255,AT,AT11,AT113,10413,Sankt Michael im Burgenland,977,18.34601878,2020,AT_10413,official,TRUE
AT_10414,16.163320533016854,47.16111857009655,AT,AT11,AT113,10414,Stegersbach,2661,17.80117227,2020,AT_10414,official,TRUE
AT_10415,16.13173232701704,47.201487307563745,AT,AT11,AT113,10415,Stinatz,1195,9.32148474,2020,AT_10415,official,TRUE
AT_10416,16.41669298120114,47.05101957945338,AT,AT11,AT113,10416,Strem,871,23.77220277,2020,AT_10416,official,TRUE
AT_10417,16.30619021399837,47.10243362343485,AT,AT11,AT113,10417,Tobaj,1359,58.06097268,2020,AT_10417,official,TRUE
AT_10418,16.114410812945824,47.19295561809057,AT,AT11,AT113,10418,Hackerberg,368,3.94013213,2020,AT_10418,official,TRUE
AT_10419,16.096376944578058,47.22180800974008,AT,AT11,AT113,10419,Wörterberg,483,4.75257159,2020,AT_10419,official,TRUE
AT_10420,16.361101226970415,47.01525729730492,AT,AT11,AT113,10420,Großmürbisch,237,7.91875498,2020,AT_10420,official,TRUE
AT_10421,16.314458970711534,47.01454448566573,AT,AT11,AT113,10421,Inzenhof,315,5.95950284,2020,AT_10421,official,TRUE
AT_10422,16.323965894639283,47.02714584443976,AT,AT11,AT113,10422,Kleinmürbisch,230,4.29495361,2020,AT_10422,official,TRUE
AT_10423,16.31050707658757,47.00918815085571,AT,AT11,AT113,10423,Tschanigraben,65,1.72510816,2020,AT_10423,official,TRUE
AT_10424,16.191320871480904,47.11469074502131,AT,AT11,AT113,10424,Heugraben,232,6.5099047,2020,AT_10424,official,TRUE
AT_10425,16.163254997521513,47.11683567643824,AT,AT11,AT113,10425,Rohr im Burgenland,376,8.50365791,2020,AT_10425,official,TRUE
AT_10426,16.468717510064295,47.129240827320615,AT,AT11,AT113,10426,Bildein,347,15.96932949,2020,AT_10426,official,TRUE
AT_10427,16.23024951554452,47.1314857475872,AT,AT11,AT113,10427,Rauchwart,442,17.58203362,2020,AT_10427,official,TRUE
AT_10428,16.472829029861437,47.05513516760295,AT,AT11,AT113,10428,Moschendorf,394,13.18275175,2020,AT_10428,official,TRUE
AT_10501,16.115995682210784,47.09546304658483,AT,AT11,AT113,10501,Deutsch Kaltenbrunn,1734,23.97459905,2020,AT_10501,official,TRUE
AT_10502,16.204321105404535,47.00962256155145,AT,AT11,AT113,10502,Eltendorf,920,20.65962897,2020,AT_10502,official,TRUE
AT_10503,16.250811058122757,46.99155021587475,AT,AT11,AT113,10503,Heiligenkreuz im Lafnitztal,1234,23.66483536,2020,AT_10503,official,TRUE
AT_10504,16.139034406562427,46.94288271006263,AT,AT11,AT113,10504,Jennersdorf,4111,37.83346891,2020,AT_10504,official,TRUE
AT_10505,16.080906114340532,46.879489570083635,AT,AT11,AT113,10505,Minihof-Liebau,1047,16.28674555,2020,AT_10505,official,TRUE
AT_10506,16.230264511277895,46.959310983298046,AT,AT11,AT113,10506,Mogersdorf,1149,12.85031942,2020,AT_10506,official,TRUE
AT_10507,16.029303425008706,46.86225004340285,AT,AT11,AT113,10507,Neuhaus am Klausenbach,898,20.02992031,2020,AT_10507,official,TRUE
AT_10508,16.12149212517534,47.051130624320095,AT,AT11,AT113,10508,Rudersdorf,2172,21.05790927,2020,AT_10508,official,TRUE
AT_10509,16.123353072456684,46.91610155367026,AT,AT11,AT113,10509,Sankt Martin an der Raab,1995,42.9805312,2020,AT_10509,official,TRUE
AT_10510,16.190703825021345,46.964223297019345,AT,AT11,AT113,10510,Weichselbaum,712,12.15045435,2020,AT_10510,official,TRUE
AT_10511,16.17128220571011,47.009540548722164,AT,AT11,AT113,10511,Königsdorf,741,15.50879073,2020,AT_10511,official,TRUE
AT_10512,16.043553854262004,46.89106071140352,AT,AT11,AT113,10512,Mühlgraben,384,5.56406115,2020,AT_10512,official,TRUE
AT_10601,16.49223331537637,47.747388329632024,AT,AT11,AT112,10601,Draßburg,1227,9.6178574,2020,AT_10601,official,TRUE
AT_10602,16.34521714299999,47.71205758653317,AT,AT11,AT112,10602,Forchtenstein,2778,16.59913191,2020,AT_10602,official,TRUE
AT_10603,16.453877639180877,47.786237398774794,AT,AT11,AT112,10603,Hirm,1020,3.24609727,2020,AT_10603,official,TRUE
AT_10604,16.47494958883269,47.69592792785673,AT,AT11,AT112,10604,Loipersbach im Burgenland,1195,8.56464869,2020,AT_10604,official,TRUE
AT_10605,16.416210047615596,47.716345124172854,AT,AT11,AT112,10605,Marz,2074,17.38849884,2020,AT_10605,official,TRUE
AT_10606,16.397299474318846,47.73690502803062,AT,AT11,AT112,10606,Mattersburg,7456,27.98625401,2020,AT_10606,official,TRUE
AT_10607,16.295225712829094,47.798323334011165,AT,AT11,AT112,10607,Neudörfl,4641,9.0826998,2020,AT_10607,official,TRUE
AT_10608,16.438938154203203,47.75147020803127,AT,AT11,AT112,10608,Pöttelsdorf,762,7.82922088,2020,AT_10608,official,TRUE
AT_10609,16.362520574070043,47.804212252201125,AT,AT11,AT112,10609,Pöttsching,2983,24.75038334,2020,AT_10609,official,TRUE
AT_10610,16.427595275504334,47.70711886905014,AT,AT11,AT112,10610,Rohrbach bei Mattersburg,2639,15.21463897,2020,AT_10610,official,TRUE
AT_10611,16.32404306006261,47.77577701514944,AT,AT11,AT112,10611,Bad Sauerbrunn,2228,2.38086976,2020,AT_10611,official,TRUE
AT_10612,16.50482912214575,47.711338243725415,AT,AT11,AT112,10612,Schattendorf,2351,12.11315422,2020,AT_10612,official,TRUE
AT_10613,16.38113196446172,47.64877314487366,AT,AT11,AT112,10613,Sieggraben,1229,17.24567123,2020,AT_10613,official,TRUE
AT_10614,16.391862416376394,47.77662155726943,AT,AT11,AT112,10614,Sigleß,1161,10.17935156,2020,AT_10614,official,TRUE
AT_10615,16.337497150090762,47.741120637766464,AT,AT11,AT112,10615,Wiesen,2717,18.78079526,2020,AT_10615,official,TRUE
AT_10616,16.48015526073549,47.775525275365354,AT,AT11,AT112,10616,Antau,774,8.6173705,2020,AT_10616,official,TRUE
AT_10617,16.505015305963713,47.73801643716383,AT,AT11,AT112,10617,Baumgarten,885,7.0524581,2020,AT_10617,official,TRUE
AT_10618,16.455322612579085,47.765049081801,AT,AT11,AT112,10618,Zemendorf-Stöttera,1286,12.91538676,2020,AT_10618,official,TRUE
AT_10619,16.417759419849638,47.78693681121579,AT,AT11,AT112,10619,Krensdorf,636,7.79198745,2020,AT_10619,official,TRUE
AT_10701,17.03009574597153,47.77706681958088,AT,AT11,AT112,10701,Andau,2280,47.27260456,2020,AT_10701,official,TRUE
AT_10702,16.837598994418634,47.74465635018883,AT,AT11,AT112,10702,Apetlon,1760,82.21184362,2020,AT_10702,official,TRUE
AT_10703,16.78431762516262,48.017843259783874,AT,AT11,AT112,10703,Bruckneudorf,3100,37.02596488,2020,AT_10703,official,TRUE
AT_10704,17.10535327698661,48.008241724078644,AT,AT11,AT112,10704,Deutsch Jahrndorf,619,27.43491114,2020,AT_10704,official,TRUE
AT_10705,16.92214403709385,47.83741470995497,AT,AT11,AT112,10705,Frauenkirchen,2856,31.98344588,2020,AT_10705,official,TRUE
AT_10706,16.982460875632512,48.01561602203109,AT,AT11,AT112,10706,Gattendorf,1381,25.50741714,2020,AT_10706,official,TRUE
AT_10707,16.91288323862007,47.89507684295937,AT,AT11,AT112,10707,Gols,3910,42.18692415,2020,AT_10707,official,TRUE
AT_10708,16.976371727908866,47.870837056124536,AT,AT11,AT112,10708,Halbturn,1930,55.16341276,2020,AT_10708,official,TRUE
AT_10709,16.803136825718973,47.762095891688176,AT,AT11,AT112,10709,Illmitz,2395,92.06112773,2020,AT_10709,official,TRUE
AT_10710,16.790706854194905,47.96231045124017,AT,AT11,AT112,10710,Jois,1644,25.90901751,2020,AT_10710,official,TRUE
AT_10711,17.066893637158177,48.09138976402539,AT,AT11,AT112,10711,Kittsee,3307,19.47235852,2020,AT_10711,official,TRUE
AT_10712,16.946376498366696,47.88382086925457,AT,AT11,AT112,10712,Mönchhof,2238,33.57646756,2020,AT_10712,official,TRUE
AT_10713,16.845616416571733,47.94745474503575,AT,AT11,AT112,10713,Neusiedl am See,8585,57.3260871,2020,AT_10713,official,TRUE
AT_10714,17.07082487377025,47.938863791784165,AT,AT11,AT112,10714,Nickelsdorf,1797,60.70277127,2020,AT_10714,official,TRUE
AT_10715,17.032069260456613,48.04744831429442,AT,AT11,AT112,10715,Pama,1208,26.96926252,2020,AT_10715,official,TRUE
AT_10716,16.906425463395596,47.70142209305198,AT,AT11,AT112,10716,Pamhagen,1567,33.05666881,2020,AT_10716,official,TRUE
AT_10717,16.862407841387398,47.995723359842046,AT,AT11,AT112,10717,Parndorf,4858,59.06763153,2020,AT_10717,official,TRUE
AT_10718,16.840306595056695,47.85318458017712,AT,AT11,AT112,10718,Podersdorf am See,2132,41.94087625,2020,AT_10718,official,TRUE
AT_10719,16.937846316505667,47.78367786627164,AT,AT11,AT112,10719,Sankt Andrä am Zicksee,1369,31.72001506,2020,AT_10719,official,TRUE
AT_10720,16.98913852096976,47.76288547165063,AT,AT11,AT112,10720,Tadten,1186,36.05460654,2020,AT_10720,official,TRUE
AT_10721,16.934867570579367,47.72961596787948,AT,AT11,AT112,10721,Wallern im Burgenland,1678,33.88497468,2020,AT_10721,official,TRUE
AT_10722,16.869480314620052,47.9244427272534,AT,AT11,AT112,10722,Weiden am See,2480,32.47272363,2020,AT_10722,official,TRUE
AT_10723,16.75841005633672,47.949589715763196,AT,AT11,AT112,10723,Winden am See,1326,13.83438201,2020,AT_10723,official,TRUE
AT_10724,17.001443865741685,47.97456866142388,AT,AT11,AT112,10724,Zurndorf,2276,54.26438224,2020,AT_10724,official,TRUE
AT_10725,16.931245125161002,48.014119214499246,AT,AT11,AT112,10725,Neudorf,717,21.67339258,2020,AT_10725,official,TRUE
AT_10726,16.947011163025014,48.0442984661771,AT,AT11,AT112,10726,Potzneusiedl,611,11.84197662,2020,AT_10726,official,TRUE
AT_10727,16.989804644310613,48.0969111530135,AT,AT11,AT112,10727,Edelstal,780,5.70874406,2020,AT_10727,official,TRUE
AT_10801,16.629284192589058,47.60164028745726,AT,AT11,AT111,10801,Deutschkreutz,3069,34.07788117,2020,AT_10801,official,TRUE
AT_10802,16.390967155461745,47.5081497412032,AT,AT11,AT111,10802,Draßmarkt,1380,36.3637266,2020,AT_10802,official,TRUE
AT_10803,16.560386140973595,47.46717261842263,AT,AT11,AT111,10803,Frankenau-Unterpullendorf,1093,29.91655076,2020,AT_10803,official,TRUE
AT_10804,16.570825175174406,47.53138014838136,AT,AT11,AT111,10804,Großwarasdorf,1368,42.48580923,2020,AT_10804,official,TRUE
AT_10805,16.551800162305767,47.58676992866599,AT,AT11,AT111,10805,Horitschon,1797,18.69318664,2020,AT_10805,official,TRUE
AT_10806,16.389466246215537,47.53720745999953,AT,AT11,AT111,10806,Kaisersdorf,606,12.53882471,2020,AT_10806,official,TRUE
AT_10807,16.390444950164266,47.597949050590586,AT,AT11,AT111,10807,Kobersdorf,1878,27.41345258,2020,AT_10807,official,TRUE
AT_10808,16.460596723296636,47.588385946351835,AT,AT11,AT111,10808,Lackenbach,1147,18.10685849,2020,AT_10808,official,TRUE
AT_10809,16.406365180799945,47.404203105415874,AT,AT11,AT111,10809,Lockenhaus,2019,59.47511625,2020,AT_10809,official,TRUE
AT_10810,16.632660957688426,47.462015198500346,AT,AT11,AT111,10810,Lutzmannsburg,863,23.19270418,2020,AT_10810,official,TRUE
AT_10811,16.52319058049044,47.422079540371605,AT,AT11,AT111,10811,Mannersdorf an der Rabnitz,1781,38.44031932,2020,AT_10811,official,TRUE
AT_10812,16.41900222319313,47.559925871426444,AT,AT11,AT111,10812,Markt Sankt Martin,1239,31.84098769,2020,AT_10812,official,TRUE
AT_10813,16.54691648728222,47.5981483401854,AT,AT11,AT111,10813,Neckenmarkt,1688,26.90429034,2020,AT_10813,official,TRUE
AT_10814,16.451265887264,47.54474632076848,AT,AT11,AT111,10814,Neutal,1095,11.5388679,2020,AT_10814,official,TRUE
AT_10815,16.647571138142677,47.52554279943339,AT,AT11,AT111,10815,Nikitsch,1380,50.77241277,2020,AT_10815,official,TRUE
AT_10816,16.510461000458626,47.49788670158809,AT,AT11,AT111,10816,Oberpullendorf,3204,12.64292483,2020,AT_10816,official,TRUE
AT_10817,16.34403408214954,47.43813796849047,AT,AT11,AT111,10817,Pilgersdorf,1629,44.83812869,2020,AT_10817,official,TRUE
AT_10818,16.4153976506185,47.44627664554423,AT,AT11,AT111,10818,Piringsdorf,843,16.1241204,2020,AT_10818,official,TRUE
AT_10819,16.5330645604487,47.56490488980866,AT,AT11,AT111,10819,Raiding,880,13.10261472,2020,AT_10819,official,TRUE
AT_10820,16.499099184203914,47.611391899734215,AT,AT11,AT111,10820,Ritzing,907,17.72295088,2020,AT_10820,official,TRUE
AT_10821,16.482283739602263,47.48018484402979,AT,AT11,AT111,10821,Steinberg-Dörfl,1282,37.06246899,2020,AT_10821,official,TRUE
AT_10822,16.47860607014595,47.52846778061096,AT,AT11,AT111,10822,Stoob,1364,17.42456628,2020,AT_10822,official,TRUE
AT_10823,16.426178893999452,47.586380812729274,AT,AT11,AT111,10823,Weppersdorf,1837,24.97259214,2020,AT_10823,official,TRUE
AT_10824,16.50261715976158,47.58654413033505,AT,AT11,AT111,10824,Lackendorf,593,12.58485577,2020,AT_10824,official,TRUE
AT_10825,16.497798870865623,47.572197067441344,AT,AT11,AT111,10825,Unterfrauenhaid,646,11.10548007,2020,AT_10825,official,TRUE
AT_10826,16.37526479770129,47.45679378586242,AT,AT11,AT111,10826,Unterrabnitz-Schwendgraben,648,13.92066731,2020,AT_10826,official,TRUE
AT_10827,16.36208984968107,47.51176658915758,AT,AT11,AT111,10827,Weingraben,354,9.28289056,2020,AT_10827,official,TRUE
AT_10828,16.508124069667925,47.44857741079418,AT,AT11,AT111,10828,Oberloisdorf,794,10.66103233,2020,AT_10828,official,TRUE
AT_10901,16.228972058338968,47.336077643388265,AT,AT11,AT113,10901,Bad Tatzmannsdorf,1620,11.66336259,2020,AT_10901,official,TRUE
AT_10902,16.25954589199588,47.41286571192462,AT,AT11,AT113,10902,Bernstein,2092,38.41364471,2020,AT_10902,official,TRUE
AT_10903,16.432494147188734,47.16996787657806,AT,AT11,AT113,10903,Deutsch Schützen-Eisenberg,1084,28.4997021,2020,AT_10903,official,TRUE
AT_10904,16.059598238049556,47.36577945358397,AT,AT11,AT113,10904,Grafenschachen,1256,10.03026246,2020,AT_10904,official,TRUE
AT_10905,16.318318161261907,47.2391662858687,AT,AT11,AT113,10905,Großpetersdorf,3547,31.35849733,2020,AT_10905,official,TRUE
AT_10906,16.388427397850457,47.22662523842776,AT,AT11,AT113,10906,Hannersdorf,734,17.08861285,2020,AT_10906,official,TRUE
AT_10907,16.152296188399546,47.24866579231151,AT,AT11,AT113,10907,Kemeten,1516,20.62446769,2020,AT_10907,official,TRUE
AT_10908,16.355170999393664,47.17040279121388,AT,AT11,AT113,10908,Kohfidisch,1431,31.49043417,2020,AT_10908,official,TRUE
AT_10909,16.16136136273548,47.20979685664038,AT,AT11,AT113,10909,Litzelsdorf,1154,14.1329295,2020,AT_10909,official,TRUE
AT_10910,16.076177556884847,47.335082996034785,AT,AT11,AT113,10910,Loipersdorf-Kitzladen,1327,15.86499351,2020,AT_10910,official,TRUE
AT_10911,16.243634695863868,47.37023094162239,AT,AT11,AT113,10911,Mariasdorf,1166,20.49803458,2020,AT_10911,official,TRUE
AT_10912,16.08823797455067,47.29629466107619,AT,AT11,AT113,10912,Markt Allhau,1855,32.23571569,2020,AT_10912,official,TRUE
AT_10913,16.39614231155158,47.296498076423255,AT,AT11,AT113,10913,Markt Neuhodis,661,19.90755885,2020,AT_10913,official,TRUE
AT_10914,16.30879077399132,47.1998708122826,AT,AT11,AT113,10914,Mischendorf,1537,26.25305803,2020,AT_10914,official,TRUE
AT_10915,16.215688068026203,47.22274676498057,AT,AT11,AT113,10915,Oberdorf im Burgenland,1002,9.27739804,2020,AT_10915,official,TRUE
AT_10916,16.202250375279473,47.35446864357325,AT,AT11,AT113,10916,Oberschützen,2444,44.25830033,2020,AT_10916,official,TRUE
AT_10917,16.2088901674256,47.288297352794736,AT,AT11,AT113,10917,Oberwart,7600,36.51638627,2020,AT_10917,official,TRUE
AT_10918,16.121840698989494,47.37164489435049,AT,AT11,AT113,10918,Pinkafeld,5924,27.16823906,2020,AT_10918,official,TRUE
AT_10919,16.43872115632408,47.3057287625642,AT,AT11,AT113,10919,Rechnitz,2962,43.53268852,2020,AT_10919,official,TRUE
AT_10920,16.136828647574433,47.34564322203988,AT,AT11,AT113,10920,Riedlingsdorf,1649,16.09071553,2020,AT_10920,official,TRUE
AT_10921,16.253479649702548,47.254919342124325,AT,AT11,AT113,10921,Rotenturm an der Pinka,1439,17.03883665,2020,AT_10921,official,TRUE
AT_10922,16.42140841947587,47.26438871217164,AT,AT11,AT113,10922,Schachendorf,755,22.29111105,2020,AT_10922,official,TRUE
AT_10923,16.27850419552867,47.32656556495757,AT,AT11,AT113,10923,Stadtschlaining,1985,42.0201388,2020,AT_10923,official,TRUE
AT_10924,16.323848699646827,47.37730896089398,AT,AT11,AT113,10924,Unterkohlstätten,998,28.64445009,2020,AT_10924,official,TRUE
AT_10925,16.236588465545886,47.263394934632394,AT,AT11,AT113,10925,Unterwart,969,20.20766513,2020,AT_10925,official,TRUE
AT_10926,16.344943489086667,47.299362827014754,AT,AT11,AT113,10926,Weiden bei Rechnitz,809,39.72445442,2020,AT_10926,official,TRUE
AT_10927,16.14515529601293,47.38834683062847,AT,AT11,AT113,10927,Wiesfleck,1157,19.96309125,2020,AT_10927,official,TRUE
AT_10928,16.098479586856538,47.255208047585455,AT,AT11,AT113,10928,Wolfau,1411,15.11256404,2020,AT_10928,official,TRUE
AT_10929,16.032405481927118,47.367920073851835,AT,AT11,AT113,10929,Neustift an der Lafnitz,812,3.48092699,2020,AT_10929,official,TRUE
AT_10930,16.275411371846854,47.23768650595855,AT,AT11,AT113,10930,Jabing,741,7.78879496,2020,AT_10930,official,TRUE
AT_10931,16.371838152296643,47.197316015715494,AT,AT11,AT113,10931,Badersdorf,293,8.64353973,2020,AT_10931,official,TRUE
AT_10932,16.41935109538759,47.239365057813195,AT,AT11,AT113,10932,Schandorf,262,11.28771605,2020,AT_10932,official,TRUE
AT_20101,14.303322468416622,46.62054543133832,AT,AT21,AT211,20101,Klagenfurt am Wörthersee,101300,119.95942939,2020,AT_20101,official,TRUE
AT_20201,13.848190046977425,46.61324874741487,AT,AT21,AT211,20201,Villach,62882,134.02281902,2020,AT_20201,official,TRUE
AT_20302,13.07745100118369,46.66222000718996,AT,AT21,AT212,20302,Dellach,1212,36.68031666,2020,AT_20302,official,TRUE
AT_20305,13.363770288703677,46.62354279203177,AT,AT21,AT212,20305,Hermagor-Pressegger See,6886,205.57978493,2020,AT_20305,official,TRUE
AT_20306,13.158550162834949,46.64743128493114,AT,AT21,AT212,20306,Kirchbach,2502,99.21391425,2020,AT_20306,official,TRUE
AT_20307,12.997081883220737,46.67000004236929,AT,AT21,AT212,20307,Kötschach-Mauthen,3346,155.12487177,2020,AT_20307,official,TRUE
AT_20316,13.5215217944435,46.61221812918414,AT,AT21,AT212,20316,St. Stefan im Gailtal,1579,66.36122629,2020,AT_20316,official,TRUE
AT_20320,13.271926189181636,46.67905851820416,AT,AT21,AT212,20320,Gitschtal,1241,57.06613799,2020,AT_20320,official,TRUE
AT_20321,12.79034470965312,46.69904640833084,AT,AT21,AT212,20321,Lesachtal,1288,190.77419782,2020,AT_20321,official,TRUE
AT_20402,14.378471521691646,46.60953440405311,AT,AT21,AT211,20402,Ebenthal in Kärnten,8065,55.29426988,2020,AT_20402,official,TRUE
AT_20403,14.17940290823193,46.527046918659856,AT,AT21,AT211,20403,Feistritz im Rosental,2474,72.24072925,2020,AT_20403,official,TRUE
AT_20405,14.300625240741647,46.52868467754113,AT,AT21,AT211,20405,Ferlach,7123,117.43773406,2020,AT_20405,official,TRUE
AT_20409,14.464032685257045,46.616727121884615,AT,AT21,AT211,20409,Grafenstein,2969,49.3841486,2020,AT_20409,official,TRUE
AT_20412,14.200850927755946,46.58994724714539,AT,AT21,AT211,20412,Keutschach am See,2440,28.37467874,2020,AT_20412,official,TRUE
AT_20414,14.247990327992854,46.564456007385544,AT,AT21,AT211,20414,Köttmannsdorf,3079,28.27499004,2020,AT_20414,official,TRUE
AT_20415,14.210757062332494,46.62539335127259,AT,AT21,AT211,20415,Krumpendorf am Wörthersee,3453,11.8558673,2020,AT_20415,official,TRUE
AT_20416,14.139307466442249,46.54648737148076,AT,AT21,AT211,20416,Ludmannsdorf,1784,26.43299375,2020,AT_20416,official,TRUE
AT_20417,14.294964247294402,46.56102074540665,AT,AT21,AT211,20417,Maria Rain,2561,25.70608464,2020,AT_20417,official,TRUE
AT_20418,14.33920601129625,46.683798124913025,AT,AT21,AT211,20418,Maria Saal,3864,34.94938697,2020,AT_20418,official,TRUE
AT_20419,14.17723760663992,46.605470182720204,AT,AT21,AT211,20419,Maria Wörth,1608,17.29548471,2020,AT_20419,official,TRUE
AT_20421,14.177879381155412,46.661614929241075,AT,AT21,AT211,20421,Moosburg,4478,37.009628910000004,2020,AT_20421,official,TRUE
AT_20424,14.149862612008048,46.635635455247915,AT,AT21,AT211,20424,Pörtschach am Wörther See,2885,12.60327675,2020,AT_20424,official,TRUE
AT_20425,14.456132035881225,46.65159031293348,AT,AT21,AT211,20425,Poggersdorf,3199,30.88523838,2020,AT_20425,official,TRUE
AT_20428,14.421628688233485,46.54097448506994,AT,AT21,AT211,20428,St. Margareten im Rosental,1084,43.64956147,2020,AT_20428,official,TRUE
AT_20432,14.100623405010733,46.59981172076895,AT,AT21,AT211,20432,Schiefling am Wörthersee,2630,28.59771706,2020,AT_20432,official,TRUE
AT_20435,14.094238196790261,46.64609623312862,AT,AT21,AT211,20435,Techelsberg am Wörther See,2178,28.67874298,2020,AT_20435,official,TRUE
AT_20441,14.41188705613657,46.475384203893135,AT,AT21,AT211,20441,Zell,611,75.27347659,2020,AT_20441,official,TRUE
AT_20442,14.421358838507714,46.68052088877878,AT,AT21,AT211,20442,Magdalensberg,3529,42.86139546,2020,AT_20442,official,TRUE
AT_20501,14.469015115514752,46.87171028084811,AT,AT21,AT213,20501,Althofen,4715,12.26950905,2020,AT_20501,official,TRUE
AT_20502,14.530569265472183,46.74412260059524,AT,AT21,AT213,20502,Brückl,2739,46.65283545,2020,AT_20502,official,TRUE
AT_20503,14.070586613416182,46.85753062950365,AT,AT21,AT213,20503,Deutsch-Griffen,897,71.44120601,2020,AT_20503,official,TRUE
AT_20504,14.564083177152597,46.80633986072536,AT,AT21,AT213,20504,Eberstein,1229,65.41455705,2020,AT_20504,official,TRUE
AT_20505,14.39916689813801,46.95571338500249,AT,AT21,AT213,20505,Friesach,4948,120.67925066,2020,AT_20505,official,TRUE
AT_20506,14.118894557572188,46.87415065587519,AT,AT21,AT213,20506,Glödnitz,809,74.51175217,2020,AT_20506,official,TRUE
AT_20508,14.285284027364463,46.873163101389174,AT,AT21,AT213,20508,Gurk,1202,39.65995288,2020,AT_20508,official,TRUE
AT_20509,14.511929035194669,46.890483098521884,AT,AT21,AT213,20509,Guttaring,1485,54.94888752,2020,AT_20509,official,TRUE
AT_20511,14.560980482737653,46.93641484977811,AT,AT21,AT213,20511,Hüttenberg,1366,134.33665469,2020,AT_20511,official,TRUE
AT_20512,14.478332315537187,46.83116497384698,AT,AT21,AT213,20512,Kappel am Krappfeld,1939,49.6979175,2020,AT_20512,official,TRUE
AT_20513,14.541652550239709,46.83998076789078,AT,AT21,AT213,20513,Klein St. Paul,1718,68.74345413,2020,AT_20513,official,TRUE
AT_20515,14.279420352243765,46.741627741110975,AT,AT21,AT213,20515,Liebenfels,3318,58.61528277,2020,AT_20515,official,TRUE
AT_20518,14.216407584727353,46.98514260286977,AT,AT21,AT213,20518,Metnitz,1953,223.43918913,2020,AT_20518,official,TRUE
AT_20519,14.430141515666696,46.91634834422286,AT,AT21,AT213,20519,Micheldorf,1000,17.06018329,2020,AT_20519,official,TRUE
AT_20520,14.435198755456092,46.85960607230618,AT,AT21,AT213,20520,Mölbling,1309,49.09016616,2020,AT_20520,official,TRUE
AT_20523,14.44156950273999,46.770460531358864,AT,AT21,AT213,20523,St. Georgen am Längsee,3576,69.80684483,2020,AT_20523,official,TRUE
AT_20527,14.361984476622196,46.765944047681025,AT,AT21,AT213,20527,St. Veit an der Glan,12386,50.37885886,2020,AT_20527,official,TRUE
AT_20530,14.329070240212173,46.89761003428968,AT,AT21,AT213,20530,Straßburg,2011,97.44621007,2020,AT_20530,official,TRUE
AT_20531,14.199488792885731,46.853425168742135,AT,AT21,AT213,20531,Weitensfeld im Gurktal,2032,95.64387352,2020,AT_20531,official,TRUE
AT_20534,14.358558504564693,46.78993893157495,AT,AT21,AT213,20534,Frauenstein,3554,93.3777367,2020,AT_20534,official,TRUE
AT_20601,13.787625361032852,46.815520715529345,AT,AT21,AT212,20601,Bad Kleinkirchheim,1711,74.29136847,2020,AT_20601,official,TRUE
AT_20602,13.472222275303269,46.79173578525621,AT,AT21,AT212,20602,Baldramsdorf,1862,38.03227587,2020,AT_20602,official,TRUE
AT_20603,13.130806218307487,46.7450546893457,AT,AT21,AT212,20603,Berg im Drautal,1268,54.22417441,2020,AT_20603,official,TRUE
AT_20604,13.083008876543824,46.74292589659063,AT,AT21,AT212,20604,Dellach im Drautal,1590,75.62768979,2020,AT_20604,official,TRUE
AT_20605,12.896427660227271,46.96992072454846,AT,AT21,AT212,20605,Großkirchheim,1310,109.72917899,2020,AT_20605,official,TRUE
AT_20607,13.113510923026704,46.93379922937821,AT,AT21,AT212,20607,Flattach,1188,99.30070815,2020,AT_20607,official,TRUE
AT_20608,13.536597108808897,46.909053161584474,AT,AT21,AT212,20608,Gmünd in Kärnten,2550,31.71622569,2020,AT_20608,official,TRUE
AT_20609,13.18123524123642,46.74928975763286,AT,AT21,AT212,20609,Greifenburg,1733,75.84911186,2020,AT_20609,official,TRUE
AT_20610,12.854639000139484,47.031764314909566,AT,AT21,AT212,20610,Heiligenblut am Großglockner,997,193.34099064,2020,AT_20610,official,TRUE
AT_20611,13.022081858473088,46.7511738421812,AT,AT21,AT212,20611,Irschen,1966,33.47133936,2020,AT_20611,official,TRUE
AT_20613,13.34999582174968,46.77170217925046,AT,AT21,AT212,20613,Kleblach-Lind,1170,63.03743167,2020,AT_20613,official,TRUE
AT_20616,13.432211189622988,46.83316149685684,AT,AT21,AT212,20616,Lendorf,1703,34.42396645,2020,AT_20616,official,TRUE
AT_20618,13.172113665632434,46.99072157356983,AT,AT21,AT212,20618,Mallnitz,762,111.97698146,2020,AT_20618,official,TRUE
AT_20619,13.517118143309375,46.94438389306207,AT,AT21,AT212,20619,Malta,1936,262.34116155,2020,AT_20619,official,TRUE
AT_20620,13.584811567575612,46.80560037531927,AT,AT21,AT212,20620,Millstatt am See,3436,57.93412514,2020,AT_20620,official,TRUE
AT_20622,12.90777861614594,46.92020941156247,AT,AT21,AT212,20622,Mörtschach,824,74.70950584,2020,AT_20622,official,TRUE
AT_20624,13.348399079226411,46.85649587430905,AT,AT21,AT212,20624,Mühldorf,1007,24.43586535,2020,AT_20624,official,TRUE
AT_20625,12.968057457956297,46.74842899345321,AT,AT21,AT212,20625,Oberdrauburg,1188,69.60443315,2020,AT_20625,official,TRUE
AT_20627,13.194148585786888,46.93404713262905,AT,AT21,AT212,20627,Obervellach,2171,104.44044185,2020,AT_20627,official,TRUE
AT_20630,13.697156576678886,46.795558314158015,AT,AT21,AT212,20630,Radenthein,5782,89.7008524,2020,AT_20630,official,TRUE
AT_20631,12.951045512513282,46.8614608086334,AT,AT21,AT212,20631,Rangersdorf,1705,84.17909975,2020,AT_20631,official,TRUE
AT_20632,13.604498050377124,47.02123719262617,AT,AT21,AT212,20632,Rennweg am Katschberg,1740,121.15489142,2020,AT_20632,official,TRUE
AT_20633,13.349554995296154,46.824669210138545,AT,AT21,AT212,20633,Sachsenburg,1322,42.55488343,2020,AT_20633,official,TRUE
AT_20634,13.511344934681862,46.82354236209577,AT,AT21,AT212,20634,Seeboden am Millstätter See,6506,44.44347503,2020,AT_20634,official,TRUE
AT_20635,13.500941104717281,46.794593774910894,AT,AT21,AT212,20635,Spittal an der Drau,15300,48.93584293,2020,AT_20635,official,TRUE
AT_20636,13.036388648491396,46.890103580323,AT,AT21,AT212,20636,Stall,1524,96.73208625,2020,AT_20636,official,TRUE
AT_20637,13.251676887313309,46.7570268819812,AT,AT21,AT212,20637,Steinfeld,2039,81.40246686,2020,AT_20637,official,TRUE
AT_20638,13.505743679927743,46.88299116804679,AT,AT21,AT212,20638,Trebesing,1162,73.73189675,2020,AT_20638,official,TRUE
AT_20639,13.288271492714694,46.7194011184235,AT,AT21,AT212,20639,Weißensee,761,77.45293762,2020,AT_20639,official,TRUE
AT_20640,12.879053386006367,46.86732738749292,AT,AT21,AT212,20640,Winklern,1214,37.07208228,2020,AT_20640,official,TRUE
AT_20642,13.591127114016382,46.93387966449063,AT,AT21,AT212,20642,Krems in Kärnten,1661,207.90705175,2020,AT_20642,official,TRUE
AT_20643,13.380924181395784,46.83765284397523,AT,AT21,AT212,20643,Lurnfeld,2679,32.9785474,2020,AT_20643,official,TRUE
AT_20644,13.295999120560731,46.88280674956273,AT,AT21,AT212,20644,Reißeck,2101,139.80967871,2020,AT_20644,official,TRUE
AT_20701,13.78579912279554,46.729669970365954,AT,AT21,AT211,20701,Afritz am See,1404,28.14916856,2020,AT_20701,official,TRUE
AT_20702,13.72056131489525,46.552562570450796,AT,AT21,AT211,20702,Arnoldstein,7038,67.70720362,2020,AT_20702,official,TRUE
AT_20703,13.853616305715757,46.73358731410547,AT,AT21,AT211,20703,Arriach,1333,71.10965105,2020,AT_20703,official,TRUE
AT_20705,13.66078152593541,46.62656618129497,AT,AT21,AT211,20705,Bad Bleiberg,2179,44.84046254,2020,AT_20705,official,TRUE
AT_20707,13.606314662913952,46.57738639736401,AT,AT21,AT211,20707,Feistritz an der Gail,619,19.3077555,2020,AT_20707,official,TRUE
AT_20708,13.748730428872706,46.77648824707173,AT,AT21,AT211,20708,Feld am See,1083,33.8035089,2020,AT_20708,official,TRUE
AT_20710,13.631426236066483,46.73871190653826,AT,AT21,AT211,20710,Ferndorf,2088,30.57224067,2020,AT_20710,official,TRUE
AT_20711,13.877391055839613,46.561688576732095,AT,AT21,AT211,20711,Finkenstein am Faaker See,9059,102.86647043,2020,AT_20711,official,TRUE
AT_20712,13.691961744179354,46.71705148393752,AT,AT21,AT211,20712,Fresach,1216,38.77355856,2020,AT_20712,official,TRUE
AT_20713,13.640075345729837,46.56039333835141,AT,AT21,AT211,20713,Hohenthurn,872,27.24537708,2020,AT_20713,official,TRUE
AT_20719,13.61754647973661,46.59342190251736,AT,AT21,AT211,20719,Nötsch im Gailtal,2271,42.62911269,2020,AT_20719,official,TRUE
AT_20720,13.666227836615914,46.69652352268493,AT,AT21,AT211,20720,Paternion,5799,105.28452219,2020,AT_20720,official,TRUE
AT_20721,14.010930933016102,46.586922398887396,AT,AT21,AT211,20721,Rosegg,1822,19.11833438,2020,AT_20721,official,TRUE
AT_20722,14.059308669489562,46.5441108615305,AT,AT21,AT211,20722,St. Jakob im Rosental,4292,78.35581875,2020,AT_20722,official,TRUE
AT_20723,13.577608807570181,46.72813336350965,AT,AT21,AT211,20723,Stockenboi,1611,100.44869953,2020,AT_20723,official,TRUE
AT_20724,13.866708205879249,46.66752525540593,AT,AT21,AT211,20724,Treffen am Ossiacher See,4462,71.54055518,2020,AT_20724,official,TRUE
AT_20725,14.030430592500132,46.61331908340833,AT,AT21,AT211,20725,Velden am Wörther See,9025,52.85615231,2020,AT_20725,official,TRUE
AT_20726,13.746359806046279,46.66715223366705,AT,AT21,AT211,20726,Weißenstein,2919,48.73520464,2020,AT_20726,official,TRUE
AT_20727,13.957676593276686,46.614882582659924,AT,AT21,AT211,20727,Wernberg,5526,26.42544671,2020,AT_20727,official,TRUE
AT_20801,14.79490119776651,46.58947408407651,AT,AT21,AT213,20801,Bleiburg,4058,69.74730583,2020,AT_20801,official,TRUE
AT_20802,14.632880576677232,46.7318314509011,AT,AT21,AT213,20802,Diex,787,54.73808543,2020,AT_20802,official,TRUE
AT_20803,14.642976151211332,46.60372987049067,AT,AT21,AT213,20803,Eberndorf,5870,67.78163645,2020,AT_20803,official,TRUE
AT_20804,14.589158448767606,46.491078066327496,AT,AT21,AT213,20804,Eisenkappel-Vellach,2272,199.75318692,2020,AT_20804,official,TRUE
AT_20805,14.762590353509086,46.57455169435089,AT,AT21,AT213,20805,Feistritz ob Bleiburg,2200,54.17646776,2020,AT_20805,official,TRUE
AT_20806,14.51137584926072,46.55874730450034,AT,AT21,AT213,20806,Gallizien,1751,47.31652879,2020,AT_20806,official,TRUE
AT_20807,14.702682514865446,46.56147940212058,AT,AT21,AT213,20807,Globasnitz,1598,38.37923715,2020,AT_20807,official,TRUE
AT_20808,14.72731981696306,46.70398320647356,AT,AT21,AT213,20808,Griffen,3428,75.18738822,2020,AT_20808,official,TRUE
AT_20810,14.893551227641098,46.64617698328041,AT,AT21,AT213,20810,Neuhaus,1019,36.00059254,2020,AT_20810,official,TRUE
AT_20812,14.78978710493119,46.65907484538591,AT,AT21,AT213,20812,Ruden,1526,42.31934814,2020,AT_20812,official,TRUE
AT_20813,14.585998618302648,46.61073530516296,AT,AT21,AT213,20813,St. Kanzian am Klopeiner See,4480,41.31217681,2020,AT_20813,official,TRUE
AT_20815,14.597837346839198,46.549886816799884,AT,AT21,AT213,20815,Sittersdorf,1974,45.05538883,2020,AT_20815,official,TRUE
AT_20817,14.62806657773773,46.662200509385386,AT,AT21,AT213,20817,Völkermarkt,10899,137.85268058,2020,AT_20817,official,TRUE
AT_20901,14.796012466186088,46.960188824802756,AT,AT21,AT213,20901,Bad St. Leonhard im Lavanttal,4328,111.87041163,2020,AT_20901,official,TRUE
AT_20905,14.868936442740656,46.86562938114889,AT,AT21,AT213,20905,Frantschach-St.Gertraud,2556,100.21060642,2020,AT_20905,official,TRUE
AT_20909,14.943692179936969,46.657742485320775,AT,AT21,AT213,20909,Lavamünd,2870,94.283775,2020,AT_20909,official,TRUE
AT_20911,14.924484984624637,46.937655451276896,AT,AT21,AT213,20911,Preitenegg,930,68.02221762,2020,AT_20911,official,TRUE
AT_20912,14.740957657560248,47.00773157613332,AT,AT21,AT213,20912,Reichenfels,1792,87.4889224,2020,AT_20912,official,TRUE
AT_20913,14.840197455635527,46.76666462576388,AT,AT21,AT213,20913,Sankt Andrä,9873,113.3258651,2020,AT_20913,official,TRUE
AT_20914,14.909964167800638,46.71874460795046,AT,AT21,AT213,20914,St. Georgen im Lavanttal,1960,72.16034348,2020,AT_20914,official,TRUE
AT_20918,14.864037052842718,46.703569942673084,AT,AT21,AT213,20918,St. Paul im Lavanttal,3273,47.50468344,2020,AT_20918,official,TRUE
AT_20923,14.838401247182846,46.829348294076816,AT,AT21,AT213,20923,Wolfsberg,25025,278.67034572,2020,AT_20923,official,TRUE
AT_21001,14.05619831535665,46.82312007400101,AT,AT21,AT212,21001,Albeck,983,99.62048655,2020,AT_21001,official,TRUE
AT_21002,14.097877907079527,46.723050453767605,AT,AT21,AT212,21002,Feldkirchen in Kärnten,14270,76.96142487,2020,AT_21002,official,TRUE
AT_21003,14.213686560424241,46.72164803668375,AT,AT21,AT212,21003,Glanegg,1796,25.45791973,2020,AT_21003,official,TRUE
AT_21004,13.947746816319489,46.78380160348399,AT,AT21,AT212,21004,Gnesau,1026,78.22671531,2020,AT_21004,official,TRUE
AT_21005,14.03935676627423,46.744225221984344,AT,AT21,AT212,21005,Himmelberg,2273,56.88408709,2020,AT_21005,official,TRUE
AT_21006,13.991745424335395,46.67697548377274,AT,AT21,AT212,21006,Ossiach,844,17.19400406,2020,AT_21006,official,TRUE
AT_21007,13.872626287262921,46.83405780701784,AT,AT21,AT212,21007,Reichenau,1765,113.60063898,2020,AT_21007,official,TRUE
AT_21008,14.16207039492376,46.7484677734002,AT,AT21,AT212,21008,St. Urban,1527,27.35725449,2020,AT_21008,official,TRUE
AT_21009,13.981535372872518,46.69025862189184,AT,AT21,AT212,21009,Steindorf am Ossiacher See,3808,29.95345629,2020,AT_21009,official,TRUE
AT_21010,14.112376163612776,46.78239876723013,AT,AT21,AT212,21010,Steuerberg,1610,33.05942926,2020,AT_21010,official,TRUE
AT_30101,15.610226354480405,48.41238392188158,AT,AT12,AT124,30101,Krems an der Donau,25036,51.73608289,2020,AT_30101,official,TRUE
AT_30201,15.629351758512419,48.20245762279593,AT,AT12,AT123,30201,St. Pölten,55514,109.04790236,2020,AT_30201,official,TRUE
AT_30301,14.778750760694129,47.95830524194911,AT,AT12,AT121,30301,Waidhofen an der Ybbs,11222,131.4228649,2020,AT_30301,official,TRUE
AT_30401,16.242977400823857,47.81937057166074,AT,AT12,AT122,30401,Wiener Neustadt,45823,59.99956853,2020,AT_30401,official,TRUE
AT_30501,14.786736693394728,48.026316330273204,AT,AT12,AT121,30501,Allhartsberg,2152,21.33992303,2020,AT_30501,official,TRUE
AT_30502,14.85599020978407,48.1149594244831,AT,AT12,AT121,30502,Amstetten,23816,52.0165623,2020,AT_30502,official,TRUE
AT_30503,14.834275814437987,48.167412890454074,AT,AT12,AT121,30503,Ardagger,3538,46.69651568,2020,AT_30503,official,TRUE
AT_30504,14.747241589041,48.072234205875226,AT,AT12,AT121,30504,Aschbach-Markt,3822,37.24845686,2020,AT_30504,official,TRUE
AT_30506,14.485351193021732,48.039798678145516,AT,AT12,AT121,30506,Behamberg,3426,20.22792644,2020,AT_30506,official,TRUE
AT_30507,14.71937087512012,48.02242841717971,AT,AT12,AT121,30507,Biberbach,2269,28.70991966,2020,AT_30507,official,TRUE
AT_30508,14.499315389763659,48.21428593199907,AT,AT12,AT121,30508,Ennsdorf,3084,7.63603118,2020,AT_30508,official,TRUE
AT_30509,14.481148958351048,48.13138342451684,AT,AT12,AT121,30509,Ernsthofen,2258,17.96756972,2020,AT_30509,official,TRUE
AT_30510,14.63357513247745,47.975534051971955,AT,AT12,AT121,30510,Ertl,1260,21.21319308,2020,AT_30510,official,TRUE
AT_30511,14.933980059391706,48.08139026739074,AT,AT12,AT121,30511,Euratsfeld,2680,30.38063991,2020,AT_30511,official,TRUE
AT_30512,14.982022840255109,48.09675974516047,AT,AT12,AT121,30512,Ferschnitz,1843,15.66208389,2020,AT_30512,official,TRUE
AT_30514,14.57073544206053,48.10854640024593,AT,AT12,AT121,30514,Haag,5639,55.06456402,2020,AT_30514,official,TRUE
AT_30515,14.479988383052664,48.078922750868514,AT,AT12,AT121,30515,Haidershofen,3714,32.08888563,2020,AT_30515,official,TRUE
AT_30516,14.772022579680849,47.80139959017594,AT,AT12,AT121,30516,Hollenstein an der Ybbs,1690,125.97558577,2020,AT_30516,official,TRUE
AT_30517,14.769646226862267,48.03264602201451,AT,AT12,AT121,30517,Kematen an der Ybbs,2639,11.04325762,2020,AT_30517,official,TRUE
AT_30520,14.854855386936679,48.057366076661715,AT,AT12,AT121,30520,Neuhofen an der Ybbs,2951,36.42505298,2020,AT_30520,official,TRUE
AT_30521,14.89774752685427,48.20183164413795,AT,AT12,AT121,30521,Neustadtl an der Donau,2144,47.5541849,2020,AT_30521,official,TRUE
AT_30522,14.778368939398996,48.10732433768542,AT,AT12,AT121,30522,Oed-Oehling,1933,10.64065485,2020,AT_30522,official,TRUE
AT_30524,14.822452645660285,47.8783585690836,AT,AT12,AT121,30524,Opponitz,902,39.56849968,2020,AT_30524,official,TRUE
AT_30526,14.916786386553015,47.83821957801641,AT,AT12,AT121,30526,St. Georgen am Reith,542,40.09511727,2020,AT_30526,official,TRUE
AT_30527,14.945796938207552,48.12276131295684,AT,AT12,AT121,30527,St. Georgen am Ybbsfelde,2848,22.72854367,2020,AT_30527,official,TRUE
AT_30529,14.548673857334018,48.216168283580934,AT,AT12,AT121,30529,St. Pantaleon-Erla,2627,28.17776053,2020,AT_30529,official,TRUE
AT_30530,14.618666527882102,48.0410771017494,AT,AT12,AT121,30530,St. Peter in der Au,5193,59.8391769,2020,AT_30530,official,TRUE
AT_30531,14.51953961497015,48.170878870885325,AT,AT12,AT121,30531,St. Valentin,9306,45.65891077,2020,AT_30531,official,TRUE
AT_30532,14.651685904970916,48.03768474940819,AT,AT12,AT121,30532,Seitenstetten,3440,30.450854,2020,AT_30532,official,TRUE
AT_30533,14.746820425300466,48.00191826164623,AT,AT12,AT121,30533,Sonntagberg,3805,18.70554164,2020,AT_30533,official,TRUE
AT_30534,14.64602729703366,48.147023100225454,AT,AT12,AT121,30534,Strengberg,2094,36.72507193,2020,AT_30534,official,TRUE
AT_30536,14.898704877553577,48.14968948322745,AT,AT12,AT121,30536,Viehdorf,1362,15.73352961,2020,AT_30536,official,TRUE
AT_30538,14.713318122782132,48.16270946318379,AT,AT12,AT121,30538,Wallsee-Sindelburg,2190,25.84104487,2020,AT_30538,official,TRUE
AT_30539,14.58060669118684,48.05215157859795,AT,AT12,AT121,30539,Weistrach,2262,35.72527945,2020,AT_30539,official,TRUE
AT_30541,14.858628218845153,48.10165421497688,AT,AT12,AT121,30541,Winklarn,1762,12.51543848,2020,AT_30541,official,TRUE
AT_30542,14.666613508869213,48.08126424984669,AT,AT12,AT121,30542,Wolfsbach,2047,31.02477464,2020,AT_30542,official,TRUE
AT_30543,14.893230120676922,47.947747340603954,AT,AT12,AT121,30543,Ybbsitz,3405,103.8680653,2020,AT_30543,official,TRUE
AT_30544,14.799347090300845,48.12736700550772,AT,AT12,AT121,30544,Zeillern,1877,21.41594093,2020,AT_30544,official,TRUE
AT_30601,16.07756756993334,48.05724053679731,AT,AT12,AT127,30601,Alland,2589,68.81982046,2020,AT_30601,official,TRUE
AT_30602,15.97504443735531,48.02865099970208,AT,AT12,AT122,30602,Altenmarkt an der Triesting,2102,63.21110001,2020,AT_30602,official,TRUE
AT_30603,16.21327204136392,47.96529027185278,AT,AT12,AT127,30603,Bad Vöslau,12126,39.19480819,2020,AT_30603,official,TRUE
AT_30604,16.237487617824044,48.00486323812515,AT,AT12,AT127,30604,Baden,25958,26.88370628,2020,AT_30604,official,TRUE
AT_30605,16.110866016012032,47.941448527714414,AT,AT12,AT122,30605,Berndorf,9046,17.61570749,2020,AT_30605,official,TRUE
AT_30607,16.41010544990399,47.95922848094326,AT,AT12,AT127,30607,Ebreichsdorf,11229,43.10739907,2020,AT_30607,official,TRUE
AT_30608,16.18485687672563,47.92062327409156,AT,AT12,AT122,30608,Enzesfeld-Lindabrunn,4224,15.8771089,2020,AT_30608,official,TRUE
AT_30609,15.994722245024018,47.9730218532832,AT,AT12,AT122,30609,Furth an der Triesting,863,64.1814136,2020,AT_30609,official,TRUE
AT_30612,16.264437253412783,47.94225263852318,AT,AT12,AT127,30612,Günselsdorf,1710,6.64970896,2020,AT_30612,official,TRUE
AT_30613,16.161816386521185,48.04337883393123,AT,AT12,AT127,30613,Heiligenkreuz,1544,30.09584731,2020,AT_30613,official,TRUE
AT_30614,16.10062430690605,47.909568207360074,AT,AT12,AT122,30614,Hernstein,1549,45.75518111,2020,AT_30614,official,TRUE
AT_30615,16.180672859227794,47.928448609391964,AT,AT12,AT122,30615,Hirtenberg,2611,1.4995199,2020,AT_30615,official,TRUE
AT_30616,16.00502856070648,48.10383319568362,AT,AT12,AT127,30616,Klausen-Leopoldsdorf,1710,60.34791251,2020,AT_30616,official,TRUE
AT_30618,16.225845222635524,47.9483341314693,AT,AT12,AT127,30618,Kottingbrunn,7404,11.49860408,2020,AT_30618,official,TRUE
AT_30620,16.219579390501814,47.9284112618401,AT,AT12,AT127,30620,Leobersdorf,4897,12.46819365,2020,AT_30620,official,TRUE
AT_30621,16.472708390685913,47.99927803982635,AT,AT12,AT127,30621,Mitterndorf an der Fischa,2889,11.39804937,2020,AT_30621,official,TRUE
AT_30623,16.321227116896072,47.97737262733388,AT,AT12,AT127,30623,Oberwaltersdorf,4800,13.44622928,2020,AT_30623,official,TRUE
AT_30625,16.260269535388368,48.01416468383335,AT,AT12,AT127,30625,Pfaffstätten,3589,7.93623416,2020,AT_30625,official,TRUE
AT_30626,16.392544503303117,47.907938125502135,AT,AT12,AT127,30626,Pottendorf,7231,39.67901912,2020,AT_30626,official,TRUE
AT_30627,16.09208576708224,47.959766995492096,AT,AT12,AT122,30627,Pottenstein,2930,33.46398626,2020,AT_30627,official,TRUE
AT_30629,16.519907189194853,47.99924915353819,AT,AT12,AT127,30629,Reisenberg,1748,17.68322484,2020,AT_30629,official,TRUE
AT_30631,16.24739178928142,47.933446749042254,AT,AT12,AT127,30631,Schönau an der Triesting,2144,7.84699759,2020,AT_30631,official,TRUE
AT_30633,16.493957284970683,47.95004115895634,AT,AT12,AT127,30633,Seibersdorf,1497,20.28925492,2020,AT_30633,official,TRUE
AT_30635,16.21372861606851,47.980627964091596,AT,AT12,AT127,30635,Sooß,1060,5.50794478,2020,AT_30635,official,TRUE
AT_30636,16.306335233965523,47.957940513771746,AT,AT12,AT127,30636,Tattendorf,1474,14.32832242,2020,AT_30636,official,TRUE
AT_30637,16.28789236370322,47.947944581508395,AT,AT12,AT127,30637,Teesdorf,1808,7.25994364,2020,AT_30637,official,TRUE
AT_30639,16.293017167127857,48.01597773675196,AT,AT12,AT127,30639,Traiskirchen,18758,29.6835888,2020,AT_30639,official,TRUE
AT_30641,16.347494565658653,47.99799414794455,AT,AT12,AT127,30641,Trumau,3709,19.03149417,2020,AT_30641,official,TRUE
AT_30645,16.042539311335236,47.98878461305329,AT,AT12,AT122,30645,Weissenbach an der Triesting,1703,15.84758591,2020,AT_30645,official,TRUE
AT_30646,16.295251159398955,47.92255555383526,AT,AT12,AT127,30646,Blumau-Neurißhof,1849,4.41239654,2020,AT_30646,official,TRUE
AT_30701,16.555771304219366,47.921963786854775,AT,AT12,AT127,30701,Au am Leithaberge,948,16.39584258,2020,AT_30701,official,TRUE
AT_30702,16.906181346472952,48.12933592643006,AT,AT12,AT127,30702,Bad Deutsch-Altenburg,1785,12.58659981,2020,AT_30702,official,TRUE
AT_30703,17.037378824002257,48.102404369266075,AT,AT12,AT127,30703,Berg,905,9.49017634,2020,AT_30703,official,TRUE
AT_30704,16.7736392518298,48.0287288354292,AT,AT12,AT127,30704,Bruck an der Leitha,8036,23.55332739,2020,AT_30704,official,TRUE
AT_30706,16.60077392371917,48.06648293514923,AT,AT12,AT127,30706,Enzersdorf an der Fischa,3336,31.8515858,2020,AT_30706,official,TRUE
AT_30708,16.72669179797339,48.060244199424766,AT,AT12,AT127,30708,Göttlesbrunn-Arbesthal,1447,26.30157031,2020,AT_30708,official,TRUE
AT_30709,16.57229751923955,48.01575509501984,AT,AT12,AT127,30709,Götzendorf an der Leitha,2108,25.75184625,2020,AT_30709,official,TRUE
AT_30710,16.94574185456652,48.144188892561246,AT,AT12,AT127,30710,Hainburg a.d.Donau,6837,25.1394728,2020,AT_30710,official,TRUE
AT_30711,16.70761717673858,48.112814050072956,AT,AT12,AT127,30711,Haslau-Maria Ellend,2012,25.21831673,2020,AT_30711,official,TRUE
AT_30712,16.78555069044557,48.07003351143258,AT,AT12,AT127,30712,Höflein,1250,22.34262006,2020,AT_30712,official,TRUE
AT_30713,16.579350070886726,47.94196058067719,AT,AT12,AT127,30713,Hof am Leithaberge,1550,21.73769147,2020,AT_30713,official,TRUE
AT_30715,16.936699585169023,48.11773000097607,AT,AT12,AT127,30715,Hundsheim,627,13.48904628,2020,AT_30715,official,TRUE
AT_30716,16.605479646691858,47.975465135657316,AT,AT12,AT127,30716,Mannersdorf am Leithagebirge,4138,29.85745944,2020,AT_30716,official,TRUE
AT_30718,16.86643747608656,48.11286773132383,AT,AT12,AT127,30718,Petronell-Carnuntum,1263,25.51694505,2020,AT_30718,official,TRUE
AT_30719,16.949080750802896,48.071109727708475,AT,AT12,AT127,30719,Prellenkirchen,1618,40.79322158,2020,AT_30719,official,TRUE
AT_30721,16.85132810807816,48.0632930480226,AT,AT12,AT127,30721,Rohrau,1614,20.73753619,2020,AT_30721,official,TRUE
AT_30722,16.796439562577675,48.10459046335872,AT,AT12,AT127,30722,Scharndorf,1175,26.099740829999998,2020,AT_30722,official,TRUE
AT_30724,16.65449312305476,47.9924447722252,AT,AT12,AT127,30724,Sommerein,2062,40.74269919,2020,AT_30724,official,TRUE
AT_30726,16.65101385041608,48.037842880321925,AT,AT12,AT127,30726,Trautmannsdorf an der Leitha,2984,35.4769548,2020,AT_30726,official,TRUE
AT_30728,17.01008501869379,48.13343931500255,AT,AT12,AT127,30728,Wolfsthal,1146,21.90286085,2020,AT_30728,official,TRUE
AT_30729,16.519078959302522,48.045325611384946,AT,AT12,AT127,30729,Ebergassing,3958,15.90319338,2020,AT_30729,official,TRUE
AT_30730,16.615216691564893,48.114696084326816,AT,AT12,AT127,30730,Fischamend,5572,24.48329235,2020,AT_30730,official,TRUE
AT_30731,16.48871019734475,48.02742126551308,AT,AT12,AT127,30731,Gramatneusiedl,3612,6.36914672,2020,AT_30731,official,TRUE
AT_30732,16.439602433133647,48.08067305727372,AT,AT12,AT127,30732,Himberg,7443,47.42133126,2020,AT_30732,official,TRUE
AT_30733,16.604812352800188,48.09276136350594,AT,AT12,AT127,30733,Klein-Neusiedl,906,5.91543948,2020,AT_30733,official,TRUE
AT_30734,16.443015507623876,48.11080527448251,AT,AT12,AT127,30734,Lanzendorf,1918,4.58843304,2020,AT_30734,official,TRUE
AT_30735,16.396841046764393,48.110963560763565,AT,AT12,AT127,30735,Leopoldsdorf,5230,7.13803117,2020,AT_30735,official,TRUE
AT_30736,16.4165894112749,48.09622066031255,AT,AT12,AT127,30736,Maria-Lanzendorf,2179,1.68088823,2020,AT_30736,official,TRUE
AT_30737,16.46149291858961,48.01625196354487,AT,AT12,AT127,30737,Moosbrunn,1775,16.79718589,2020,AT_30737,official,TRUE
AT_30738,16.524188007333684,48.080557799891395,AT,AT12,AT127,30738,Rauchenwarth,772,13.50410578,2020,AT_30738,official,TRUE
AT_30739,16.57932365182342,48.07376828591343,AT,AT12,AT127,30739,Schwadorf,2208,11.32087827,2020,AT_30739,official,TRUE
AT_30740,16.470969446950427,48.13730341275627,AT,AT12,AT127,30740,Schwechat,19570,45.28380517,2020,AT_30740,official,TRUE
AT_30741,16.46066094634287,48.11137842348972,AT,AT12,AT127,30741,Zwölfaxing,1751,6.77883708,2020,AT_30741,official,TRUE
AT_30801,16.535125091642325,48.28375906142846,AT,AT12,AT126,30801,Aderklaa,196,8.60017033,2020,AT_30801,official,TRUE
AT_30802,16.670158024924802,48.179466957236286,AT,AT12,AT126,30802,Andlersdorf,141,5.89392579,2020,AT_30802,official,TRUE
AT_30803,16.823007214725312,48.39052832698314,AT,AT12,AT126,30803,Angern an der March,3417,38.2670972,2020,AT_30803,official,TRUE
AT_30804,16.635037424775597,48.37307596667565,AT,AT12,AT126,30804,Auersthal,1922,15.5158993,2020,AT_30804,official,TRUE
AT_30805,16.599711852361114,48.45342703924676,AT,AT12,AT126,30805,Bad Pirawarth,1683,25.3821525,2020,AT_30805,official,TRUE
AT_30808,16.57087171284854,48.30649332387701,AT,AT12,AT126,30808,Deutsch-Wagram,8960,30.68287845,2020,AT_30808,official,TRUE
AT_30810,16.89843714099297,48.535980283197674,AT,AT12,AT125,30810,Drösing,1128,29.43040776,2020,AT_30810,official,TRUE
AT_30811,16.848652694459428,48.47226609045415,AT,AT12,AT125,30811,Dürnkrut,2237,30.35406683,2020,AT_30811,official,TRUE
AT_30812,16.786765955185796,48.434739732992554,AT,AT12,AT126,30812,Ebenthal,891,18.1153432,2020,AT_30812,official,TRUE
AT_30813,16.796646022761895,48.152582388653514,AT,AT12,AT126,30813,Eckartsau,1298,48.47197909,2020,AT_30813,official,TRUE
AT_30814,16.901737617501205,48.18289646051187,AT,AT12,AT126,30814,Engelhartstetten,2085,65.76956162,2020,AT_30814,official,TRUE
AT_30817,16.719487464008072,48.335353755395595,AT,AT12,AT126,30817,Gänserndorf,11643,30.59659274,2020,AT_30817,official,TRUE
AT_30819,16.63833181592676,48.24625561830805,AT,AT12,AT126,30819,Glinzendorf,314,10.52360353,2020,AT_30819,official,TRUE
AT_30821,16.558234056622545,48.19496192232767,AT,AT12,AT126,30821,Groß-Enzersdorf,11600,84.30950197,2020,AT_30821,official,TRUE
AT_30822,16.62656060840051,48.26283809268521,AT,AT12,AT126,30822,Großhofen,110,6.14587629,2020,AT_30822,official,TRUE
AT_30824,16.634500445668586,48.41608396264293,AT,AT12,AT126,30824,Groß-Schweinbarth,1296,25.2251425,2020,AT_30824,official,TRUE
AT_30825,16.775023330889507,48.192530361823174,AT,AT12,AT126,30825,Haringsee,1183,27.13635063,2020,AT_30825,official,TRUE
AT_30826,16.735225006754625,48.60773930961403,AT,AT12,AT125,30826,Hauskirchen,1253,22.3870868,2020,AT_30826,official,TRUE
AT_30827,16.904034398786887,48.607912374591386,AT,AT12,AT125,30827,Hohenau an der March,2706,23.25582513,2020,AT_30827,official,TRUE
AT_30828,16.653029613245327,48.461607745555256,AT,AT12,AT126,30828,Hohenruppersdorf,936,21.41929219,2020,AT_30828,official,TRUE
AT_30829,16.880609097397514,48.50339866115223,AT,AT12,AT125,30829,Jedenspeigen,1095,23.22154873,2020,AT_30829,official,TRUE
AT_30830,16.82354766227838,48.22672804523496,AT,AT12,AT126,30830,Lassee,2869,55.62426438,2020,AT_30830,official,TRUE
AT_30831,16.69138287504313,48.22278349817313,AT,AT12,AT126,30831,Leopoldsdorf im Marchfelde,2923,28.9265652,2020,AT_30831,official,TRUE
AT_30834,16.665643761981205,48.152646310295395,AT,AT12,AT126,30834,Mannsdorf an der Donau,373,10.23101882,2020,AT_30834,official,TRUE
AT_30835,16.909750983534103,48.25665769219174,AT,AT12,AT126,30835,Marchegg,2989,45.60809587,2020,AT_30835,official,TRUE
AT_30836,16.625362799035997,48.29906191180467,AT,AT12,AT126,30836,Markgrafneusiedl,898,19.83979288,2020,AT_30836,official,TRUE
AT_30838,16.68125570535045,48.405422804209955,AT,AT12,AT126,30838,Matzen-Raggendorf,2788,35.78087688,2020,AT_30838,official,TRUE
AT_30841,16.78745095519988,48.60194826818866,AT,AT12,AT125,30841,Neusiedl an der Zaya,1258,17.61623137,2020,AT_30841,official,TRUE
AT_30842,16.70775482760616,48.2633303214746,AT,AT12,AT126,30842,Obersiebenbrunn,1699,26.91245669,2020,AT_30842,official,TRUE
AT_30844,16.69977642639061,48.15001618628678,AT,AT12,AT126,30844,Orth an der Donau,2157,33.53951781,2020,AT_30844,official,TRUE
AT_30845,16.820530489306,48.595089970601286,AT,AT12,AT125,30845,Palterndorf-Dobermannsdorf,1340,18.74904182,2020,AT_30845,official,TRUE
AT_30846,16.588847571780416,48.28060533221774,AT,AT12,AT126,30846,Parbasdorf,163,10.23401446,2020,AT_30846,official,TRUE
AT_30848,16.73767389247321,48.38440245635957,AT,AT12,AT126,30848,Prottes,1457,13.81595093,2020,AT_30848,official,TRUE
AT_30849,16.568757155503285,48.24867273763813,AT,AT12,AT126,30849,Raasdorf,640,13.10473743,2020,AT_30849,official,TRUE
AT_30850,16.863379166749528,48.56386158217401,AT,AT12,AT125,30850,Ringelsdorf-Niederabsdorf,1231,32.47581584,2020,AT_30850,official,TRUE
AT_30852,16.680617999528398,48.34018509012762,AT,AT12,AT126,30852,Schönkirchen-Reyersdorf,1987,17.94133378,2020,AT_30852,official,TRUE
AT_30854,16.737110929693273,48.46409265716825,AT,AT12,AT126,30854,Spannberg,1010,19.60096048,2020,AT_30854,official,TRUE
AT_30856,16.651406757177952,48.317494146740444,AT,AT12,AT126,30856,Strasshof an der Nordbahn,10767,12.39757942,2020,AT_30856,official,TRUE
AT_30857,16.679570423083046,48.49529263277897,AT,AT12,AT125,30857,Sulz im Weinviertel,1206,31.61595624,2020,AT_30857,official,TRUE
AT_30858,16.7468191607099,48.25575082235056,AT,AT12,AT126,30858,Untersiebenbrunn,1759,30.49349188,2020,AT_30858,official,TRUE
AT_30859,16.78780279147009,48.470136079415106,AT,AT12,AT126,30859,Velm-Götzendorf,773,17.75478297,2020,AT_30859,official,TRUE
AT_30860,16.771961718290505,48.34778781071938,AT,AT12,AT126,30860,Weikendorf,2026,46.3553897,2020,AT_30860,official,TRUE
AT_30863,16.757671143467345,48.54167861608803,AT,AT12,AT125,30863,Zistersdorf,5379,89.10784173,2020,AT_30863,official,TRUE
AT_30865,16.848679006876086,48.32299593105869,AT,AT12,AT126,30865,Weiden an der March,996,55.92008175,2020,AT_30865,official,TRUE
AT_30902,15.088084721050777,48.83244494928131,AT,AT12,AT124,30902,Amaliendorf-Aalfang,1108,8.02912332,2020,AT_30902,official,TRUE
AT_30903,15.003179935825916,48.84861104981844,AT,AT12,AT124,30903,Brand-Nagelberg,1512,36.70869225,2020,AT_30903,official,TRUE
AT_30904,15.149493222577508,48.909767450019444,AT,AT12,AT124,30904,Eggern,680,20.32732873,2020,AT_30904,official,TRUE
AT_30906,15.104936942530038,48.91757462536293,AT,AT12,AT124,30906,Eisgarn,680,22.45849743,2020,AT_30906,official,TRUE
AT_30908,14.981660394800125,48.766585646487165,AT,AT12,AT124,30908,Gmünd,5338,25.26143908,2020,AT_30908,official,TRUE
AT_30909,14.95697400616812,48.75097791883637,AT,AT12,AT124,30909,Großdietmanns,2214,39.94300328,2020,AT_30909,official,TRUE
AT_30910,14.824293082876205,48.62575906090758,AT,AT12,AT124,30910,Bad Großpertholz,1310,81.853419,2020,AT_30910,official,TRUE
AT_30912,14.949735666926781,48.64804660101523,AT,AT12,AT124,30912,Großschönau,1209,42.184135,2020,AT_30912,official,TRUE
AT_30913,14.791595490494403,48.697314569799566,AT,AT12,AT124,30913,Moorbad Harbach,734,35.51411913,2020,AT_30913,official,TRUE
AT_30915,15.059242736952994,48.99484865326547,AT,AT12,AT124,30915,Haugschlag,481,22.60496904,2020,AT_30915,official,TRUE
AT_30916,15.121795466985079,48.8657981173763,AT,AT12,AT124,30916,Heidenreichstein,3922,58.76997062,2020,AT_30916,official,TRUE
AT_30917,15.12181437116322,48.742218250249806,AT,AT12,AT124,30917,Hirschbach,576,8.12758186,2020,AT_30917,official,TRUE
AT_30920,15.030112120259616,48.770090481969085,AT,AT12,AT124,30920,Hoheneich,1395,15.62206909,2020,AT_30920,official,TRUE
AT_30921,15.091028127024643,48.72362653739513,AT,AT12,AT124,30921,Kirchberg am Walde,1307,37.48137952,2020,AT_30921,official,TRUE
AT_30925,15.04979192962245,48.94418275729788,AT,AT12,AT124,30925,Litschau,2176,81.1364653,2020,AT_30925,official,TRUE
AT_30929,15.141544093668909,48.96262207739856,AT,AT12,AT124,30929,Reingers,617,24.9827278,2020,AT_30929,official,TRUE
AT_30932,14.832636188417995,48.661761735916485,AT,AT12,AT124,30932,St. Martin,1091,49.43629161,2020,AT_30932,official,TRUE
AT_30935,15.067361703520538,48.7930976207145,AT,AT12,AT124,30935,Schrems,5383,60.85047715,2020,AT_30935,official,TRUE
AT_30939,14.89043277335613,48.72769812433396,AT,AT12,AT124,30939,Unserfrau-Altweitra,981,40.17753635,2020,AT_30939,official,TRUE
AT_30940,15.017382297879042,48.73447598986188,AT,AT12,AT124,30940,Waldenstein,1194,22.76373225,2020,AT_30940,official,TRUE
AT_30942,14.892815240835256,48.69753621110212,AT,AT12,AT124,30942,Weitra,2645,52.50996473,2020,AT_30942,official,TRUE
AT_31001,16.09881837164196,48.701131138979655,AT,AT12,AT125,31001,Alberndorf im Pulkautal,745,9.90194331,2020,AT_31001,official,TRUE
AT_31008,16.124157543378963,48.492078739521475,AT,AT12,AT125,31008,Göllersdorf,3064,59.72034206,2020,AT_31008,official,TRUE
AT_31009,16.057401766486326,48.603827267460595,AT,AT12,AT125,31009,Grabern,1694,30.97731392,2020,AT_31009,official,TRUE
AT_31014,16.03308461006501,48.64598555280792,AT,AT12,AT125,31014,Guntersdorf,1154,28.4535368,2020,AT_31014,official,TRUE
AT_31015,16.13005871300087,48.70694550146704,AT,AT12,AT125,31015,Hadres,1704,34.43515461,2020,AT_31015,official,TRUE
AT_31016,15.83888446412238,48.821420923475024,AT,AT12,AT125,31016,Hardegg,1305,92.9647775,2020,AT_31016,official,TRUE
AT_31018,16.070447103901863,48.708186949520034,AT,AT12,AT125,31018,Haugsdorf,1551,21.21250474,2020,AT_31018,official,TRUE
AT_31019,15.957223694554385,48.50587796740913,AT,AT12,AT125,31019,Heldenberg,1347,27.44738358,2020,AT_31019,official,TRUE
AT_31021,15.821194524325701,48.51259224664949,AT,AT12,AT125,31021,Hohenwarth-Mühlbach a.M.,1310,43.03627152,2020,AT_31021,official,TRUE
AT_31022,16.08146979841957,48.56063809029933,AT,AT12,AT125,31022,Hollabrunn,11882,152.44271805,2020,AT_31022,official,TRUE
AT_31025,16.184911121464705,48.671453943296925,AT,AT12,AT125,31025,Mailberg,575,16.00712401,2020,AT_31025,official,TRUE
AT_31026,15.830711675683961,48.572518612278586,AT,AT12,AT125,31026,Maissau,1935,42.94384897,2020,AT_31026,official,TRUE
AT_31028,16.212865237287467,48.62799884282048,AT,AT12,AT125,31028,Nappersdorf-Kammersdorf,1224,39.13635931,2020,AT_31028,official,TRUE
AT_31033,16.02924936729206,48.703147782703894,AT,AT12,AT125,31033,Pernersdorf,1017,25.85896395,2020,AT_31033,official,TRUE
AT_31035,15.859093852006257,48.70347918255091,AT,AT12,AT125,31035,Pulkau,1538,36.65553483,2020,AT_31035,official,TRUE
AT_31036,15.851625481155027,48.54962475401941,AT,AT12,AT125,31036,Ravelsbach,1603,26.35134318,2020,AT_31036,official,TRUE
AT_31037,15.955744663919548,48.75632271403782,AT,AT12,AT125,31037,Retz,4255,45.01150454,2020,AT_31037,official,TRUE
AT_31038,15.9937509267451,48.77122741823198,AT,AT12,AT125,31038,Retzbach,1022,18.12602463,2020,AT_31038,official,TRUE
AT_31041,15.900039503290559,48.730942150233176,AT,AT12,AT125,31041,Schrattenthal,865,22.4004037,2020,AT_31041,official,TRUE
AT_31042,16.18066163512137,48.71411233074507,AT,AT12,AT125,31042,Seefeld-Kadolz,945,21.66701565,2020,AT_31042,official,TRUE
AT_31043,15.932230581001068,48.60690032885797,AT,AT12,AT125,31043,Sitzendorf an der Schmida,2141,61.70183179,2020,AT_31043,official,TRUE
AT_31051,16.10879876098988,48.629105989151256,AT,AT12,AT125,31051,Wullersdorf,2352,63.88800826,2020,AT_31051,official,TRUE
AT_31052,15.965586436055432,48.69297301864426,AT,AT12,AT125,31052,Zellerndorf,2425,41.10274157,2020,AT_31052,official,TRUE
AT_31053,15.926128285164497,48.52825564073732,AT,AT12,AT125,31053,Ziersdorf,3380,48.75367564,2020,AT_31053,official,TRUE
AT_31101,15.589176655252963,48.6468312708511,AT,AT12,AT124,31101,Altenburg,817,28.34798856,2020,AT_31101,official,TRUE
AT_31102,15.514642380597904,48.69478331691761,AT,AT12,AT124,31102,Brunn an der Wild,838,31.9161523,2020,AT_31102,official,TRUE
AT_31103,15.802880175515627,48.61115238116051,AT,AT12,AT124,31103,Burgschleinitz-Kühnring,1338,42.04126673,2020,AT_31103,official,TRUE
AT_31104,15.623655961672565,48.857031687789,AT,AT12,AT124,31104,Drosendorf-Zissersdorf,1210,53.26658904,2020,AT_31104,official,TRUE
AT_31105,15.816205312478985,48.64419898386054,AT,AT12,AT124,31105,Eggenburg,3503,23.55779715,2020,AT_31105,official,TRUE
AT_31106,15.66266164621167,48.599065452521444,AT,AT12,AT124,31106,Gars am Kamp,3476,50.52042067,2020,AT_31106,official,TRUE
AT_31107,15.67462237768325,48.78830858736917,AT,AT12,AT124,31107,Geras,1271,67.62116867,2020,AT_31107,official,TRUE
AT_31109,15.655006487030663,48.667795338094855,AT,AT12,AT124,31109,Horn,6428,39.34308575,2020,AT_31109,official,TRUE
AT_31110,15.534235609414312,48.74391682855001,AT,AT12,AT124,31110,Irnfritz-Messern,1441,55.79642386,2020,AT_31110,official,TRUE
AT_31111,15.56715918858789,48.793854639510855,AT,AT12,AT124,31111,Japons,717,29.2579579,2020,AT_31111,official,TRUE
AT_31113,15.715996835379151,48.829190152215,AT,AT12,AT124,31113,Langau,676,22.37318748,2020,AT_31113,official,TRUE
AT_31114,15.761528926424205,48.667014816649804,AT,AT12,AT124,31114,Meiseldorf,876,35.43748689,2020,AT_31114,official,TRUE
AT_31117,15.628266507895093,48.74118307211401,AT,AT12,AT124,31117,Pernegg,702,36.6117014,2020,AT_31117,official,TRUE
AT_31119,15.50213384705534,48.662155002912044,AT,AT12,AT124,31119,Röhrenbach,522,25.09655339,2020,AT_31119,official,TRUE
AT_31120,15.881799716196504,48.66643390016387,AT,AT12,AT124,31120,Röschitz,1056,21.43449724,2020,AT_31120,official,TRUE
AT_31121,15.68478322436526,48.63390812739745,AT,AT12,AT124,31121,Rosenburg-Mold,850,30.67022497,2020,AT_31121,official,TRUE
AT_31123,15.61932029067315,48.67446042334086,AT,AT12,AT124,31123,St. Bernhard-Frauenhofen,1288,29.35471245,2020,AT_31123,official,TRUE
AT_31124,15.746447842009406,48.69993286728938,AT,AT12,AT124,31124,Sigmundsherberg,1642,47.82911748,2020,AT_31124,official,TRUE
AT_31129,15.79719191620507,48.7807870644586,AT,AT12,AT124,31129,Weitersfeld,1558,87.29141757,2020,AT_31129,official,TRUE
AT_31130,15.860161206791533,48.62351950135201,AT,AT12,AT124,31130,Straning-Grafenberg,727,26.38990478,2020,AT_31130,official,TRUE
AT_31201,16.358516331458283,48.335538837602186,AT,AT12,AT126,31201,Bisamberg,4795,10.72868193,2020,AT_31201,official,TRUE
AT_31202,16.419016440229605,48.35636350505288,AT,AT12,AT126,31202,Enzersfeld im Weinviertel,1748,9.77035269,2020,AT_31202,official,TRUE
AT_31203,16.358018370157982,48.526106606903554,AT,AT12,AT126,31203,Ernstbrunn,3264,81.85433813,2020,AT_31203,official,TRUE
AT_31204,16.234024652691865,48.50396575621924,AT,AT12,AT126,31204,Großmugl,1607,64.6019741,2020,AT_31204,official,TRUE
AT_31205,16.402379874831443,48.474386239167785,AT,AT12,AT126,31205,Großrußbach,2221,33.11017849,2020,AT_31205,official,TRUE
AT_31206,16.403641423886388,48.334716962439444,AT,AT12,AT126,31206,Hagenbrunn,2291,13.65336433,2020,AT_31206,official,TRUE
AT_31207,16.38797370465408,48.40731466913838,AT,AT12,AT126,31207,Harmannsdorf,4032,55.5164706,2020,AT_31207,official,TRUE
AT_31208,16.106051500176303,48.39403333399867,AT,AT12,AT126,31208,Hausleiten,3800,61.25594374,2020,AT_31208,official,TRUE
AT_31213,16.331047842526456,48.34745871471838,AT,AT12,AT126,31213,Korneuburg,13331,9.68493168,2020,AT_31213,official,TRUE
AT_31214,16.36283880176197,48.30589698589841,AT,AT12,AT126,31214,Langenzersdorf,8027,11.3495348,2020,AT_31214,official,TRUE
AT_31215,16.24343414329554,48.41859444161338,AT,AT12,AT126,31215,Leitzersdorf,1190,27.84398495,2020,AT_31215,official,TRUE
AT_31216,16.31866922367486,48.37802339044144,AT,AT12,AT126,31216,Leobendorf,4890,29.88634678,2020,AT_31216,official,TRUE
AT_31224,16.045285810985064,48.45353311373946,AT,AT12,AT126,31224,Rußbach,1409,30.68446399,2020,AT_31224,official,TRUE
AT_31226,16.165503658502065,48.43209422267694,AT,AT12,AT126,31226,Sierndorf,3971,55.06462538,2020,AT_31226,official,TRUE
AT_31227,16.26171856217643,48.37575276113675,AT,AT12,AT126,31227,Spillern,2428,12.79867689,2020,AT_31227,official,TRUE
AT_31228,16.020813913682314,48.404682291894005,AT,AT12,AT126,31228,Stetteldorf am Wagram,1057,25.64068737,2020,AT_31228,official,TRUE
AT_31229,16.384109331994633,48.366917116942,AT,AT12,AT126,31229,Stetten,1370,7.80924468,2020,AT_31229,official,TRUE
AT_31230,16.215449171931095,48.38736313657678,AT,AT12,AT126,31230,Stockerau,16875,37.58847602,2020,AT_31230,official,TRUE
AT_31234,16.29632655695002,48.457117771609155,AT,AT12,AT126,31234,Niederhollabrunn,1547,50.42311225,2020,AT_31234,official,TRUE
AT_31235,16.475798360052796,48.30519645523443,AT,AT12,AT126,31235,Gerasdorf bei Wien,11401,34.99089483,2020,AT_31235,official,TRUE
AT_31301,15.401218943774762,48.299817959545074,AT,AT12,AT124,31301,Aggsbach,641,13.96018809,2020,AT_31301,official,TRUE
AT_31302,15.362603668957648,48.45204358310059,AT,AT12,AT124,31302,Albrechtsberg an der Großen Krems,1023,28.60569937,2020,AT_31302,official,TRUE
AT_31303,15.535027077368444,48.369268204049916,AT,AT12,AT124,31303,Bergern im Dunkelsteinerwald,1269,37.04253961,2020,AT_31303,official,TRUE
AT_31304,15.525238250305552,48.39426303662581,AT,AT12,AT124,31304,Dürnstein,840,17.07064257,2020,AT_31304,official,TRUE
AT_31308,15.739490651906264,48.44218589580083,AT,AT12,AT124,31308,Grafenegg,3155,29.43446872,2020,AT_31308,official,TRUE
AT_31309,15.612538328627553,48.379081290191415,AT,AT12,AT124,31309,Furth bei Göttweig,2968,12.46592274,2020,AT_31309,official,TRUE
AT_31310,15.692576762409931,48.419844741297,AT,AT12,AT124,31310,Gedersdorf,2165,18.93264319,2020,AT_31310,official,TRUE
AT_31311,15.49086188404114,48.5148183969065,AT,AT12,AT124,31311,Gföhl,3783,80.66391028,2020,AT_31311,official,TRUE
AT_31315,15.716974875738048,48.45894075947727,AT,AT12,AT124,31315,Hadersdorf-Kammern,1956,4.77351132,2020,AT_31315,official,TRUE
AT_31319,15.47685924243839,48.536445795525644,AT,AT12,AT124,31319,Jaidhof,1212,44.80189907,2020,AT_31319,official,TRUE
AT_31321,15.458094373340776,48.588983787985754,AT,AT12,AT124,31321,Krumau am Kamp,750,26.77160691,2020,AT_31321,official,TRUE
AT_31322,15.682642555626506,48.47579332137705,AT,AT12,AT124,31322,Langenlois,7548,66.95057135,2020,AT_31322,official,TRUE
AT_31323,15.596069766056655,48.473877125247114,AT,AT12,AT124,31323,Lengenfeld,1375,14.90574972,2020,AT_31323,official,TRUE
AT_31324,15.384694062969682,48.49701153248959,AT,AT12,AT124,31324,Lichtenau im Waldviertel,2015,58.17627245,2020,AT_31324,official,TRUE
AT_31326,15.34598969261946,48.30445674327221,AT,AT12,AT124,31326,Maria Laach am Jauerling,916,36.34455381,2020,AT_31326,official,TRUE
AT_31327,15.576740902107895,48.39182315797439,AT,AT12,AT124,31327,Mautern an der Donau,3539,9.02869179,2020,AT_31327,official,TRUE
AT_31330,15.336203088650144,48.3701871480119,AT,AT12,AT124,31330,Mühldorf,1288,28.66167491,2020,AT_31330,official,TRUE
AT_31333,15.633211868140654,48.35382690186249,AT,AT12,AT124,31333,Paudorf,2560,30.33394821,2020,AT_31333,official,TRUE
AT_31336,15.338612469544719,48.56988998166438,AT,AT12,AT124,31336,Rastenfeld,1574,48.16309368,2020,AT_31336,official,TRUE
AT_31337,15.655864293585248,48.41737627629412,AT,AT12,AT124,31337,Rohrendorf bei Krems,2110,9.2361475,2020,AT_31337,official,TRUE
AT_31338,15.482012992046519,48.38626332156549,AT,AT12,AT124,31338,Rossatz-Arnsdorf,1054,39.18165411,2020,AT_31338,official,TRUE
AT_31340,15.554884082547888,48.59250376581011,AT,AT12,AT124,31340,St. Leonhard am Hornerwald,1109,51.3187753,2020,AT_31340,official,TRUE
AT_31343,15.56431910815419,48.44566141793415,AT,AT12,AT124,31343,Senftenberg,1975,34.97815456,2020,AT_31343,official,TRUE
AT_31344,15.401896527689026,48.36031969219113,AT,AT12,AT124,31344,Spitz,1569,23.90482477,2020,AT_31344,official,TRUE
AT_31346,15.733220273718885,48.47592771116399,AT,AT12,AT124,31346,Straß im Straßertale,1720,22.58787971,2020,AT_31346,official,TRUE
AT_31347,15.606688542320216,48.44648657885998,AT,AT12,AT124,31347,Stratzing,843,5.70624367,2020,AT_31347,official,TRUE
AT_31350,15.426724616623279,48.43335857331101,AT,AT12,AT124,31350,Weinzierl am Walde,1239,44.14159875,2020,AT_31350,official,TRUE
AT_31351,15.463863449417998,48.39667295750274,AT,AT12,AT124,31351,Weißenkirchen in der Wachau,1395,23.44411337,2020,AT_31351,official,TRUE
AT_31355,15.6921871484534,48.527212134776036,AT,AT12,AT124,31355,Schönberg am Kamp,1860,53.24314469,2020,AT_31355,official,TRUE
AT_31356,15.569931983657595,48.465668653954445,AT,AT12,AT124,31356,Droß,1036,10.24064894,2020,AT_31356,official,TRUE
AT_31401,15.343869430457278,47.865988156355726,AT,AT12,AT122,31401,Annaberg,516,62.99730243,2020,AT_31401,official,TRUE
AT_31402,15.582283154192552,48.06116806691459,AT,AT12,AT122,31402,Eschenau,1293,24.23044587,2020,AT_31402,official,TRUE
AT_31403,15.766153712441163,48.037279088958044,AT,AT12,AT122,31403,Hainfeld,3801,44.85188793,2020,AT_31403,official,TRUE
AT_31404,15.615085224167961,47.913576573406694,AT,AT12,AT122,31404,Hohenberg,1502,56.91155524,2020,AT_31404,official,TRUE
AT_31405,15.897814817691847,48.02529886912272,AT,AT12,AT122,31405,Kaumberg,1057,43.28855322,2020,AT_31405,official,TRUE
AT_31406,15.736234784358198,47.979777737319495,AT,AT12,AT122,31406,Kleinzell,879,93.99432486,2020,AT_31406,official,TRUE
AT_31407,15.589933179988936,48.01573973379482,AT,AT12,AT122,31407,Lilienfeld,2664,53.81700089,2020,AT_31407,official,TRUE
AT_31408,15.295842934239772,47.81421183186867,AT,AT12,AT122,31408,Mitterbach am Erlaufsee,481,67.42899871,2020,AT_31408,official,TRUE
AT_31409,15.803224498010145,48.00653678167842,AT,AT12,AT122,31409,Ramsau,830,55.1379842,2020,AT_31409,official,TRUE
AT_31410,15.73787156985458,48.05124025000789,AT,AT12,AT122,31410,Rohrbach an der Gölsen,1549,14.70235672,2020,AT_31410,official,TRUE
AT_31411,15.567431647410054,47.851599997497885,AT,AT12,AT122,31411,St. Aegyd am Neuwalde,1862,186.23180022,2020,AT_31411,official,TRUE
AT_31412,15.653503540980216,48.04744916962772,AT,AT12,AT122,31412,St. Veit an der Gölsen,3906,77.84544995,2020,AT_31412,official,TRUE
AT_31413,15.607627966912323,48.04251679053302,AT,AT12,AT122,31413,Traisen,3402,6.81419417,2020,AT_31413,official,TRUE
AT_31414,15.501388589110862,47.93517222851193,AT,AT12,AT122,31414,Türnitz,1913,145.65068069,2020,AT_31414,official,TRUE
AT_31502,15.205214133544107,48.24216128451028,AT,AT12,AT121,31502,Artstetten-Pöbring,1218,27.42570863,2020,AT_31502,official,TRUE
AT_31503,15.165000122425635,48.1524178381019,AT,AT12,AT121,31503,Bergland,1938,33.86101948,2020,AT_31503,official,TRUE
AT_31504,15.467293427051871,48.120807309269125,AT,AT12,AT121,31504,Bischofstetten,1230,19.05984772,2020,AT_31504,official,TRUE
AT_31505,14.9923056467843,48.12683463019702,AT,AT12,AT121,31505,Blindenmarkt,2710,17.14038669,2020,AT_31505,official,TRUE
AT_31506,14.985521648907888,48.32787002890661,AT,AT12,AT121,31506,Dorfstetten,582,34.25599625,2020,AT_31506,official,TRUE
AT_31507,15.440158606445841,48.26461572646779,AT,AT12,AT121,31507,Dunkelsteinerwald,2393,54.68017751,2020,AT_31507,official,TRUE
AT_31508,15.18486110797461,48.186216628031076,AT,AT12,AT121,31508,Erlauf,1081,9.6875873,2020,AT_31508,official,TRUE
AT_31509,15.178267341217962,48.19801643204241,AT,AT12,AT121,31509,Golling an der Erlauf,1510,2.69206502,2020,AT_31509,official,TRUE
AT_31511,15.071514807555438,48.1998766959565,AT,AT12,AT121,31511,Hofamt Priel,1699,39.66986845,2020,AT_31511,official,TRUE
AT_31513,15.411299661921923,48.15829932522088,AT,AT12,AT121,31513,Hürm,1861,36.18888323,2020,AT_31513,official,TRUE
AT_31514,15.405616574960984,48.09844783454234,AT,AT12,AT121,31514,Kilb,2574,45.50451874,2020,AT_31514,official,TRUE
AT_31515,15.323147602188701,48.07276841689649,AT,AT12,AT121,31515,Kirnberg an der Mank,1081,17.65650785,2020,AT_31515,official,TRUE
AT_31516,15.215684069923952,48.22008649770112,AT,AT12,AT121,31516,Klein-Pöchlarn,1033,6.89670938,2020,AT_31516,official,TRUE
AT_31517,15.167198467467024,48.206255337982,AT,AT12,AT121,31517,Krummnußbaum,1534,10.05863405,2020,AT_31517,official,TRUE
AT_31519,15.271532055111319,48.24335907474811,AT,AT12,AT121,31519,Leiben,1367,12.56944277,2020,AT_31519,official,TRUE
AT_31520,15.400127862452992,48.20104532303606,AT,AT12,AT121,31520,Loosdorf,3807,11.83861421,2020,AT_31520,official,TRUE
AT_31521,15.340395929928167,48.10803934345666,AT,AT12,AT121,31521,Mank,3219,33.57360932,2020,AT_31521,official,TRUE
AT_31522,15.150778856664344,48.21702940878085,AT,AT12,AT121,31522,Marbach an der Donau,1691,10.74708113,2020,AT_31522,official,TRUE
AT_31523,15.15412731195528,48.23184988711812,AT,AT12,AT121,31523,Maria Taferl,911,12.19082128,2020,AT_31523,official,TRUE
AT_31524,15.337377389841501,48.22563354423204,AT,AT12,AT121,31524,Melk,5630,25.61008361,2020,AT_31524,official,TRUE
AT_31525,15.122296058513099,48.29411772508133,AT,AT12,AT121,31525,Münichreith-Laimbach,1637,39.0003909,2020,AT_31525,official,TRUE
AT_31527,15.062289704656298,48.141139755384074,AT,AT12,AT121,31527,Neumarkt an der Ybbs,1992,9.5067872,2020,AT_31527,official,TRUE
AT_31528,14.9841314036633,48.22341151899431,AT,AT12,AT121,31528,Nöchling,1046,19.12447675,2020,AT_31528,official,TRUE
AT_31530,15.09467125867595,48.18687645940791,AT,AT12,AT121,31530,Persenbeug-Gottsdorf,2174,8.36121137,2020,AT_31530,official,TRUE
AT_31531,15.155579060701282,48.14349122118719,AT,AT12,AT121,31531,Petzenkirchen,1425,2.8495642,2020,AT_31531,official,TRUE
AT_31533,15.207846339393685,48.20991502727804,AT,AT12,AT121,31533,Pöchlarn,3948,17.90696374,2020,AT_31533,official,TRUE
AT_31534,15.194566402705192,48.314904524821635,AT,AT12,AT121,31534,Pöggstall,2416,59.29365289,2020,AT_31534,official,TRUE
AT_31535,15.286435272370513,48.33977733479241,AT,AT12,AT121,31535,Raxendorf,1048,36.32699002,2020,AT_31535,official,TRUE
AT_31537,15.273165312939593,48.13558262906917,AT,AT12,AT121,31537,Ruprechtshofen,2313,30.41297399,2020,AT_31537,official,TRUE
AT_31539,15.29006725292059,48.14259780835043,AT,AT12,AT121,31539,St. Leonhard am Forst,3042,43.6815897,2020,AT_31539,official,TRUE
AT_31540,15.025588727683832,48.163099107579136,AT,AT12,AT121,31540,St. Martin-Karlsbach,1640,24.57161584,2020,AT_31540,official,TRUE
AT_31541,15.03146016251935,48.265774980521165,AT,AT12,AT121,31541,St. Oswald,1120,32.33928718,2020,AT_31541,official,TRUE
AT_31542,15.40532318406044,48.28220522158397,AT,AT12,AT121,31542,Schönbühel-Aggsbach,953,28.39089285,2020,AT_31542,official,TRUE
AT_31543,15.383877869764904,48.20038666963708,AT,AT12,AT121,31543,Schollach,1017,19.78547146,2020,AT_31543,official,TRUE
AT_31546,15.25998596248178,48.291799804828166,AT,AT12,AT121,31546,Weiten,1089,28.53129836,2020,AT_31546,official,TRUE
AT_31549,15.078743167429801,48.17388380516118,AT,AT12,AT121,31549,Ybbs an der Donau,5627,23.83164003,2020,AT_31549,official,TRUE
AT_31550,15.263003975064157,48.18945301120764,AT,AT12,AT121,31550,Zelking-Matzleinsdorf,1220,21.22212061,2020,AT_31550,official,TRUE
AT_31551,15.320027813788982,48.0450507457402,AT,AT12,AT121,31551,Texingtal,1660,32.75547399,2020,AT_31551,official,TRUE
AT_31552,15.064757300073543,48.28540715633904,AT,AT12,AT121,31552,Yspertal,1995,48.05352985,2020,AT_31552,official,TRUE
AT_31553,15.332133204916595,48.24414750968417,AT,AT12,AT121,31553,Emmersdorf an der Donau,1760,29.6490724,2020,AT_31553,official,TRUE
AT_31601,16.79265611315367,48.6440541607433,AT,AT12,AT125,31601,Altlichtenwarth,766,20.395313260000002,2020,AT_31601,official,TRUE
AT_31603,16.48865859665318,48.58733315979898,AT,AT12,AT125,31603,Asparn an der Zaya,1881,40.49588427,2020,AT_31603,official,TRUE
AT_31604,16.848917109042127,48.694523111372355,AT,AT12,AT125,31604,Bernhardsthal,1582,51.89605437,2020,AT_31604,official,TRUE
AT_31605,16.59915813429104,48.35646887447315,AT,AT12,AT126,31605,Bockfließ,1331,22.19733495,2020,AT_31605,official,TRUE
AT_31606,16.650826610279626,48.754349021947256,AT,AT12,AT125,31606,Drasenhofen,1107,35.21460527,2020,AT_31606,official,TRUE
AT_31608,16.583381986531048,48.72032026159867,AT,AT12,AT125,31608,Falkenstein,480,19.19471282,2020,AT_31608,official,TRUE
AT_31609,16.4404995049953,48.65185460919441,AT,AT12,AT125,31609,Fallbach,819,30.4446867,2020,AT_31609,official,TRUE
AT_31611,16.380068113801723,48.661367328720424,AT,AT12,AT125,31611,Gaubitsch,880,22.45081662,2020,AT_31611,official,TRUE
AT_31612,16.592917963285398,48.48871961608636,AT,AT12,AT125,31612,Gaweinstal,4011,51.69323923,2020,AT_31612,official,TRUE
AT_31613,16.37876526764891,48.614340725185585,AT,AT12,AT125,31613,Gnadendorf,1147,47.72606852,2020,AT_31613,official,TRUE
AT_31614,16.462882845676766,48.36544602642408,AT,AT12,AT126,31614,Großebersdorf,2218,18.22497865,2020,AT_31614,official,TRUE
AT_31615,16.572108414930085,48.356850151669526,AT,AT12,AT126,31615,Großengersdorf,1497,15.50442731,2020,AT_31615,official,TRUE
AT_31616,16.240995940532123,48.676250654715034,AT,AT12,AT125,31616,Großharras,1112,42.45160633,2020,AT_31616,official,TRUE
AT_31617,16.723515485164743,48.64452718200271,AT,AT12,AT125,31617,Großkrut,1619,38.01510425,2020,AT_31617,official,TRUE
AT_31620,16.82689068710299,48.628232183939744,AT,AT12,AT125,31620,Hausbrunn,865,16.09101128,2020,AT_31620,official,TRUE
AT_31621,16.68380548236139,48.69497772211812,AT,AT12,AT125,31621,Herrnbaumgarten,948,16.52415109,2020,AT_31621,official,TRUE
AT_31622,16.52761839988648,48.44829762688235,AT,AT12,AT126,31622,Hochleithen,1144,19.90188755,2020,AT_31622,official,TRUE
AT_31627,16.475941390597335,48.440646265321355,AT,AT12,AT126,31627,Kreuttal,1470,21.60533345,2020,AT_31627,official,TRUE
AT_31628,16.47366180826747,48.480730669341106,AT,AT12,AT126,31628,Kreuzstetten,1535,24.17574559,2020,AT_31628,official,TRUE
AT_31629,16.390821175903195,48.7212300843156,AT,AT12,AT125,31629,Laa an der Thaya,6241,72.94572221,2020,AT_31629,official,TRUE
AT_31630,16.49127398702536,48.53065573789659,AT,AT12,AT125,31630,Ladendorf,2304,50.13972958,2020,AT_31630,official,TRUE
AT_31633,16.570975489437547,48.57209026292898,AT,AT12,AT125,31633,Mistelbach,11583,131.46401945,2020,AT_31633,official,TRUE
AT_31634,16.495345956738934,48.72039033167114,AT,AT12,AT125,31634,Neudorf im Weinviertel,1397,40.18947532,2020,AT_31634,official,TRUE
AT_31636,16.393658706398348,48.55127303280373,AT,AT12,AT125,31636,Niederleis,891,19.0521932,2020,AT_31636,official,TRUE
AT_31642,16.54271106166547,48.36226700836474,AT,AT12,AT126,31642,Pillichsdorf,1166,14.50326603,2020,AT_31642,official,TRUE
AT_31644,16.62229824920982,48.668056587448234,AT,AT12,AT125,31644,Poysdorf,5483,97.30913662,2020,AT_31644,official,TRUE
AT_31645,16.89706681872163,48.65034787317991,AT,AT12,AT125,31645,Rabensburg,1096,20.23062244,2020,AT_31645,official,TRUE
AT_31646,16.71824564357176,48.72644319835898,AT,AT12,AT125,31646,Schrattenberg,821,19.12088951,2020,AT_31646,official,TRUE
AT_31649,16.491071381662394,48.671777223321136,AT,AT12,AT125,31649,Staatz,1911,42.68445484,2020,AT_31649,official,TRUE
AT_31650,16.298087958644444,48.645395648385005,AT,AT12,AT125,31650,Stronsdorf,1618,47.81998304,2020,AT_31650,official,TRUE
AT_31651,16.49311478194021,48.40853408555362,AT,AT12,AT126,31651,Ulrichskirchen-Schleinbach,2621,26.53040985,2020,AT_31651,official,TRUE
AT_31652,16.345805189856954,48.66785669677361,AT,AT12,AT125,31652,Unterstinkenbrunn,558,9.42607119,2020,AT_31652,official,TRUE
AT_31653,16.50771024345183,48.758428546845884,AT,AT12,AT125,31653,Wildendürnbach,1568,53.63600601,2020,AT_31653,official,TRUE
AT_31654,16.64480286395044,48.586411237925,AT,AT12,AT125,31654,Wilfersdorf,2123,30.42453221,2020,AT_31654,official,TRUE
AT_31655,16.517732222571983,48.381905763303486,AT,AT12,AT126,31655,Wolkersdorf im Weinviertel,7299,44.19820934,2020,AT_31655,official,TRUE
AT_31658,16.583127174453647,48.756164964488654,AT,AT12,AT125,31658,Ottenthal,533,15.40347267,2020,AT_31658,official,TRUE
AT_31701,16.380787066633175,48.080565000429495,AT,AT12,AT127,31701,Achau,1433,11.97340994,2020,AT_31701,official,TRUE
AT_31702,16.347032628288794,48.0832302442181,AT,AT12,AT127,31702,Biedermannsdorf,3119,8.97728621,2020,AT_31702,official,TRUE
AT_31703,16.184714278347876,48.13408027527646,AT,AT12,AT127,31703,Breitenfurt bei Wien,5894,27.19478985,2020,AT_31703,official,TRUE
AT_31704,16.289786022636367,48.10837901557009,AT,AT12,AT127,31704,Brunn am Gebirge,11975,7.28129828,2020,AT_31704,official,TRUE
AT_31706,16.205940443158134,48.05489892809427,AT,AT12,AT127,31706,Gaaden,1648,24.507677,2020,AT_31706,official,TRUE
AT_31707,16.241659647198436,48.096306140282294,AT,AT12,AT127,31707,Gießhübl,2378,3.88113068,2020,AT_31707,official,TRUE
AT_31709,16.28742763195103,48.0400005206276,AT,AT12,AT127,31709,Gumpoldskirchen,3910,7.82877341,2020,AT_31709,official,TRUE
AT_31710,16.316653587011537,48.0543214028564,AT,AT12,AT127,31710,Guntramsdorf,9227,14.61153386,2020,AT_31710,official,TRUE
AT_31711,16.362578718309223,48.11276898565651,AT,AT12,AT127,31711,Hennersdorf,1547,5.42829831,2020,AT_31711,official,TRUE
AT_31712,16.247184605138322,48.087322105405626,AT,AT12,AT127,31712,Hinterbrühl,3952,16.91457353,2020,AT_31712,official,TRUE
AT_31713,16.198703718284822,48.1157748600495,AT,AT12,AT127,31713,Kaltenleutgeben,3337,17.50125697,2020,AT_31713,official,TRUE
AT_31714,16.180087776019796,48.1541853638447,AT,AT12,AT127,31714,Laab im Walde,1111,7.30123711,2020,AT_31714,official,TRUE
AT_31715,16.353752695279802,48.06868435105973,AT,AT12,AT127,31715,Laxenburg,2882,10.57105879,2020,AT_31715,official,TRUE
AT_31716,16.292937892146806,48.094411896685834,AT,AT12,AT127,31716,Maria Enzersdorf,8624,5.36111114,2020,AT_31716,official,TRUE
AT_31717,16.294327282179136,48.0813421293989,AT,AT12,AT127,31717,Mödling,20564,9.98916772,2020,AT_31717,official,TRUE
AT_31718,16.381791335956148,48.0323566497103,AT,AT12,AT127,31718,Münchendorf,2955,19.67261919,2020,AT_31718,official,TRUE
AT_31719,16.271496572417853,48.12532506261633,AT,AT12,AT127,31719,Perchtoldsdorf,14996,12.38398904,2020,AT_31719,official,TRUE
AT_31723,16.33653872182062,48.12122067120385,AT,AT12,AT127,31723,Vösendorf,7329,10.66247138,2020,AT_31723,official,TRUE
AT_31725,16.312416390187064,48.08437003099729,AT,AT12,AT127,31725,Wiener Neudorf,9354,6.02078313,2020,AT_31725,official,TRUE
AT_31726,16.13710073886816,48.093503752121904,AT,AT12,AT127,31726,Wienerwald,2880,48.08889415,2020,AT_31726,official,TRUE
AT_31801,16.0134703137381,47.65793300772474,AT,AT12,AT122,31801,Altendorf,350,7.23452317,2020,AT_31801,official,TRUE
AT_31802,16.09492946313648,47.55915078515799,AT,AT12,AT122,31802,Aspang-Markt,1779,5.174398,2020,AT_31802,official,TRUE
AT_31803,16.077319044155875,47.55731619195317,AT,AT12,AT122,31803,Aspangberg-St. Peter,1855,81.01442747,2020,AT_31803,official,TRUE
AT_31804,16.140576192894173,47.734159734747166,AT,AT12,AT122,31804,Breitenau,1574,9.69559636,2020,AT_31804,official,TRUE
AT_31805,15.857968346449303,47.65739203466752,AT,AT12,AT122,31805,Breitenstein,316,20.42959272,2020,AT_31805,official,TRUE
AT_31806,15.980476140858087,47.693861109824866,AT,AT12,AT122,31806,Buchbach,356,3.06023579,2020,AT_31806,official,TRUE
AT_31807,16.140495681473347,47.599555134202554,AT,AT12,AT122,31807,Edlitz,894,14.32264044,2020,AT_31807,official,TRUE
AT_31808,15.949227243614773,47.66816554027263,AT,AT12,AT122,31808,Enzenreith,1990,9.25197487,2020,AT_31808,official,TRUE
AT_31809,16.050629183108768,47.60182470676921,AT,AT12,AT122,31809,Feistritz am Wechsel,1033,24.05098683,2020,AT_31809,official,TRUE
AT_31810,15.940386535537863,47.673403111559985,AT,AT12,AT122,31810,Gloggnitz,5912,19.56053092,2020,AT_31810,official,TRUE
AT_31811,16.01496588598361,47.689759774839374,AT,AT12,AT122,31811,Grafenbach-St. Valentin,2211,14.03573173,2020,AT_31811,official,TRUE
AT_31812,16.109486633000525,47.61747942923523,AT,AT12,AT122,31812,Grimmenstein,1313,14.85417183,2020,AT_31812,official,TRUE
AT_31813,15.98345689105326,47.79817275443527,AT,AT12,AT122,31813,Grünbach am Schneeberg,1579,7.41683226,2020,AT_31813,official,TRUE
AT_31814,15.98992205316531,47.60831012578036,AT,AT12,AT122,31814,Kirchberg am Wechsel,2508,51.36333971,2020,AT_31814,official,TRUE
AT_31815,16.03834814757249,47.511834550953786,AT,AT12,AT122,31815,Mönichkirchen,618,16.19626808,2020,AT_31815,official,TRUE
AT_31817,16.102886630555503,47.71542633767443,AT,AT12,AT122,31817,Natschbach-Loipersbach,1697,10.67694155,2020,AT_31817,official,TRUE
AT_31818,16.083706365964787,47.72716587348624,AT,AT12,AT122,31818,Neunkirchen,12721,20.30631805,2020,AT_31818,official,TRUE
AT_31820,15.94252471889426,47.62431531338406,AT,AT12,AT122,31820,Otterthal,586,6.24861309,2020,AT_31820,official,TRUE
AT_31821,15.872036808827223,47.69128460199804,AT,AT12,AT122,31821,Payerbach,2060,17.70490152,2020,AT_31821,official,TRUE
AT_31823,16.18009000525148,47.714226269611586,AT,AT12,AT122,31823,Pitten,2870,13.64977064,2020,AT_31823,official,TRUE
AT_31825,15.933478399658297,47.68862350310725,AT,AT12,AT122,31825,Prigglitz,436,17.99895101,2020,AT_31825,official,TRUE
AT_31826,15.909344261001198,47.788857271696365,AT,AT12,AT122,31826,Puchberg am Schneeberg,2694,83.51108109,2020,AT_31826,official,TRUE
AT_31827,15.937267219686563,47.64664214529196,AT,AT12,AT122,31827,Raach am Hochgebirge,304,13.25285466,2020,AT_31827,official,TRUE
AT_31829,15.833529327807343,47.69621887841749,AT,AT12,AT122,31829,Reichenau an der Rax,2515,88.99680619,2020,AT_31829,official,TRUE
AT_31830,16.010957374134744,47.58301315917394,AT,AT12,AT122,31830,St. Corona am Wechsel,392,8.69908868,2020,AT_31830,official,TRUE
AT_31831,16.10725115278069,47.782267924899855,AT,AT12,AT122,31831,St. Egyden am Steinfeld,2065,27.5682634,2020,AT_31831,official,TRUE
AT_31832,16.138055959070723,47.664803904896836,AT,AT12,AT122,31832,Scheiblingkirchen-Thernberg,1902,37.64976458,2020,AT_31832,official,TRUE
AT_31833,15.8681340753439,47.648145441743594,AT,AT12,AT122,31833,Schottwien,676,12.3976797,2020,AT_31833,official,TRUE
AT_31834,15.991872259702042,47.789629057918226,AT,AT12,AT122,31834,Schrattenbach,384,10.89324287,2020,AT_31834,official,TRUE
AT_31835,16.175367893381235,47.73187173252377,AT,AT12,AT122,31835,Schwarzau am Steinfeld,2017,9.7768555,2020,AT_31835,official,TRUE
AT_31836,15.709099157968241,47.80173958681674,AT,AT12,AT122,31836,Schwarzau im Gebirge,608,191.9410958,2020,AT_31836,official,TRUE
AT_31837,16.153387464054333,47.700829460790786,AT,AT12,AT122,31837,Seebenstein,1438,9.18114671,2020,AT_31837,official,TRUE
AT_31838,15.829038440414696,47.64473550286802,AT,AT12,AT122,31838,Semmering,518,8.79363583,2020,AT_31838,official,TRUE
AT_31839,16.024625729573117,47.71129311874947,AT,AT12,AT122,31839,Ternitz,14660,65.42862382,2020,AT_31839,official,TRUE
AT_31840,16.13467830614187,47.59622882167514,AT,AT12,AT122,31840,Thomasberg,1262,28.91430305,2020,AT_31840,official,TRUE
AT_31841,15.893272457128981,47.60461450292393,AT,AT12,AT122,31841,Trattenbach,536,30.49399277,2020,AT_31841,official,TRUE
AT_31842,15.960577078475419,47.71627942596431,AT,AT12,AT122,31842,Bürg-Vöstenhof,165,25.09830129,2020,AT_31842,official,TRUE
AT_31843,16.11365722881899,47.64869139581159,AT,AT12,AT122,31843,Warth,1497,30.13310334,2020,AT_31843,official,TRUE
AT_31844,16.076142921984136,47.691172089270566,AT,AT12,AT122,31844,Wartmannstetten,1623,21.62276707,2020,AT_31844,official,TRUE
AT_31845,16.057229838089388,47.79129550289133,AT,AT12,AT122,31845,Willendorf,960,7.46026397,2020,AT_31845,official,TRUE
AT_31846,16.028820552597278,47.70182377443605,AT,AT12,AT122,31846,Wimpassing im Schwarzatale,1605,2.11545578,2020,AT_31846,official,TRUE
AT_31847,16.054380901804656,47.77079160932296,AT,AT12,AT122,31847,Würflach,1586,12.22173356,2020,AT_31847,official,TRUE
AT_31848,16.130060019095527,47.51406690723297,AT,AT12,AT122,31848,Zöbern,1407,31.9447281,2020,AT_31848,official,TRUE
AT_31849,16.031218639794602,47.79778368726661,AT,AT12,AT122,31849,Höflein an der Hohen Wand,871,9.10804469,2020,AT_31849,official,TRUE
AT_31901,15.930053273760727,48.153273927296205,AT,AT12,AT123,31901,Altlengbach,3025,35.76199234,2020,AT_31901,official,TRUE
AT_31902,15.929956947591814,48.24415314846956,AT,AT12,AT123,31902,Asperhofen,2236,28.94262681,2020,AT_31902,official,TRUE
AT_31903,15.762886068712072,48.1966889889256,AT,AT12,AT123,31903,Böheimkirchen,5096,45.29797646,2020,AT_31903,official,TRUE
AT_31904,15.873071427536965,48.103276625920145,AT,AT12,AT123,31904,Brand-Laaben,1236,34.28144078,2020,AT_31904,official,TRUE
AT_31905,15.980477516311804,48.17196752815604,AT,AT12,AT123,31905,Eichgraben,4652,9.00034432,2020,AT_31905,official,TRUE
AT_31906,15.324033727013193,47.980109467929395,AT,AT12,AT123,31906,Frankenfels,1941,56.17027599,2020,AT_31906,official,TRUE
AT_31907,15.552574390069589,48.197786938543466,AT,AT12,AT123,31907,Gerersdorf,985,13.61647027,2020,AT_31907,official,TRUE
AT_31909,15.511962958512767,48.098842776566485,AT,AT12,AT123,31909,Hofstetten-Grünau,2684,36.30307971,2020,AT_31909,official,TRUE
AT_31910,15.492245237115641,48.21663215844656,AT,AT12,AT123,31910,Hafnerbach,1663,29.17752842,2020,AT_31910,official,TRUE
AT_31911,15.457213169075311,48.193601356618544,AT,AT12,AT123,31911,Haunoldstein,1226,9.93468525,2020,AT_31911,official,TRUE
AT_31912,15.697415173003137,48.28143249095081,AT,AT12,AT123,31912,Herzogenburg,7844,46.10017195,2020,AT_31912,official,TRUE
AT_31913,15.685179416282056,48.31803655267462,AT,AT12,AT123,31913,Inzersdorf-Getzersdorf,1617,13.61434934,2020,AT_31913,official,TRUE
AT_31915,15.762700560686739,48.25708554225728,AT,AT12,AT123,31915,Kapelln,1390,20.17839952,2020,AT_31915,official,TRUE
AT_31916,15.560487475497096,48.2590899574938,AT,AT12,AT123,31916,Karlstetten,2175,28.37768782,2020,AT_31916,official,TRUE
AT_31917,15.777526977112892,48.15627322649992,AT,AT12,AT123,31917,Kasten bei Böheimkirchen,1410,20.50644192,2020,AT_31917,official,TRUE
AT_31918,15.4268969114022,48.02356007553233,AT,AT12,AT123,31918,Kirchberg an der Pielach,3207,64.00455845,2020,AT_31918,official,TRUE
AT_31919,15.81586253780579,48.19122965478554,AT,AT12,AT123,31919,Kirchstetten,2210,17.71177786,2020,AT_31919,official,TRUE
AT_31920,15.39998388769973,47.99464692946729,AT,AT12,AT123,31920,Loich,594,24.61811529,2020,AT_31920,official,TRUE
AT_31921,15.93119711273495,48.193385013236536,AT,AT12,AT123,31921,Maria-Anzbach,3064,18.12840234,2020,AT_31921,official,TRUE
AT_31922,15.497489179855783,48.19027463435099,AT,AT12,AT123,31922,Markersdorf-Haindorf,2090,16.67792863,2020,AT_31922,official,TRUE
AT_31923,15.758736124511813,48.09893729137516,AT,AT12,AT123,31923,Michelbach,893,25.3487154,2020,AT_31923,official,TRUE
AT_31925,15.55287933244475,48.23800565201205,AT,AT12,AT123,31925,Neidling,1472,18.66844197,2020,AT_31925,official,TRUE
AT_31926,15.89779048264744,48.19614542598804,AT,AT12,AT123,31926,Neulengbach,8304,51.71027784,2020,AT_31926,official,TRUE
AT_31927,15.907798941031906,48.13486511955187,AT,AT12,AT123,31927,Neustift-Innermanzing,1588,14.90688364,2020,AT_31927,official,TRUE
AT_31928,15.699428536391713,48.347960090211366,AT,AT12,AT123,31928,Nußdorf ob der Traisen,1786,15.3847192,2020,AT_31928,official,TRUE
AT_31929,15.546442851237874,48.15037750013942,AT,AT12,AT123,31929,Ober-Grafendorf,4593,24.54613579,2020,AT_31929,official,TRUE
AT_31930,15.613166522623757,48.275995182767794,AT,AT12,AT123,31930,Obritzberg-Rust,2321,41.51325662,2020,AT_31930,official,TRUE
AT_31932,15.520120294394312,48.20053437963204,AT,AT12,AT123,31932,Prinzersdorf,1592,4.08512496,2020,AT_31932,official,TRUE
AT_31934,15.682351464996557,48.15804772005743,AT,AT12,AT123,31934,Pyhra,3566,66.6716703,2020,AT_31934,official,TRUE
AT_31935,15.469617254594281,48.06347361208248,AT,AT12,AT123,31935,Rabenstein an der Pielach,2537,36.2166018,2020,AT_31935,official,TRUE
AT_31938,15.494280166985016,48.15747511604878,AT,AT12,AT123,31938,St. Margarethen an der Sierning,1007,14.60754722,2020,AT_31938,official,TRUE
AT_31939,15.376145785926726,47.945655617591186,AT,AT12,AT123,31939,Schwarzenbach an der Pielach,380,45.75078718,2020,AT_31939,official,TRUE
AT_31940,15.638613124628483,48.313305561027256,AT,AT12,AT123,31940,Statzendorf,1443,12.38103608,2020,AT_31940,official,TRUE
AT_31941,15.812732626270437,48.123408841639836,AT,AT12,AT123,31941,Stössing,841,27.60556929,2020,AT_31941,official,TRUE
AT_31943,15.747669690593783,48.350075369048604,AT,AT12,AT123,31943,Traismauer,6330,43.51547535,2020,AT_31943,official,TRUE
AT_31945,15.534685106495575,48.115953600483074,AT,AT12,AT123,31945,Weinburg,1395,10.34091913,2020,AT_31945,official,TRUE
AT_31946,15.813594792918233,48.26217906999899,AT,AT12,AT123,31946,Perschling,1411,23.91156772,2020,AT_31946,official,TRUE
AT_31947,15.602241199852807,48.099596207753095,AT,AT12,AT123,31947,Wilhelmsburg,6492,46.45026039,2020,AT_31947,official,TRUE
AT_31948,15.586904379620309,48.317551098659855,AT,AT12,AT123,31948,Wölbling,2553,32.19864277,2020,AT_31948,official,TRUE
AT_31949,16.151413944647445,48.22749196831713,AT,AT12,AT126,31949,Gablitz,5025,17.973234,2020,AT_31949,official,TRUE
AT_31950,16.178245574013037,48.241438043717906,AT,AT12,AT126,31950,Mauerbach,3642,20.4643979,2020,AT_31950,official,TRUE
AT_31951,16.07001658056006,48.17832974028193,AT,AT12,AT126,31951,Pressbaum,7754,58.34202547,2020,AT_31951,official,TRUE
AT_31952,16.1778766745183,48.2068066346793,AT,AT12,AT126,31952,Purkersdorf,9818,30.29820914,2020,AT_31952,official,TRUE
AT_31953,16.095566450096207,48.18840337153827,AT,AT12,AT126,31953,Tullnerbach,2905,20.71717982,2020,AT_31953,official,TRUE
AT_31954,16.121487240347914,48.162068913597366,AT,AT12,AT126,31954,Wolfsgraben,1736,17.45177118,2020,AT_31954,official,TRUE
AT_32001,15.094486261145384,47.922542042691674,AT,AT12,AT121,32001,Gaming,3021,244.79264184,2020,AT_32001,official,TRUE
AT_32002,14.931719279853723,47.8014376980473,AT,AT12,AT121,32002,Göstling an der Ybbs,2025,144.24518083,2020,AT_32002,official,TRUE
AT_32003,15.02422286372772,47.980035674252704,AT,AT12,AT121,32003,Gresten,1986,3.90257209,2020,AT_32003,official,TRUE
AT_32004,15.034352273742398,47.97814904178298,AT,AT12,AT121,32004,Gresten-Land,1488,55.47256045,2020,AT_32004,official,TRUE
AT_32005,15.030528537963367,47.861054621880754,AT,AT12,AT121,32005,Lunz am See,1780,101.7578031,2020,AT_32005,official,TRUE
AT_32006,15.216453048997591,48.06629770654551,AT,AT12,AT121,32006,Oberndorf an der Melk,2954,43.20427496,2020,AT_32006,official,TRUE
AT_32007,15.283392325333708,47.92783302878989,AT,AT12,AT121,32007,Puchenstuben,289,41.59769243,2020,AT_32007,official,TRUE
AT_32008,15.133448372131829,48.05816172062515,AT,AT12,AT121,32008,Purgstall an der Erlauf,5372,55.96517772,2020,AT_32008,official,TRUE
AT_32009,14.969497032097205,48.01440817657178,AT,AT12,AT121,32009,Randegg,1877,51.66922956,2020,AT_32009,official,TRUE
AT_32010,15.066473183770045,47.9905026987356,AT,AT12,AT121,32010,Reinsberg,1046,29.52031692,2020,AT_32010,official,TRUE
AT_32011,15.209419795427431,47.963040672915035,AT,AT12,AT121,32011,St. Anton an der Jeßnitz,1179,69.38815945,2020,AT_32011,official,TRUE
AT_32012,15.224973833118737,48.03106395863986,AT,AT12,AT121,32012,St. Georgen an der Leys,1330,23.88515179,2020,AT_32012,official,TRUE
AT_32013,15.167610204341832,48.00663240459345,AT,AT12,AT121,32013,Scheibbs,4132,46.08329944,2020,AT_32013,official,TRUE
AT_32014,15.04664141905859,48.068727055595865,AT,AT12,AT121,32014,Steinakirchen am Forst,2243,34.70304427,2020,AT_32014,official,TRUE
AT_32015,15.022712358732253,48.04764127106768,AT,AT12,AT121,32015,Wang,1369,19.56634528,2020,AT_32015,official,TRUE
AT_32016,15.141240919915381,48.1334516994244,AT,AT12,AT121,32016,Wieselburg,4252,5.54710267,2020,AT_32016,official,TRUE
AT_32017,15.127331253001453,48.119026945724414,AT,AT12,AT121,32017,Wieselburg-Land,3428,33.84061271,2020,AT_32017,official,TRUE
AT_32018,15.079930125016563,48.082400997459565,AT,AT12,AT121,32018,Wolfpassing,1643,20.33151935,2020,AT_32018,official,TRUE
AT_32101,15.980881450152435,48.39921937637638,AT,AT12,AT126,32101,Absdorf,2150,15.99560542,2020,AT_32101,official,TRUE
AT_32104,15.891761281347128,48.301995580965325,AT,AT12,AT126,32104,Atzenbrugg,3109,26.00083293,2020,AT_32104,official,TRUE
AT_32106,15.820144106404328,48.439880761275845,AT,AT12,AT126,32106,Fels am Wagram,2365,29.52900562,2020,AT_32106,official,TRUE
AT_32107,15.781212348410667,48.417103503531,AT,AT12,AT126,32107,Grafenwörth,3171,45.18953114,2020,AT_32107,official,TRUE
AT_32109,15.8784652856454,48.481273501492254,AT,AT12,AT126,32109,Großriedenthal,916,18.79662003,2020,AT_32109,official,TRUE
AT_32110,15.977866233603281,48.470055374028775,AT,AT12,AT126,32110,Großweikersdorf,3187,43.43762652,2020,AT_32110,official,TRUE
AT_32112,16.028700358619265,48.283363158026745,AT,AT12,AT126,32112,Judenau-Baumgarten,2288,14.38207642,2020,AT_32112,official,TRUE
AT_32114,15.89494311727778,48.42860535727406,AT,AT12,AT126,32114,Kirchberg am Wagram,3710,60.25220228,2020,AT_32114,official,TRUE
AT_32115,15.940336891703057,48.40674960209431,AT,AT12,AT126,32115,Königsbrunn am Wagram,1382,28.67688563,2020,AT_32115,official,TRUE
AT_32116,16.147072058168014,48.300330064893494,AT,AT12,AT126,32116,Königstetten,2526,13.13357759,2020,AT_32116,official,TRUE
AT_32119,16.008903011821406,48.30910560095652,AT,AT12,AT126,32119,Langenrohr,2435,22.56527948,2020,AT_32119,official,TRUE
AT_32120,15.93915665509023,48.290709886667436,AT,AT12,AT126,32120,Michelhausen,3494,32.0568981,2020,AT_32120,official,TRUE
AT_32131,16.027866550920514,48.253135144586764,AT,AT12,AT126,32131,Sieghartskirchen,7526,61.53787848,2020,AT_32131,official,TRUE
AT_32132,15.810884824506346,48.32027375111514,AT,AT12,AT126,32132,Sitzenberg-Reidling,2240,22.0783345,2020,AT_32132,official,TRUE
AT_32134,16.11138121466225,48.28205090886899,AT,AT12,AT126,32134,Tulbing,2985,18.34756361,2020,AT_32134,official,TRUE
AT_32135,16.06240112487488,48.3248206723233,AT,AT12,AT126,32135,Tulln an der Donau,16230,72.45895437,2020,AT_32135,official,TRUE
AT_32139,15.859926590051543,48.25479884243384,AT,AT12,AT126,32139,Würmla,1484,20.32371237,2020,AT_32139,official,TRUE
AT_32140,16.175426745265504,48.32276085378241,AT,AT12,AT126,32140,Zeiselmauer-Wolfpassing,2299,12.5405871,2020,AT_32140,official,TRUE
AT_32141,15.913736695416139,48.34003445917641,AT,AT12,AT126,32141,Zwentendorf an der Donau,4097,53.91587043,2020,AT_32141,official,TRUE
AT_32142,16.210885428241742,48.32921637458643,AT,AT12,AT126,32142,Sankt Andrä-Wördern,7836,40.07737085,2020,AT_32142,official,TRUE
AT_32143,16.148964796347734,48.32780933328356,AT,AT12,AT126,32143,Muckendorf-Wipfing,1663,6.32051719,2020,AT_32143,official,TRUE
