gisco_id,longitude,latitude,country,nuts_2,nuts_3,lau_id,lau_name,population,area_km2,year,fid,concordance,pop_weighted
BE_11001,4.385337213623049,51.13317076289441,BE,BE21,BE211,11001,Aartselaar,14307,11.00006789,2018,BE_11001,official,TRUE
BE_11002,4.422017869230598,51.21258786706091,BE,BE21,BE211,11002,Antwerpen,524667,204.0080418,2018,BE_11002,official,TRUE
BE_11004,4.501921282821548,51.16505227097261,BE,BE21,BE211,11004,Boechout,13137,20.72341666,2018,BE_11004,official,TRUE
BE_11005,4.372160726762074,51.09330412242497,BE,BE21,BE211,11005,Boom,18015,7.31016913,2018,BE_11005,official,TRUE
BE_11007,4.481278157685269,51.198216109215664,BE,BE21,BE211,11007,Borsbeek,10691,3.88991037,2018,BE_11007,official,TRUE
BE_11008,4.490318380633789,51.29972998378653,BE,BE21,BE211,11008,Brasschaat,37902,38.62568794,2018,BE_11008,official,TRUE
BE_11009,4.599916185001191,51.317672131822626,BE,BE21,BE211,11009,Brecht,29032,91.37736517,2018,BE_11009,official,TRUE
BE_11013,4.438082449891661,51.15856097445181,BE,BE21,BE211,11013,Edegem,21979,8.69904531,2018,BE_11013,official,TRUE
BE_11016,4.458129196363217,51.45354201131027,BE,BE21,BE211,11016,Essen,19072,47.57059568,2018,BE_11016,official,TRUE
BE_11018,4.341831036663022,51.14319959614171,BE,BE21,BE211,11018,Hemiksem,11395,5.51489401,2018,BE_11018,official,TRUE
BE_11021,4.472338427120363,51.15303453675515,BE,BE21,BE211,11021,Hove,8120,6.0049001,2018,BE_11021,official,TRUE
BE_11022,4.472656248973782,51.38400274303846,BE,BE21,BE211,11022,Kalmthout,18629,59.57155319,2018,BE_11022,official,TRUE
BE_11023,4.427289644460664,51.3173576466653,BE,BE21,BE211,11023,Kapellen,27083,37.23061532,2018,BE_11023,official,TRUE
BE_11024,4.452094791567664,51.13298180938787,BE,BE21,BE211,11024,Kontich,21098,23.87285045,2018,BE_11024,official,TRUE
BE_11025,4.490319124075187,51.127746315450445,BE,BE21,BE211,11025,Lint,8972,5.60879585,2018,BE_11025,official,TRUE
BE_11029,4.453028443880681,51.17241955207744,BE,BE21,BE211,11029,Mortsel,25883,7.79559264,2018,BE_11029,official,TRUE
BE_11030,4.33282024298777,51.1102606159918,BE,BE21,BE211,11030,Niel,10443,5.31730949,2018,BE_11030,official,TRUE
BE_11035,4.582493858830907,51.194774582040516,BE,BE21,BE211,11035,Ranst,19337,43.68644962,2018,BE_11035,official,TRUE
BE_11037,4.41049848103387,51.09149345670068,BE,BE21,BE211,11037,Rumst,15123,20.18019794,2018,BE_11037,official,TRUE
BE_11038,4.335367461608811,51.122046559028945,BE,BE21,BE211,11038,Schelle,8441,7.74604874,2018,BE_11038,official,TRUE
BE_11039,4.578017902379146,51.24573863388179,BE,BE21,BE211,11039,Schilde,19610,36.05027022,2018,BE_11039,official,TRUE
BE_11040,4.494835145106875,51.252552733852035,BE,BE21,BE211,11040,Schoten,34502,29.5284331,2018,BE_11040,official,TRUE
BE_11044,4.386904928588754,51.32435380442843,BE,BE21,BE211,11044,Stabroek,18526,21.16758533,2018,BE_11044,official,TRUE
BE_11050,4.516945225901036,51.22822113482319,BE,BE21,BE211,11050,Wijnegem,9717,7.87517979,2018,BE_11050,official,TRUE
BE_11052,4.514074209319668,51.20234283788519,BE,BE21,BE211,11052,Wommelgem,12903,12.98387751,2018,BE_11052,official,TRUE
BE_11053,4.576699564489544,51.37671859832831,BE,BE21,BE211,11053,Wuustwezel,20685,89.42218095,2018,BE_11053,official,TRUE
BE_11054,4.671999632179726,51.21109475353675,BE,BE21,BE211,11054,Zandhoven,12997,40.08431177,2018,BE_11054,official,TRUE
BE_11055,4.6559523105573755,51.26289821974873,BE,BE21,BE211,11055,Zoersel,21772,38.64285326,2018,BE_11055,official,TRUE
BE_11056,4.332542620132159,51.21353159187363,BE,BE21,BE211,11056,Zwijndrecht,19035,20.10635678,2018,BE_11056,official,TRUE
BE_11057,4.710061106263611,51.30000420829113,BE,BE21,BE211,11057,Malle,15321,51.90562565,2018,BE_11057,official,TRUE
BE_12002,4.651871674371638,51.11259555856381,BE,BE21,BE212,12002,Berlaar,11519,24.52437866,2018,BE_12002,official,TRUE
BE_12005,4.554113599742363,51.02273671264638,BE,BE21,BE212,12005,Bonheiden,14962,29.18841607,2018,BE_12005,official,TRUE
BE_12007,4.23673259973791,51.09411218387383,BE,BE21,BE212,12007,Bornem,21198,46.20155187,2018,BE_12007,official,TRUE
BE_12009,4.506753062457391,51.09579600952899,BE,BE21,BE212,12009,Duffel,17406,22.60636033,2018,BE_12009,official,TRUE
BE_12014,4.730169622886168,51.07212480994517,BE,BE21,BE212,12014,Heist-op-den-Berg,42517,86.70446579,2018,BE_12014,official,TRUE
BE_12021,4.568654241834978,51.1337125127467,BE,BE21,BE212,12021,Lier,35769,49.830893,2018,BE_12021,official,TRUE
BE_12025,4.477087616325727,51.02679181660346,BE,BE21,BE212,12025,Mechelen,86368,65.74320179,2018,BE_12025,official,TRUE
BE_12026,4.658867501917246,51.15553854859087,BE,BE21,BE212,12026,Nijlen,22829,39.16500447,2018,BE_12026,official,TRUE
BE_12029,4.642204566645865,51.05478286313755,BE,BE21,BE212,12029,Putte,17601,35.16699411,2018,BE_12029,official,TRUE
BE_12030,4.298078917404906,51.07257006046427,BE,BE21,BE212,12030,Puurs,17462,33.39548405,2018,BE_12030,official,TRUE
BE_12034,4.2161216551146845,51.05207553937673,BE,BE21,BE212,12034,Sint-Amands,8486,15.71913548,2018,BE_12034,official,TRUE
BE_12035,4.527948876878496,51.056529113685464,BE,BE21,BE212,12035,Sint-Katelijne-Waver,20867,36.13675472,2018,BE_12035,official,TRUE
BE_12040,4.359889376924898,51.05770170144072,BE,BE21,BE212,12040,Willebroek,26267,27.47570669,2018,BE_12040,official,TRUE
BE_13001,5.086706092683053,51.32263618749838,BE,BE21,BE213,13001,Arendonk,13549,55.23744699,2018,BE_13001,official,TRUE
BE_13002,4.925658696697215,51.44330144517805,BE,BE21,BE213,13002,Baarle-Hertog,2716,7.5312522,2018,BE_13002,official,TRUE
BE_13003,5.175915531332385,51.16961546703955,BE,BE21,BE213,13003,Balen,22445,72.98532829,2018,BE_13003,official,TRUE
BE_13004,4.845543914446356,51.31762091541585,BE,BE21,BE213,13004,Beerse,17933,37.28024504,2018,BE_13004,official,TRUE
BE_13006,5.122701218496172,51.240312893712556,BE,BE21,BE213,13006,Dessel,9537,27.39645555,2018,BE_13006,official,TRUE
BE_13008,4.987998008533136,51.164231473620184,BE,BE21,BE213,13008,Geel,39936,110.23267167,2018,BE_13008,official,TRUE
BE_13010,4.732852110720799,51.186418609925774,BE,BE21,BE213,13010,Grobbendonk,11128,28.42657295,2018,BE_13010,official,TRUE
BE_13011,4.833139359083918,51.1723931457846,BE,BE21,BE213,13011,Herentals,28158,47.99958443,2018,BE_13011,official,TRUE
BE_13012,4.757401050953148,51.13999166038034,BE,BE21,BE213,13012,Herenthout,8955,23.61734014,2018,BE_13012,official,TRUE
BE_13013,4.870869674984843,51.04698928624148,BE,BE21,BE213,13013,Herselt,14547,52.39747909,2018,BE_13013,official,TRUE
BE_13014,4.762151481781394,51.41320201813257,BE,BE21,BE213,13014,Hoogstraten,21336,105.46039013,2018,BE_13014,official,TRUE
BE_13016,4.806814527388849,51.06799545464372,BE,BE21,BE213,13016,Hulshout,10394,17.38327028,2018,BE_13016,official,TRUE
BE_13017,4.937246788363866,51.23786330638218,BE,BE21,BE213,13017,Kasterlee,18612,72.26501378,2018,BE_13017,official,TRUE
BE_13019,4.829690578361431,51.25076690376987,BE,BE21,BE213,13019,Lille,16514,59.57576159,2018,BE_13019,official,TRUE
BE_13021,5.080859858207939,51.12858400105974,BE,BE21,BE213,13021,Meerhout,10329,36.55316241,2018,BE_13021,official,TRUE
BE_13023,4.857932849681924,51.358325029514866,BE,BE21,BE213,13023,Merksplas,8656,44.65027635,2018,BE_13023,official,TRUE
BE_13025,5.116833436395769,51.19216062683457,BE,BE21,BE213,13025,Mol,36586,114.50601444,2018,BE_13025,official,TRUE
BE_13029,4.882651956776947,51.16025510360762,BE,BE21,BE213,13029,Olen,12501,23.1525473,2018,BE_13029,official,TRUE
BE_13031,4.984407134043777,51.32190730306652,BE,BE21,BE213,13031,Oud-Turnhout,13518,39.20234652,2018,BE_13031,official,TRUE
BE_13035,5.001744798878697,51.39132124435054,BE,BE21,BE213,13035,Ravels,14858,95.08636245,2018,BE_13035,official,TRUE
BE_13036,5.084188249569739,51.269208961279915,BE,BE21,BE213,13036,Retie,11248,48.48027133,2018,BE_13036,official,TRUE
BE_13037,4.764863072100241,51.34505891147323,BE,BE21,BE213,13037,Rijkevorsel,11946,46.86452485,2018,BE_13037,official,TRUE
BE_13040,4.943246116065391,51.32090016752197,BE,BE21,BE213,13040,Turnhout,44229,56.66125662,2018,BE_13040,official,TRUE
BE_13044,4.769885972376319,51.205439966899704,BE,BE21,BE213,13044,Vorselaar,7852,27.59549066,2018,BE_13044,official,TRUE
BE_13046,4.885590809765386,51.31006335858418,BE,BE21,BE213,13046,Vosselaar,11160,11.86302721,2018,BE_13046,official,TRUE
BE_13049,4.89037460846205,51.10965640081541,BE,BE21,BE213,13049,Westerlo,24875,55.43092747,2018,BE_13049,official,TRUE
BE_13053,5.011028996378319,51.08107857605234,BE,BE21,BE213,13053,Laakdal,16024,42.37073879,2018,BE_13053,official,TRUE
BE_21001,4.309104349114515,50.83683532783737,BE,BE10,BE100,21001,Anderlecht,119314,17.91143111,2018,BE_21001,official,TRUE
BE_21002,4.4176992295095285,50.817394278019435,BE,BE10,BE100,21002,Auderghem,33810,9.0060718,2018,BE_21002,official,TRUE
BE_21003,4.298372913970852,50.865856958709465,BE,BE10,BE100,21003,Berchem-Sainte-Agathe,24907,2.9642604,2018,BE_21003,official,TRUE
BE_21004,4.354349305741573,50.86397959568039,BE,BE10,BE100,21004,Bruxelles,185906,33.08524224,2018,BE_21004,official,TRUE
BE_21005,4.3925139381542,50.83381386479077,BE,BE10,BE100,21005,Etterbeek,48000,3.18016801,2018,BE_21005,official,TRUE
BE_21006,4.405683395644701,50.87042774935188,BE,BE10,BE100,21006,Evere,41218,5.12280209,2018,BE_21006,official,TRUE
BE_21007,4.331416629251366,50.817915179781785,BE,BE10,BE100,21007,Forest,56255,6.31589328,2018,BE_21007,official,TRUE
BE_21008,4.312090638546541,50.87396313925415,BE,BE10,BE100,21008,Ganshoren,24926,2.43199294,2018,BE_21008,official,TRUE
BE_21009,4.375139618347944,50.82709450300727,BE,BE10,BE100,21009,Ixelles,87534,6.41151255,2018,BE_21009,official,TRUE
BE_21010,4.33030197939035,50.875454776048194,BE,BE10,BE100,21010,Jette,52466,5.20639745,2018,BE_21010,official,TRUE
BE_21011,4.329230094433917,50.862198767195544,BE,BE10,BE100,21011,Koekelberg,21872,1.17892899,2018,BE_21011,official,TRUE
BE_21012,4.324262604118249,50.85604538983824,BE,BE10,BE100,21012,Molenbeek-Saint-Jean,97481,6.03231409,2018,BE_21012,official,TRUE
BE_21013,4.342051802147056,50.8304042724462,BE,BE10,BE100,21013,Saint-Gilles,50265,2.53064363,2018,BE_21013,official,TRUE
BE_21014,4.375796099297028,50.852967297988144,BE,BE10,BE100,21014,Saint-Josse-ten-Noode,27254,1.15617228,2018,BE_21014,official,TRUE
BE_21015,4.381469371570512,50.86219239860224,BE,BE10,BE100,21015,Schaerbeek,133709,7.91449291,2018,BE_21015,official,TRUE
BE_21016,4.344070486539025,50.801050840668495,BE,BE10,BE100,21016,Uccle,82574,22.82804227,2018,BE_21016,official,TRUE
BE_21017,4.40968020332277,50.80481490937398,BE,BE10,BE100,21017,Watermael-Boitsfort,25042,12.98803165,2018,BE_21017,official,TRUE
BE_21018,4.423141792635686,50.847363707264314,BE,BE10,BE100,21018,Woluwe-Saint-Lambert,56532,7.3099527,2018,BE_21018,official,TRUE
BE_21019,4.432188532036547,50.83295737148481,BE,BE10,BE100,21019,Woluwe-Saint-Pierre,41684,8.93851974,2018,BE_21019,official,TRUE
BE_23002,4.236120854262656,50.89788941058368,BE,BE24,BE241,23002,Asse,32999,50.23832876,2018,BE_23002,official,TRUE
BE_23003,4.303342044240607,50.753750394102795,BE,BE24,BE241,23003,Beersel,25294,30.45660362,2018,BE_23003,official,TRUE
BE_23009,3.9336809826986867,50.71365820860019,BE,BE24,BE241,23009,Bever,2204,19.25312413,2018,BE_23009,official,TRUE
BE_23016,4.256119358029058,50.85203516434778,BE,BE24,BE241,23016,Dilbeek,42492,41.4268041,2018,BE_23016,official,TRUE
BE_23023,3.9879092300040946,50.750727421456766,BE,BE24,BE241,23023,Galmaarden,8734,35.25971072,2018,BE_23023,official,TRUE
BE_23024,4.099328174606948,50.78238747175274,BE,BE24,BE241,23024,Gooik,9243,40.20358993,2018,BE_23024,official,TRUE
BE_23025,4.363126069208673,50.91491221588292,BE,BE24,BE241,23025,Grimbergen,37417,38.66552801,2018,BE_23025,official,TRUE
BE_23027,4.237730279507829,50.73174061599896,BE,BE24,BE241,23027,Halle,39117,44.97266294,2018,BE_23027,official,TRUE
BE_23032,4.036102748822844,50.71098190971778,BE,BE24,BE241,23032,Herne,6647,44.68723992,2018,BE_23032,official,TRUE
BE_23033,4.473722071617087,50.76621073984306,BE,BE24,BE241,23033,Hoeilaart,11192,20.57879061,2018,BE_23033,official,TRUE
BE_23038,4.554056314224887,50.938458433565295,BE,BE24,BE241,23038,Kampenhout,11906,33.6671199,2018,BE_23038,official,TRUE
BE_23039,4.357566349534994,51.01052727279373,BE,BE24,BE241,23039,Kapelle-op-den-Bos,9415,15.46117054,2018,BE_23039,official,TRUE
BE_23044,4.090866301423726,50.86884575460568,BE,BE24,BE241,23044,Liedekerke,13202,10.18796875,2018,BE_23044,official,TRUE
BE_23045,4.289619216947639,51.01065033693607,BE,BE24,BE241,23045,Londerzeel,18617,36.51701332,2018,BE_23045,official,TRUE
BE_23047,4.439831345386592,50.90542445517894,BE,BE24,BE241,23047,Machelen,15448,11.49674222,2018,BE_23047,official,TRUE
BE_23050,4.322182702674483,50.948085045425806,BE,BE24,BE241,23050,Meise,19181,35.10878308,2018,BE_23050,official,TRUE
BE_23052,4.23748698755129,50.955623560054406,BE,BE24,BE241,23052,Merchtem,16302,36.89655874,2018,BE_23052,official,TRUE
BE_23060,4.185646445699752,50.96811941264069,BE,BE24,BE241,23060,Opwijk,14392,19.90808363,2018,BE_23060,official,TRUE
BE_23062,4.520436486414463,50.77343958190252,BE,BE24,BE241,23062,Overijse,25176,45.04057864,2018,BE_23062,official,TRUE
BE_23064,4.151553587714611,50.74866085458132,BE,BE24,BE241,23064,Pepingen,4380,35.94337062,2018,BE_23064,official,TRUE
BE_23077,4.279579670404411,50.793194307716895,BE,BE24,BE241,23077,Sint-Pieters-Leeuw,34077,40.67074325,2018,BE_23077,official,TRUE
BE_23081,4.505762808384969,50.91766218191656,BE,BE24,BE241,23081,Steenokkerzeel,12134,23.59795175,2018,BE_23081,official,TRUE
BE_23086,4.163612023605568,50.87034150230459,BE,BE24,BE241,23086,Ternat,15497,24.68681749,2018,BE_23086,official,TRUE
BE_23088,4.421611842998581,50.926039971916495,BE,BE24,BE241,23088,Vilvoorde,44053,21.59069043,2018,BE_23088,official,TRUE
BE_23094,4.474086945233311,50.876202302692356,BE,BE24,BE241,23094,Zaventem,34003,27.7628448,2018,BE_23094,official,TRUE
BE_23096,4.473887795831915,50.978196546574814,BE,BE24,BE241,23096,Zemst,23337,43.21766627,2018,BE_23096,official,TRUE
BE_23097,4.095812517277009,50.84060974951016,BE,BE24,BE241,23097,Roosdaal,11633,21.94954735,2018,BE_23097,official,TRUE
BE_23098,4.313538750589839,50.78946939162747,BE,BE24,BE241,23098,Drogenbos,5599,2.5229646,2018,BE_23098,official,TRUE
BE_23099,4.46506654916198,50.84907925246989,BE,BE24,BE241,23099,Kraainem,13736,5.82823676,2018,BE_23099,official,TRUE
BE_23100,4.337888507076068,50.77099716464367,BE,BE24,BE241,23100,Linkebeek,4774,4.17677602,2018,BE_23100,official,TRUE
BE_23101,4.362834995670929,50.744701746867186,BE,BE24,BE241,23101,Sint-Genesius-Rode,18319,22.7262836,2018,BE_23101,official,TRUE
BE_23102,4.312220896276548,50.9019267428745,BE,BE24,BE241,23102,Wemmel,16381,8.75051275,2018,BE_23102,official,TRUE
BE_23103,4.489082929100199,50.84294824607251,BE,BE24,BE241,23103,Wezembeek-Oppem,14028,6.88345955,2018,BE_23103,official,TRUE
BE_23104,4.1558147682138085,50.81097193398597,BE,BE24,BE241,23104,Lennik,9038,31.17697298,2018,BE_23104,official,TRUE
BE_23105,4.109244731414954,50.90076003767778,BE,BE24,BE241,23105,Affligem,13236,17.94170248,2018,BE_23105,official,TRUE
BE_24001,4.845840794394244,50.989181419072956,BE,BE24,BE242,24001,Aarschot,29983,63.04845811,2018,BE_24001,official,TRUE
BE_24007,4.787129254088792,51.008628448455305,BE,BE24,BE242,24007,Begijnendijk,10057,17.65080653,2018,BE_24007,official,TRUE
BE_24008,4.977649928887802,50.94232307367424,BE,BE24,BE242,24008,Bekkevoort,6278,37.35860492,2018,BE_24008,official,TRUE
BE_24009,4.618174432423389,50.85922060772787,BE,BE24,BE242,24009,Bertem,9964,30.00475891,2018,BE_24009,official,TRUE
BE_24011,4.767232304468525,50.85173920184728,BE,BE24,BE242,24011,Bierbeek,10036,38.92313098,2018,BE_24011,official,TRUE
BE_24014,4.559719033147907,50.98187875414919,BE,BE24,BE242,24014,Boortmeerbeek,12380,18.75495096,2018,BE_24014,official,TRUE
BE_24016,4.8430234884988925,50.83851790757633,BE,BE24,BE242,24016,Boutersem,8183,31.15272873,2018,BE_24016,official,TRUE
BE_24020,5.055277929780279,50.985775837279654,BE,BE24,BE242,24020,Diest,23848,58.68115051,2018,BE_24020,official,TRUE
BE_24028,5.128201789442175,50.892156041202725,BE,BE24,BE242,24028,Geetbets,6038,35.51341816,2018,BE_24028,official,TRUE
BE_24033,4.632500928297658,50.96866397971228,BE,BE24,BE242,24033,Haacht,14492,30.69904747,2018,BE_24033,official,TRUE
BE_24038,4.664264905249159,50.905414198781344,BE,BE24,BE242,24038,Herent,21654,32.69606341,2018,BE_24038,official,TRUE
BE_24041,4.888914207088485,50.777148291363616,BE,BE24,BE242,24041,Hoegaarden,6944,34.07529253,2018,BE_24041,official,TRUE
BE_24043,4.776180642404536,50.9258019481278,BE,BE24,BE242,24043,Holsbeek,9914,38.77064878,2018,BE_24043,official,TRUE
BE_24045,4.608931287752469,50.784798064588834,BE,BE24,BE242,24045,Huldenberg,9897,40.00360227,2018,BE_24045,official,TRUE
BE_24048,4.64785256336796,51.00527309681952,BE,BE24,BE242,24048,Keerbergen,12741,18.53722478,2018,BE_24048,official,TRUE
BE_24054,5.021194253324093,50.898016756574506,BE,BE24,BE242,24054,Kortenaken,7874,49.39707871,2018,BE_24054,official,TRUE
BE_24055,4.549526066917371,50.88717075921458,BE,BE24,BE242,24055,Kortenberg,20240,34.74050336,2018,BE_24055,official,TRUE
BE_24059,5.0794659883869135,50.7514050743605,BE,BE24,BE242,24059,Landen,15971,53.33373184,2018,BE_24059,official,TRUE
BE_24062,4.707866048560629,50.87943818840507,BE,BE24,BE242,24062,Leuven,101448,57.53532618,2018,BE_24062,official,TRUE
BE_24066,4.79911923370234,50.887343048079416,BE,BE24,BE242,24066,Lubbeek,14416,45.30399438,2018,BE_24066,official,TRUE
BE_24086,4.687764715771514,50.82719911564436,BE,BE24,BE242,24086,Oud-Heverlee,11109,31.18427263,2018,BE_24086,official,TRUE
BE_24094,4.7332681982517535,50.956965487765856,BE,BE24,BE242,24094,Rotselaar,16688,37.2039628,2018,BE_24094,official,TRUE
BE_24104,4.517509932722203,50.824780492115146,BE,BE24,BE242,24104,Tervuren,22284,33.44987868,2018,BE_24104,official,TRUE
BE_24107,4.93653058934887,50.80882290521628,BE,BE24,BE242,24107,Tienen,34737,72.85945049,2018,BE_24107,official,TRUE
BE_24109,4.721160561717046,50.99826347047246,BE,BE24,BE242,24109,Tremelo,14853,21.91021981,2018,BE_24109,official,TRUE
BE_24130,5.104024544882968,50.82999390817148,BE,BE24,BE242,24130,Zoutleeuw,8503,46.81299095,2018,BE_24130,official,TRUE
BE_24133,5.036478887864417,50.8236867640364,BE,BE24,BE242,24133,Linter,7256,36.90168986,2018,BE_24133,official,TRUE
BE_24134,4.969207510059955,50.99068798673182,BE,BE24,BE242,24134,Scherpenheuvel-Zichem,23111,51.17618772,2018,BE_24134,official,TRUE
BE_24135,4.8975990066447626,50.92208809212334,BE,BE24,BE242,24135,Tielt-Winge,10725,44.5498128,2018,BE_24135,official,TRUE
BE_24137,4.949448350709407,50.86241609659433,BE,BE24,BE242,24137,Glabbeek,5300,26.97854395,2018,BE_24137,official,TRUE
BE_25005,4.742874161783046,50.77870647740444,BE,BE31,BE310,25005,Beauvechain,7241,38.66291056,2018,BE_25005,official,TRUE
BE_25014,4.374384549333113,50.68039296435398,BE,BE31,BE310,25014,Braine-l'Alleud,39853,52.24868968,2018,BE_25014,official,TRUE
BE_25015,4.282054500014549,50.68096376377014,BE,BE31,BE310,25015,Braine-le-Château,10461,22.74647111,2018,BE_25015,official,TRUE
BE_25018,4.683921235149339,50.688777047186605,BE,BE31,BE310,25018,Chaumont-Gistoux,11737,48.26854188,2018,BE_25018,official,TRUE
BE_25023,4.560648244950932,50.64073420108233,BE,BE31,BE310,25023,Court-Saint-Etienne,10517,26.97280999,2018,BE_25023,official,TRUE
BE_25031,4.457826858511233,50.61095684779303,BE,BE31,BE310,25031,Genappe,15376,90.28886498,2018,BE_25031,official,TRUE
BE_25037,4.684873038005068,50.746641401557106,BE,BE31,BE310,25037,Grez-Doiceau,13391,55.590218,2018,BE_25037,official,TRUE
BE_25043,4.792609453781724,50.69330035313215,BE,BE31,BE310,25043,Incourt,5395,38.79428226,2018,BE_25043,official,TRUE
BE_25044,4.2315088404520775,50.642226006162076,BE,BE31,BE310,25044,Ittre,6875,35.02558884,2018,BE_25044,official,TRUE
BE_25048,4.869361059775431,50.72485101907156,BE,BE31,BE310,25048,Jodoigne,14333,73.69720917,2018,BE_25048,official,TRUE
BE_25050,4.4840236537965055,50.73370069000931,BE,BE31,BE310,25050,La Hulpe,7324,15.46679985,2018,BE_25050,official,TRUE
BE_25068,4.617883364583667,50.63822805480284,BE,BE31,BE310,25068,Mont-Saint-Guibert,7567,18.75872594,2018,BE_25068,official,TRUE
BE_25072,4.327125995020379,50.5976549081503,BE,BE31,BE310,25072,Nivelles,28535,60.8712032,2018,BE_25072,official,TRUE
BE_25084,4.80467609942224,50.62778008946538,BE,BE31,BE310,25084,Perwez,9299,51.1618203,2018,BE_25084,official,TRUE
BE_25091,4.517658590420076,50.71696278242306,BE,BE31,BE310,25091,Rixensart,22525,17.47483895,2018,BE_25091,official,TRUE
BE_25105,4.205106269692624,50.69046370359866,BE,BE31,BE310,25105,Tubize,26002,32.86468455,2018,BE_25105,official,TRUE
BE_25107,4.530760875796125,50.56289107453392,BE,BE31,BE310,25107,Villers-la-Ville,10723,47.93637207,2018,BE_25107,official,TRUE
BE_25110,4.393389120996518,50.711194081424,BE,BE31,BE310,25110,Waterloo,30202,21.39885212,2018,BE_25110,official,TRUE
BE_25112,4.605338497965209,50.71355809761665,BE,BE31,BE310,25112,Wavre,34382,42.1535035,2018,BE_25112,official,TRUE
BE_25117,4.636930896529329,50.60256388598864,BE,BE31,BE310,25117,Chastre,7603,31.50518855,2018,BE_25117,official,TRUE
BE_25118,4.989494720188099,50.75297714907223,BE,BE31,BE310,25118,Hélécine,3488,16.96371263,2018,BE_25118,official,TRUE
BE_25119,4.469023225806372,50.69164885576954,BE,BE31,BE310,25119,Lasne,14255,47.62129589,2018,BE_25119,official,TRUE
BE_25120,4.966044993758914,50.68929423681327,BE,BE31,BE310,25120,Orp-Jauche,8864,50.82671984,2018,BE_25120,official,TRUE
BE_25121,4.591683356363074,50.668499527787404,BE,BE31,BE310,25121,Ottignies-Louvain-la-Neuve,31490,33.38506927,2018,BE_25121,official,TRUE
BE_25122,4.88397963241262,50.656986599736356,BE,BE31,BE310,25122,Ramillies,6398,49.23935033,2018,BE_25122,official,TRUE
BE_25123,4.141994593514491,50.669524474245634,BE,BE31,BE310,25123,Rebecq,11006,39.24020915,2018,BE_25123,official,TRUE
BE_25124,4.690321478150796,50.6294110925903,BE,BE31,BE310,25124,Walhain,7174,38.0799078,2018,BE_25124,official,TRUE
BE_31003,3.335607733989009,51.14574297349562,BE,BE25,BE251,31003,Beernem,15698,72.48242908,2018,BE_31003,official,TRUE
BE_31004,3.1340800905129713,51.31026175538966,BE,BE25,BE251,31004,Blankenberge,20374,17.75983187,2018,BE_31004,official,TRUE
BE_31005,3.2254401207574355,51.21052945565917,BE,BE25,BE251,31005,Brugge,118583,139.24933034,2018,BE_31005,official,TRUE
BE_31006,3.325776994337122,51.21913894787617,BE,BE25,BE251,31006,Damme,11006,90.33634305,2018,BE_31006,official,TRUE
BE_31012,3.113473641809535,51.18366633870964,BE,BE25,BE251,31012,Jabbeke,13878,53.83731371,2018,BE_31012,official,TRUE
BE_31022,3.2327875237335153,51.14232834130021,BE,BE25,BE251,31022,Oostkamp,23593,80.07967286,2018,BE_31022,official,TRUE
BE_31033,3.1005771029182387,51.06674057709412,BE,BE25,BE251,31033,Torhout,20538,45.38501746,2018,BE_31033,official,TRUE
BE_31040,3.1504124739359365,51.12988833836021,BE,BE25,BE251,31040,Zedelgem,22642,60.63787824,2018,BE_31040,official,TRUE
BE_31042,3.150439864136589,51.25872544563639,BE,BE25,BE251,31042,Zuienkerke,2738,48.89379418,2018,BE_31042,official,TRUE
BE_31043,3.27468145875674,51.34037042663486,BE,BE25,BE251,31043,Knokke-Heist,33125,56.9788437,2018,BE_31043,official,TRUE
BE_32003,2.869572830091592,51.03479478076775,BE,BE25,BE252,32003,Diksmuide,16751,150.66577255,2018,BE_32003,official,TRUE
BE_32006,2.9302785339992403,50.978946523098834,BE,BE25,BE252,32006,Houthulst,10035,56.0158433,2018,BE_32006,official,TRUE
BE_32010,2.970163212175011,51.08959548078829,BE,BE25,BE252,32010,Koekelare,8787,39.43102906,2018,BE_32010,official,TRUE
BE_32011,3.0233617975721816,51.028161515218244,BE,BE25,BE252,32011,Kortemark,12597,55.37877819,2018,BE_32011,official,TRUE
BE_32030,2.7601730902328843,50.96699057798124,BE,BE25,BE252,32030,Lo-Reninge,3291,63.52997508,2018,BE_32030,official,TRUE
BE_33011,2.8780516455875214,50.85172604566898,BE,BE25,BE253,33011,Ieper,34997,131.40203254,2018,BE_33011,official,TRUE
BE_33016,2.894568777397693,50.76123540091359,BE,BE25,BE253,33016,Mesen,1043,3.60060953,2018,BE_33016,official,TRUE
BE_33021,2.722007321387188,50.85552687897788,BE,BE25,BE253,33021,Poperinge,19735,120.50313795,2018,BE_33021,official,TRUE
BE_33029,3.050373165950271,50.789061854929585,BE,BE25,BE253,33029,Wervik,18670,43.81920344,2018,BE_33029,official,TRUE
BE_33037,3.0025334479155785,50.866443803942204,BE,BE25,BE253,33037,Zonnebeke,12450,68.08511064,2018,BE_33037,official,TRUE
BE_33039,2.8260494021010847,50.775355886781924,BE,BE25,BE253,33039,Heuvelland,7859,94.84029753,2018,BE_33039,official,TRUE
BE_33040,2.934680485037446,50.917016129807614,BE,BE25,BE253,33040,Langemark-Poelkapelle,8140,53.10651976,2018,BE_33040,official,TRUE
BE_33041,2.7554115753800503,50.918669306688976,BE,BE25,BE253,33041,Vleteren,3661,38.47310101,2018,BE_33041,official,TRUE
BE_34002,3.4328082797304784,50.83368008343288,BE,BE25,BE254,34002,Anzegem,14608,42.35062486,2018,BE_34002,official,TRUE
BE_34003,3.44587521519977,50.77611438191307,BE,BE25,BE254,34003,Avelgem,10074,22.11950395,2018,BE_34003,official,TRUE
BE_34009,3.3590592442267733,50.84897575413557,BE,BE25,BE254,34009,Deerlijk,11797,16.98389897,2018,BE_34009,official,TRUE
BE_34013,3.309668297396601,50.85281316147864,BE,BE25,BE254,34013,Harelbeke,27940,29.36363225,2018,BE_34013,official,TRUE
BE_34022,3.2651105073627256,50.82478946662635,BE,BE25,BE254,34022,Kortrijk,76413,80.72742463,2018,BE_34022,official,TRUE
BE_34023,3.2830111881025417,50.85485597182503,BE,BE25,BE254,34023,Kuurne,13337,10.11644405,2018,BE_34023,official,TRUE
BE_34025,3.238256782694289,50.886688162874634,BE,BE25,BE254,34025,Lendelede,5750,13.30253259,2018,BE_34025,official,TRUE
BE_34027,3.1360467202423234,50.79740424369608,BE,BE25,BE254,34027,Menen,33286,33.09118713,2018,BE_34027,official,TRUE
BE_34040,3.411194728697983,50.885791863377314,BE,BE25,BE254,34040,Waregem,38154,44.54597546,2018,BE_34040,official,TRUE
BE_34041,3.1829720695524735,50.8237685915518,BE,BE25,BE254,34041,Wevelgem,31435,39.14043154,2018,BE_34041,official,TRUE
BE_34042,3.3513160726157873,50.803168176196436,BE,BE25,BE254,34042,Zwevegem,24634,63.64443045,2018,BE_34042,official,TRUE
BE_34043,3.3689281843266454,50.72935986767491,BE,BE25,BE254,34043,Spiere-Helkijn,2091,10.82255242,2018,BE_34043,official,TRUE
BE_35002,2.964501535766507,51.236129331894794,BE,BE25,BE255,35002,Bredene,17842,13.17275098,2018,BE_35002,official,TRUE
BE_35005,2.9636847739980205,51.154381084684225,BE,BE25,BE255,35005,Gistel,12068,42.84003874,2018,BE_35005,official,TRUE
BE_35006,3.023850174742182,51.11799341587208,BE,BE25,BE255,35006,Ichtegem,13950,45.75993657,2018,BE_35006,official,TRUE
BE_35011,2.801942796182804,51.17079897065572,BE,BE25,BE255,35011,Middelkerke,19383,76.20550839,2018,BE_35011,official,TRUE
BE_35013,2.9103954548166344,51.21867513613031,BE,BE25,BE255,35013,Oostende,71522,37.95426016,2018,BE_35013,official,TRUE
BE_35014,3.0077727914689616,51.180939797125745,BE,BE25,BE255,35014,Oudenburg,9308,35.67929341,2018,BE_35014,official,TRUE
BE_35029,3.049789720098875,51.278179543824315,BE,BE25,BE255,35029,De Haan,12648,42.1078207,2018,BE_35029,official,TRUE
BE_36006,3.089172924000093,50.986282943554656,BE,BE25,BE256,36006,Hooglede,9955,38.10256381,2018,BE_36006,official,TRUE
BE_36007,3.255317687892671,50.91966773274538,BE,BE25,BE256,36007,Ingelmunster,10952,16.46638102,2018,BE_36007,official,TRUE
BE_36008,3.2105310593040004,50.91791316584617,BE,BE25,BE256,36008,Izegem,27751,25.63306998,2018,BE_36008,official,TRUE
BE_36010,3.1530143597399074,50.866078002817666,BE,BE25,BE256,36010,Ledegem,9719,24.84505014,2018,BE_36010,official,TRUE
BE_36011,3.137128487328346,51.02768681191581,BE,BE25,BE256,36011,Lichtervelde,8806,26.15176862,2018,BE_36011,official,TRUE
BE_36012,3.0753753474947456,50.87704609233563,BE,BE25,BE256,36012,Moorslede,11083,35.45764716,2018,BE_36012,official,TRUE
BE_36015,3.126966270097961,50.944910620714616,BE,BE25,BE256,36015,Roeselare,62369,60.33578605,2018,BE_36015,official,TRUE
BE_36019,3.0269677934446713,50.95843247521388,BE,BE25,BE256,36019,Staden,11375,46.90077689,2018,BE_36019,official,TRUE
BE_37002,3.4086174357484644,50.94161738720719,BE,BE25,BE257,37002,Dentergem,8498,26.14047329,2018,BE_37002,official,TRUE
BE_37007,3.29045472590782,50.94818494299425,BE,BE25,BE257,37007,Meulebeke,10905,29.46595431,2018,BE_37007,official,TRUE
BE_37010,3.3374590174009455,50.92356369560873,BE,BE25,BE257,37010,Oostrozebeke,7846,16.73230053,2018,BE_37010,official,TRUE
BE_37011,3.2635068527691278,50.996752768182716,BE,BE25,BE257,37011,Pittem,6758,34.68483202,2018,BE_37011,official,TRUE
BE_37012,3.3949306468780462,51.044764112451574,BE,BE25,BE257,37012,Ruiselede,5393,30.58768075,2018,BE_37012,official,TRUE
BE_37015,3.331396833853389,50.99729585140894,BE,BE25,BE257,37015,Tielt,20422,68.83371193,2018,BE_37015,official,TRUE
BE_37017,3.3562684118806603,50.903861012810644,BE,BE25,BE257,37017,Wielsbeke,9589,21.93852297,2018,BE_37017,official,TRUE
BE_37018,3.256174304646935,51.05263528545282,BE,BE25,BE257,37018,Wingene,14357,68.5288729,2018,BE_37018,official,TRUE
BE_37020,3.200017074951907,50.98324694125039,BE,BE25,BE257,37020,Ardooie,8982,34.9714932,2018,BE_37020,official,TRUE
BE_38002,2.6962079039920033,50.99848016225062,BE,BE25,BE258,38002,Alveringem,5114,80.89349749,2018,BE_38002,official,TRUE
BE_38008,2.5953025021249507,51.09261016814103,BE,BE25,BE258,38008,De Panne,11136,24.23046983,2018,BE_38008,official,TRUE
BE_38014,2.651073194914679,51.11587816416453,BE,BE25,BE258,38014,Koksijde,21981,45.02081033,2018,BE_38014,official,TRUE
BE_38016,2.743050898916052,51.13516669990453,BE,BE25,BE258,38016,Nieuwpoort,11575,31.42457585,2018,BE_38016,official,TRUE
BE_38025,2.665096045461917,51.07157931205506,BE,BE25,BE258,38025,Veurne,11802,97.30184001,2018,BE_38025,official,TRUE
BE_41002,4.042905529867803,50.94069929735093,BE,BE23,BE231,41002,Aalst,85798,78.66213462,2018,BE_41002,official,TRUE
BE_41011,4.066027404013085,50.88729297966395,BE,BE23,BE231,41011,Denderleeuw,20122,13.87824831,2018,BE_41011,official,TRUE
BE_41018,3.8836068635572483,50.773498539324244,BE,BE23,BE231,41018,Geraardsbergen,33439,80.10284361,2018,BE_41018,official,TRUE
BE_41024,3.9984521034351177,50.88875046031293,BE,BE23,BE231,41024,Haaltert,18449,30.49644657,2018,BE_41024,official,TRUE
BE_41027,3.884373069900193,50.88941641662877,BE,BE23,BE231,41027,Herzele,17741,47.89921193,2018,BE_41027,official,TRUE
BE_41034,3.972864549674316,50.96726871300747,BE,BE23,BE231,41034,Lede,18634,29.85406519,2018,BE_41034,official,TRUE
BE_41048,4.019421471039557,50.83307276617689,BE,BE23,BE231,41048,Ninove,38727,73.12777064,2018,BE_41048,official,TRUE
BE_41063,3.868844954980823,50.92604432797456,BE,BE23,BE231,41063,Sint-Lievens-Houtem,10262,27.04988017,2018,BE_41063,official,TRUE
BE_41081,3.811204830414727,50.86788343320346,BE,BE23,BE231,41081,Zottegem,26393,57.48156106,2018,BE_41081,official,TRUE
BE_41082,3.9589811987484307,50.923546147630816,BE,BE23,BE231,41082,Erpe-Mere,19880,34.34948678,2018,BE_41082,official,TRUE
BE_42003,3.984841391810903,51.02769564047776,BE,BE23,BE232,42003,Berlare,14863,38.1909563,2018,BE_42003,official,TRUE
BE_42004,4.197490176254396,51.01168455508825,BE,BE23,BE232,42004,Buggenhout,14485,25.65120171,2018,BE_42004,official,TRUE
BE_42006,4.103782094037645,51.027084333297424,BE,BE23,BE232,42006,Dendermonde,45712,56.42548897,2018,BE_42006,official,TRUE
BE_42008,4.141937030714061,51.087944142109315,BE,BE23,BE232,42008,Hamme,24830,40.649565870000004,2018,BE_42008,official,TRUE
BE_42010,3.8849165638285363,51.03541268771447,BE,BE23,BE232,42010,Laarne,12493,32.5856187,2018,BE_42010,official,TRUE
BE_42011,4.131226712452553,50.996611196343146,BE,BE23,BE232,42011,Lebbeke,19212,27.35709304,2018,BE_42011,official,TRUE
BE_42023,4.089282814233588,51.11698772200302,BE,BE23,BE232,42023,Waasmunster,10772,32.20297944,2018,BE_42023,official,TRUE
BE_42025,3.8827967209419483,51.00353460080829,BE,BE23,BE232,42025,Wetteren,25519,37.0436712,2018,BE_42025,official,TRUE
BE_42026,3.9467175226411997,51.00268911263844,BE,BE23,BE232,42026,Wichelen,11587,23.24611894,2018,BE_42026,official,TRUE
BE_42028,4.034482341689953,51.065361438227264,BE,BE23,BE232,42028,Zele,21009,33.36511089,2018,BE_42028,official,TRUE
BE_43002,3.736002948762459,51.225782076900735,BE,BE23,BE233,43002,Assenede,14222,87.60078785,2018,BE_43002,official,TRUE
BE_43005,3.5671319521002003,51.185577396630485,BE,BE23,BE233,43005,Eeklo,21020,30.44687639,2018,BE_43005,official,TRUE
BE_43007,3.622538146755678,51.20400945062319,BE,BE23,BE233,43007,Kaprijke,6429,33.5968626,2018,BE_43007,official,TRUE
BE_43010,3.451901979313147,51.20687109012239,BE,BE23,BE233,43010,Maldegem,23733,95.56218228,2018,BE_43010,official,TRUE
BE_43014,3.5557024897147347,51.24963361767053,BE,BE23,BE233,43014,Sint-Laureins,6681,74.69998462,2018,BE_43014,official,TRUE
BE_43018,3.8052985959651306,51.19900099801507,BE,BE23,BE233,43018,Zelzate,12703,13.75035395,2018,BE_43018,official,TRUE
BE_44001,3.446777729703439,51.085427520312685,BE,BE23,BE234,44001,Aalter,20568,82.43052762,2018,BE_44001,official,TRUE
BE_44011,3.534910329667855,50.979579270177844,BE,BE23,BE234,44011,Deinze,31114,76.12852364,2018,BE_44011,official,TRUE
BE_44012,3.6510684174869588,50.99182068282176,BE,BE23,BE234,44012,De Pinte,10539,17.82600594,2018,BE_44012,official,TRUE
BE_44013,3.7910104873132364,51.046219492518304,BE,BE23,BE234,44013,Destelbergen,18053,26.67507741,2018,BE_44013,official,TRUE
BE_44019,3.7121368016658103,51.135822212093906,BE,BE23,BE234,44019,Evergem,35266,75.27518906,2018,BE_44019,official,TRUE
BE_44020,3.659979201271028,50.92882051662176,BE,BE23,BE234,44020,Gavere,12779,31.55123929,2018,BE_44020,official,TRUE
BE_44021,3.7237424682832696,51.05417657806614,BE,BE23,BE234,44021,Gent,261344,157.78599623,2018,BE_44021,official,TRUE
BE_44029,3.438640800730442,51.1361780491571,BE,BE23,BE234,44029,Knesselare,8251,37.43210306,2018,BE_44029,official,TRUE
BE_44034,3.8431606866968706,51.099571358696906,BE,BE23,BE234,44034,Lochristi,22303,60.69508759,2018,BE_44034,official,TRUE
BE_44036,3.62298848779713,51.101191931310346,BE,BE23,BE234,44036,Lovendegem,9575,19.50062864,2018,BE_44036,official,TRUE
BE_44040,3.7865515320147556,51.00747023135287,BE,BE23,BE234,44040,Melle,11582,15.37007688,2018,BE_44040,official,TRUE
BE_44043,3.7484717197190287,50.99644739696822,BE,BE23,BE234,44043,Merelbeke,24650,36.98559273,2018,BE_44043,official,TRUE
BE_44045,3.9413599056686155,51.17473262659311,BE,BE23,BE234,44045,Moerbeke,6455,37.93838658,2018,BE_44045,official,TRUE
BE_44048,3.6270267109283676,50.95779331330497,BE,BE23,BE234,44048,Nazareth,11578,35.46769054,2018,BE_44048,official,TRUE
BE_44049,3.5625404242969783,51.05186734261948,BE,BE23,BE234,44049,Nevele,12188,52.01018152,2018,BE_44049,official,TRUE
BE_44052,3.794417238360702,50.94169346963187,BE,BE23,BE234,44052,Oosterzele,13557,43.55527934,2018,BE_44052,official,TRUE
BE_44064,3.629424239992321,51.009413644695684,BE,BE23,BE234,44064,Sint-Martens-Latem,8476,14.40329974,2018,BE_44064,official,TRUE
BE_44072,3.607944248835351,51.15332621201557,BE,BE23,BE234,44072,Waarschoot,7972,21.92431329,2018,BE_44072,official,TRUE
BE_44073,3.858913324336836,51.172314597546894,BE,BE23,BE234,44073,Wachtebeke,7697,34.63322357,2018,BE_44073,official,TRUE
BE_44080,3.5601040451960704,51.12013919359399,BE,BE23,BE234,44080,Zomergem,8467,39.29642757,2018,BE_44080,official,TRUE
BE_44081,3.460541723259411,50.928733334278014,BE,BE23,BE234,44081,Zulte,15760,32.7185536,2018,BE_44081,official,TRUE
BE_45017,3.5329884274467616,50.908436632731465,BE,BE23,BE235,45017,Kruishoutem,8090,47.29086535,2018,BE_45017,official,TRUE
BE_45035,3.6150122589125764,50.85229426923391,BE,BE23,BE235,45035,Oudenaarde,31159,68.92377044,2018,BE_45035,official,TRUE
BE_45041,3.6028541644485803,50.746414862284325,BE,BE23,BE235,45041,Ronse,26352,34.69775602,2018,BE_45041,official,TRUE
BE_45057,3.6439724796882502,50.90372472059488,BE,BE23,BE235,45057,Zingem,7560,24.34437657,2018,BE_45057,official,TRUE
BE_45059,3.765009414336794,50.80279960593693,BE,BE23,BE235,45059,Brakel,14789,56.9203535,2018,BE_45059,official,TRUE
BE_45060,3.5033417454771505,50.77990426460238,BE,BE23,BE235,45060,Kluisbergen,6455,30.61524667,2018,BE_45060,official,TRUE
BE_45061,3.5381795382365566,50.84172917894938,BE,BE23,BE235,45061,Wortegem-Petegem,6443,42.44239379,2018,BE_45061,official,TRUE
BE_45062,3.693629788406062,50.840340499756245,BE,BE23,BE235,45062,Horebeke,2049,11.22725684,2018,BE_45062,official,TRUE
BE_45063,3.8302612954927064,50.806845488037,BE,BE23,BE235,45063,Lierde,6572,26.37670269,2018,BE_45063,official,TRUE
BE_45064,3.6311073306731996,50.80156193736254,BE,BE23,BE235,45064,Maarkedal,6339,46.18393469,2018,BE_45064,official,TRUE
BE_45065,3.7258556007178965,50.87731053337364,BE,BE23,BE235,45065,Zwalm,8135,33.87743847,2018,BE_45065,official,TRUE
BE_46003,4.249511178838692,51.21968964293255,BE,BE23,BE236,46003,Beveren,48230,153.271816,2018,BE_46003,official,TRUE
BE_46013,4.3041485829096855,51.16032940238006,BE,BE23,BE236,46013,Kruibeke,16685,33.52098831,2018,BE_46013,official,TRUE
BE_46014,3.988417502854592,51.105354237711325,BE,BE23,BE236,46014,Lokeren,41457,68.22469024,2018,BE_46014,official,TRUE
BE_46020,4.110909768892608,51.22496159330079,BE,BE23,BE236,46020,Sint-Gillis-Waas,19275,55.33250373,2018,BE_46020,official,TRUE
BE_46021,4.142681870211205,51.16526979241269,BE,BE23,BE236,46021,Sint-Niklaas,77349,84.12067614,2018,BE_46021,official,TRUE
BE_46024,4.040956918442008,51.208955922565835,BE,BE23,BE236,46024,Stekene,18368,45.28506978,2018,BE_46024,official,TRUE
BE_46025,4.213143179848204,51.12765882044179,BE,BE23,BE236,46025,Temse,29592,40.37150125,2018,BE_46025,official,TRUE
BE_51004,3.7812220557297547,50.630441394613314,BE,BE32,BE321,51004,Ath,29200,127.9027273,2018,BE_51004,official,TRUE
BE_51008,3.6806226433411835,50.5283402379691,BE,BE32,BE321,51008,Beloeil,14052,62.3006292,2018,BE_51008,official,TRUE
BE_51009,3.668142290481268,50.48951878464075,BE,BE32,BE321,51009,Bernissart,11874,43.69180109,2018,BE_51009,official,TRUE
BE_51012,3.8543613796650864,50.60044414487784,BE,BE32,BE321,51012,Brugelette,3661,28.60133669,2018,BE_51012,official,TRUE
BE_51014,3.7832055628225403,50.57363678450281,BE,BE32,BE321,51014,Chièvres,6906,47.41163997,2018,BE_51014,official,TRUE
BE_51017,3.685797583371086,50.73297720630767,BE,BE32,BE321,51017,Ellezelles,6001,45.16364282,2018,BE_51017,official,TRUE
BE_51019,3.7369593531334084,50.739876619640704,BE,BE32,BE321,51019,Flobecq,3426,23.33364816,2018,BE_51019,official,TRUE
BE_51065,3.605887661268832,50.683845499930655,BE,BE32,BE321,51065,Frasnes-lez-Anvaing,11743,112.75100362,2018,BE_51065,official,TRUE
BE_52010,4.2829317685434125,50.46994114086059,BE,BE32,BE322,52010,Chapelle-lez-Herlaimont,14920,18.20050513,2018,BE_52010,official,TRUE
BE_52011,4.441681350033286,50.41836749769744,BE,BE32,BE322,52011,Charleroi,202539,102.85349771,2018,BE_52011,official,TRUE
BE_52012,4.519915909540744,50.40902869489754,BE,BE32,BE322,52012,Châtelet,36135,27.28487903,2018,BE_52012,official,TRUE
BE_52015,4.363032139652452,50.45885542940032,BE,BE32,BE322,52015,Courcelles,31396,44.52319754,2018,BE_52015,official,TRUE
BE_52018,4.541810851313934,50.43054371750123,BE,BE32,BE322,52018,Farciennes,11255,10.37072164,2018,BE_52018,official,TRUE
BE_52021,4.556642524198963,50.47558222704688,BE,BE32,BE322,52021,Fleurus,22831,59.4148304,2018,BE_52021,official,TRUE
BE_52022,4.3225460963016715,50.41396372597045,BE,BE32,BE322,52022,Fontaine-l'Evêque,17822,28.69553795,2018,BE_52022,official,TRUE
BE_52025,4.510018212495964,50.351248026435904,BE,BE32,BE322,52025,Gerpinnes,12669,47.76324277,2018,BE_52025,official,TRUE
BE_52043,4.231197050970084,50.48705918686334,BE,BE32,BE322,52043,Manage,23155,19.72236094,2018,BE_52043,official,TRUE
BE_52048,4.37298647103944,50.37446707563539,BE,BE32,BE322,52048,Montigny-le-Tilleul,10159,15.28372793,2018,BE_52048,official,TRUE
BE_52055,4.387514115132814,50.50496769890549,BE,BE32,BE322,52055,Pont-à-Celles,17311,55.95589958,2018,BE_52055,official,TRUE
BE_52063,4.263566712771831,50.55036489001199,BE,BE32,BE322,52063,Seneffe,11289,63.55166271,2018,BE_52063,official,TRUE
BE_52074,4.566456657648507,50.41151408176892,BE,BE32,BE322,52074,Aiseau-Presles,10809,22.3226483,2018,BE_52074,official,TRUE
BE_52075,4.454633014619571,50.52599331014722,BE,BE32,BE322,52075,Les Bons Villers,9460,43.31066803,2018,BE_52075,official,TRUE
BE_53014,3.809152242034965,50.42788209828355,BE,BE32,BE323,53014,Boussu,19883,20.0678141,2018,BE_53014,official,TRUE
BE_53020,3.7762970700271103,50.39601314230058,BE,BE32,BE323,53020,Dour,16728,33.61561622,2018,BE_53020,official,TRUE
BE_53028,3.8890825073566146,50.405085378562646,BE,BE32,BE323,53028,Frameries,21954,26.12639881,2018,BE_53028,official,TRUE
BE_53039,3.713431910479326,50.43053979201944,BE,BE32,BE323,53039,Hensies,6832,26.46261174,2018,BE_53039,official,TRUE
BE_53044,3.9123889800821603,50.51988134940031,BE,BE32,BE323,53044,Jurbise,10437,58.01895252,2018,BE_53044,official,TRUE
BE_53046,3.9091584136429183,50.563669464074955,BE,BE32,BE323,53046,Lens,4507,49.92340766,2018,BE_53046,official,TRUE
BE_53053,3.9385651060191247,50.45157095439962,BE,BE32,BE323,53053,Mons,95928,147.68360021,2018,BE_53053,official,TRUE
BE_53065,3.8601829910230046,50.43771222252408,BE,BE32,BE323,53065,Quaregnon,19043,11.17365745,2018,BE_53065,official,TRUE
BE_53068,3.683287340744863,50.40443734207407,BE,BE32,BE323,53068,Quiévrain,6770,21.55798003,2018,BE_53068,official,TRUE
BE_53070,3.8125837968141596,50.46790000553593,BE,BE32,BE323,53070,Saint-Ghislain,23377,70.58339701,2018,BE_53070,official,TRUE
BE_53082,3.849431114621429,50.40950957799958,BE,BE32,BE323,53082,Colfontaine,20793,13.75701952,2018,BE_53082,official,TRUE
BE_53083,3.7262449875866475,50.353169585428965,BE,BE32,BE323,53083,Honnelles,5142,44.41216729,2018,BE_53083,official,TRUE
BE_53084,3.9492668808347915,50.3664215605483,BE,BE32,BE323,53084,Quévy,8106,65.32011919,2018,BE_53084,official,TRUE
BE_54007,3.2144249795961803,50.73904753819611,BE,BE32,BE324,54007,Mouscron,58352,40.78909996,2018,BE_54007,official,TRUE
BE_54010,2.9596908997175815,50.75277366251824,BE,BE32,BE324,54010,Comines-Warneton,18097,61.59490245,2018,BE_54010,official,TRUE
BE_55004,4.1408896662599615,50.60983460242145,BE,BE32,BE325,55004,Braine-le-Comte,21699,84.94924142,2018,BE_55004,official,TRUE
BE_55010,4.044062452575789,50.69132737281468,BE,BE32,BE325,55010,Enghien,13747,39.30517653,2018,BE_55010,official,TRUE
BE_55022,4.172800383777313,50.47441870183013,BE,BE32,BE325,55022,La Louvière,80790,64.35544581,2018,BE_55022,official,TRUE
BE_55023,3.835882864140282,50.71177212107042,BE,BE32,BE325,55023,Lessines,18571,72.65389425,2018,BE_55023,official,TRUE
BE_55035,4.102354342327723,50.49540355971842,BE,BE32,BE325,55035,Le Roeulx,8652,43.33035984,2018,BE_55035,official,TRUE
BE_55039,3.945010914188162,50.66193688985016,BE,BE32,BE325,55039,Silly,8403,68.61379685,2018,BE_55039,official,TRUE
BE_55040,4.063465691049723,50.57161280400271,BE,BE32,BE325,55040,Soignies,27632,111.32231795,2018,BE_55040,official,TRUE
BE_55050,4.165457912271413,50.5631171199923,BE,BE32,BE325,55050,Ecaussinnes,11150,34.97628207,2018,BE_55050,official,TRUE
BE_56001,4.272822539431271,50.40449780312742,BE,BE32,BE326,56001,Anderlues,12271,17.2168097,2018,BE_56001,official,TRUE
BE_56005,4.25220607725313,50.23803785478182,BE,BE32,BE326,56005,Beaumont,7141,93.53152264,2018,BE_56005,official,TRUE
BE_56011,4.175338590497369,50.416025182090436,BE,BE32,BE326,56011,Binche,33631,61.32450163,2018,BE_56011,official,TRUE
BE_56016,4.32315058054175,50.042593536005526,BE,BE32,BE326,56016,Chimay,9890,198.95504572,2018,BE_56016,official,TRUE
BE_56022,4.1249225415885125,50.30842950802416,BE,BE32,BE326,56022,Erquelinnes,9963,44.61093048,2018,BE_56022,official,TRUE
BE_56029,4.342847746995731,50.179684155665576,BE,BE32,BE326,56029,Froidchapelle,3963,86.53930952,2018,BE_56029,official,TRUE
BE_56044,4.264293965430913,50.35565541107651,BE,BE32,BE326,56044,Lobbes,5869,32.19707231,2018,BE_56044,official,TRUE
BE_56049,4.17924715355497,50.32637636446371,BE,BE32,BE326,56049,Merbes-le-Château,4267,30.644886,2018,BE_56049,official,TRUE
BE_56051,4.1820131590063125,50.02701061747372,BE,BE32,BE326,56051,Momignies,5308,86.12083368,2018,BE_56051,official,TRUE
BE_56078,4.306025963738164,50.33731638522819,BE,BE32,BE326,56078,Thuin,14682,76.61179698,2018,BE_56078,official,TRUE
BE_56085,4.096831967215097,50.39203642028192,BE,BE32,BE326,56085,Estinnes,7752,73.20934395,2018,BE_56085,official,TRUE
BE_56086,4.413491274611937,50.330347720038894,BE,BE32,BE326,56086,Ham-sur-Heure-Nalinnes,13547,45.67968428,2018,BE_56086,official,TRUE
BE_56087,4.246130113854109,50.45309928074776,BE,BE32,BE326,56087,Morlanwelz,19222,20.38797062,2018,BE_56087,official,TRUE
BE_56088,4.215450305181531,50.15927209704221,BE,BE32,BE326,56088,Sivry-Rance,4837,73.33450613,2018,BE_56088,official,TRUE
BE_57003,3.4515100996113097,50.565209484055096,BE,BE32,BE327,57003,Antoing,7769,31.31742341,2018,BE_57003,official,TRUE
BE_57018,3.441235281648505,50.71014452337218,BE,BE32,BE327,57018,Celles,5668,67.44839791,2018,BE_57018,official,TRUE
BE_57027,3.271035204676637,50.696134883620935,BE,BE32,BE327,57027,Estaimpuis,10425,32.06959666,2018,BE_57027,official,TRUE
BE_57062,3.3430063604225544,50.69299014064096,BE,BE32,BE327,57062,Pecq,5602,33.15708487,2018,BE_57062,official,TRUE
BE_57064,3.585441601631297,50.51137589860801,BE,BE32,BE327,57064,Péruwelz,17142,61.14222354,2018,BE_57064,official,TRUE
BE_57072,3.3241087451435374,50.54639054258122,BE,BE32,BE327,57072,Rumes,5204,23.98684745,2018,BE_57072,official,TRUE
BE_57081,3.3891265685780683,50.60904121795677,BE,BE32,BE327,57081,Tournai,70174,215.38690243,2018,BE_57081,official,TRUE
BE_57093,3.404641785011978,50.530223230242854,BE,BE32,BE327,57093,Brunehaut,8111,46.56583516,2018,BE_57093,official,TRUE
BE_57094,3.618255542991536,50.59499955468469,BE,BE32,BE327,57094,Leuze-en-Hainaut,13893,74.44901141,2018,BE_57094,official,TRUE
BE_57095,3.5036749509558787,50.7433165783734,BE,BE32,BE327,57095,Mont-de-l'Enclus,3729,27.1863805,2018,BE_57095,official,TRUE
BE_61003,5.309668385072695,50.548334929589124,BE,BE33,BE331,61003,Amay,14313,27.70663714,2018,BE_61003,official,TRUE
BE_61010,5.117252397775062,50.58048917345629,BE,BE33,BE331,61010,Burdinne,3237,32.60763513,2018,BE_61010,official,TRUE
BE_61012,5.34502488033425,50.413228979624364,BE,BE33,BE331,61012,Clavier,4617,79.66332877,2018,BE_61012,official,TRUE
BE_61019,5.617717862996818,50.42229492207961,BE,BE33,BE331,61019,Ferrières,4920,57.13763032,2018,BE_61019,official,TRUE
BE_61024,5.545873527500999,50.4346210547062,BE,BE33,BE331,61024,Hamoir,3878,27.64889999,2018,BE_61024,official,TRUE
BE_61028,5.11240329914897,50.52930953627781,BE,BE33,BE331,61028,Héron,5288,38.29231997,2018,BE_61028,official,TRUE
BE_61031,5.239000863971647,50.52240737086841,BE,BE33,BE331,61031,Huy,21360,47.54178764,2018,BE_61031,official,TRUE
BE_61039,5.232754444845876,50.48347995976525,BE,BE33,BE331,61039,Marchin,5467,30.15031402,2018,BE_61039,official,TRUE
BE_61041,5.3073162937833445,50.47596990354971,BE,BE33,BE331,61041,Modave,4200,40.30190306,2018,BE_61041,official,TRUE
BE_61043,5.402367774577168,50.512027460768856,BE,BE33,BE331,61043,Nandrin,5832,35.98770696,2018,BE_61043,official,TRUE
BE_61048,5.462387576786029,50.44335171946965,BE,BE33,BE331,61048,Ouffet,2806,40.35746248,2018,BE_61048,official,TRUE
BE_61063,5.30886750648621,50.60617647296913,BE,BE33,BE331,61063,Verlaine,4185,24.41381359,2018,BE_61063,official,TRUE
BE_61068,5.261713194298977,50.575441738459894,BE,BE33,BE331,61068,Villers-Le-Bouillet,6508,32.84608655,2018,BE_61068,official,TRUE
BE_61072,5.2168748235881255,50.541250258557156,BE,BE33,BE331,61072,Wanze,13598,44.24122565,2018,BE_61072,official,TRUE
BE_61079,5.514208357905599,50.486819881873316,BE,BE33,BE331,61079,Anthisnes,4207,37.27268798,2018,BE_61079,official,TRUE
BE_61080,5.394783456899005,50.57754137918882,BE,BE33,BE331,61080,Engis,6122,27.68988883,2018,BE_61080,official,TRUE
BE_61081,5.391374913421193,50.478065230409186,BE,BE33,BE331,61081,Tinlot,2724,37.27316259,2018,BE_61081,official,TRUE
BE_62003,5.520847463425603,50.66507419641419,BE,BE33,BE332,62003,Ans,28308,23.29827781,2018,BE_62003,official,TRUE
BE_62006,5.460679418791814,50.680219458875136,BE,BE33,BE332,62006,Awans,9368,27.17756192,2018,BE_62006,official,TRUE
BE_62009,5.687720950162657,50.46868140538476,BE,BE33,BE332,62009,Aywaille,12575,79.93594557,2018,BE_62009,official,TRUE
BE_62011,5.589345084808093,50.759710311077164,BE,BE33,BE332,62011,Bassenge,8997,38.17498155,2018,BE_62011,official,TRUE
BE_62015,5.660675172476765,50.62667210591725,BE,BE33,BE332,62015,Beyne-Heusay,12043,7.23241689,2018,BE_62015,official,TRUE
BE_62022,5.625031357651227,50.58931088783328,BE,BE33,BE332,62022,Chaudfontaine,20966,25.55056277,2018,BE_62022,official,TRUE
BE_62026,5.580917918786144,50.48307402231478,BE,BE33,BE332,62026,Comblain-au-Pont,5386,22.57930136,2018,BE_62026,official,TRUE
BE_62027,5.746281845719773,50.72255910608427,BE,BE33,BE332,62027,Dalhem,7421,36.12108933,2018,BE_62027,official,TRUE
BE_62032,5.580208962093511,50.55006770523956,BE,BE33,BE332,62032,Esneux,12903,34.24753238,2018,BE_62032,official,TRUE
BE_62038,5.68211661157382,50.615543177801534,BE,BE33,BE332,62038,Fléron,16522,13.70817726,2018,BE_62038,official,TRUE
BE_62051,5.617777106198009,50.671445688951906,BE,BE33,BE332,62051,Herstal,40052,23.45223414,2018,BE_62051,official,TRUE
BE_62060,5.546776069336661,50.712517971515354,BE,BE33,BE332,62060,Juprelle,9302,35.45664145,2018,BE_62060,official,TRUE
BE_62063,5.582959278377486,50.6378004847801,BE,BE33,BE332,62063,Liège,198541,68.6131387,2018,BE_62063,official,TRUE
BE_62079,5.645368846742861,50.7132977605635,BE,BE33,BE332,62079,Oupeye,25319,36.18343725,2018,BE_62079,official,TRUE
BE_62093,5.527798781859266,50.63336010331011,BE,BE33,BE332,62093,Saint-Nicolas,24263,6.89639871,2018,BE_62093,official,TRUE
BE_62096,5.512894357118238,50.59619861046757,BE,BE33,BE332,62096,Seraing,64413,35.31545404,2018,BE_62096,official,TRUE
BE_62099,5.735048303337841,50.62901193346767,BE,BE33,BE332,62099,Soumagne,16902,27.25740666,2018,BE_62099,official,TRUE
BE_62100,5.674091838213555,50.51612061818727,BE,BE33,BE332,62100,Sprimont,14810,74.44613441,2018,BE_62100,official,TRUE
BE_62108,5.6904464828752115,50.72014413840557,BE,BE33,BE332,62108,Visé,17776,27.86824844,2018,BE_62108,official,TRUE
BE_62118,5.488649761087694,50.63716231395574,BE,BE33,BE332,62118,Grâce-Hollogne,22991,34.23685749,2018,BE_62118,official,TRUE
BE_62119,5.696721275047273,50.66572819441346,BE,BE33,BE332,62119,Blégny,13302,26.03716844,2018,BE_62119,official,TRUE
BE_62120,5.455762736669707,50.60356612766081,BE,BE33,BE332,62120,Flémalle,26202,36.62297924,2018,BE_62120,official,TRUE
BE_62121,5.482540555384286,50.54328281137736,BE,BE33,BE332,62121,Neupré,9945,31.84602825,2018,BE_62121,official,TRUE
BE_62122,5.697841500968862,50.57640764804642,BE,BE33,BE332,62122,Trooz,8458,24.14746471,2018,BE_62122,official,TRUE
BE_63001,6.169254202975244,50.34871923124076,BE,BE33,BE336,63001,Amel,5481,125.81210509,2018,BE_63001,official,TRUE
BE_63003,5.855514370070151,50.70233376304382,BE,BE33,BE335,63003,Aubel,4223,18.81953262,2018,BE_63003,official,TRUE
BE_63004,5.979404015261815,50.62821540041703,BE,BE33,BE335,63004,Baelen,4440,85.89860056,2018,BE_63004,official,TRUE
BE_63012,6.290417644950631,50.39618355039656,BE,BE33,BE336,63012,Büllingen,5654,150.56884549,2018,BE_63012,official,TRUE
BE_63013,6.193922721236837,50.43626612983365,BE,BE33,BE336,63013,Bütgenbach,5609,97.02452296,2018,BE_63013,official,TRUE
BE_63020,5.857436598456976,50.60450696012991,BE,BE33,BE335,63020,Dison,15480,13.9872283,2018,BE_63020,official,TRUE
BE_63023,6.035880847389926,50.63012608213254,BE,BE33,BE336,63023,Eupen,19714,96.58971919,2018,BE_63023,official,TRUE
BE_63035,5.796449035235528,50.6395405789366,BE,BE33,BE335,63035,Herve,17619,56.80672016,2018,BE_63035,official,TRUE
BE_63038,5.937386324493073,50.53353743985401,BE,BE33,BE335,63038,Jalhay,8595,106.74044105,2018,BE_63038,official,TRUE
BE_63040,6.015620194328267,50.718120818494555,BE,BE33,BE336,63040,Kelmis,11076,17.9917271,2018,BE_63040,official,TRUE
BE_63045,5.7991190845655,50.28845358367323,BE,BE33,BE335,63045,Lierneux,3608,92.28859115,2018,BE_63045,official,TRUE
BE_63046,5.941068985752552,50.617817902683036,BE,BE33,BE335,63046,Limbourg,5946,24.60986357,2018,BE_63046,official,TRUE
BE_63048,5.993872577795494,50.665313652018746,BE,BE33,BE336,63048,Lontzen,5707,28.74505144,2018,BE_63048,official,TRUE
BE_63049,6.027930070921946,50.42452100780506,BE,BE33,BE335,63049,Malmedy,12662,100.49641934,2018,BE_63049,official,TRUE
BE_63057,5.726028854260739,50.594314595784276,BE,BE33,BE335,63057,Olne,4092,15.93070073,2018,BE_63057,official,TRUE
BE_63058,5.805146424711327,50.57149235389151,BE,BE33,BE335,63058,Pepinster,9772,24.94398847,2018,BE_63058,official,TRUE
BE_63061,6.10415653503005,50.686353836475504,BE,BE33,BE336,63061,Raeren,10707,72.72794012,2018,BE_63061,official,TRUE
BE_63067,6.120793957701483,50.2866271495073,BE,BE33,BE336,63067,Sankt Vith,9685,147.14302357,2018,BE_63067,official,TRUE
BE_63072,5.864507591151029,50.49063143732447,BE,BE33,BE335,63072,Spa,10397,39.87191203,2018,BE_63072,official,TRUE
BE_63073,5.93259535901104,50.400947427645114,BE,BE33,BE335,63073,Stavelot,7176,85.11648814,2018,BE_63073,official,TRUE
BE_63075,5.798721674621369,50.40398048261794,BE,BE33,BE335,63075,Stoumont,3106,108.51626206,2018,BE_63075,official,TRUE
BE_63076,5.820567527593161,50.533465048177675,BE,BE33,BE335,63076,Theux,12034,83.50842967,2018,BE_63076,official,TRUE
BE_63079,5.8647214578384785,50.58918719069503,BE,BE33,BE335,63079,Verviers,55380,33.06098783,2018,BE_63079,official,TRUE
BE_63080,6.118352023258693,50.42521560483875,BE,BE33,BE335,63080,Waimes,7444,97.84510725,2018,BE_63080,official,TRUE
BE_63084,5.964380648575505,50.65958881455155,BE,BE33,BE335,63084,Welkenraedt,9930,24.62236057,2018,BE_63084,official,TRUE
BE_63086,5.865222630912244,50.36848561458233,BE,BE33,BE335,63086,Trois-Ponts,2570,68.8297517,2018,BE_63086,official,TRUE
BE_63087,6.083310587650748,50.20929409060626,BE,BE33,BE336,63087,Burg-Reuland,3954,109.9637967,2018,BE_63087,official,TRUE
BE_63088,5.979759248718796,50.729396926233264,BE,BE33,BE335,63088,Plombières,10412,53.36276269,2018,BE_63088,official,TRUE
BE_63089,5.8597159269252135,50.66002796330038,BE,BE33,BE335,63089,Thimister-Clermont,5736,28.69294483,2018,BE_63089,official,TRUE
BE_64008,5.209974549483599,50.70432180173252,BE,BE33,BE334,64008,Berloz,3091,14.48095027,2018,BE_64008,official,TRUE
BE_64015,5.13733345410318,50.620842718264036,BE,BE33,BE334,64015,Braives,6331,43.9487843,2018,BE_64015,official,TRUE
BE_64021,5.3967046683085105,50.70767454746991,BE,BE33,BE334,64021,Crisnée,3355,17.01764818,2018,BE_64021,official,TRUE
BE_64023,5.324647689746832,50.64837655207361,BE,BE33,BE334,64023,Donceel,3051,23.42791877,2018,BE_64023,official,TRUE
BE_64025,5.408824109263339,50.65849313182902,BE,BE33,BE334,64025,Fexhe-le-Haut-Clocher,3266,19.51179301,2018,BE_64025,official,TRUE
BE_64029,5.184873461116678,50.667355044726996,BE,BE33,BE334,64029,Geer,3434,23.57763272,2018,BE_64029,official,TRUE
BE_64034,5.0794700760469595,50.66826143036667,BE,BE33,BE334,64034,Hannut,16451,86.58606321,2018,BE_64034,official,TRUE
BE_64047,5.0298701142725735,50.72336715887437,BE,BE33,BE334,64047,Lincent,3296,14.71411007,2018,BE_64047,official,TRUE
BE_64056,5.350282576337221,50.72608110418217,BE,BE33,BE334,64056,Oreye,3920,19.64921267,2018,BE_64056,official,TRUE
BE_64063,5.335865470082916,50.68644305468213,BE,BE33,BE334,64063,Remicourt,5907,22.61775355,2018,BE_64063,official,TRUE
BE_64065,5.35934790550225,50.585836407482944,BE,BE33,BE334,64065,Saint-Georges-sur-Meuse,6795,20.99453052,2018,BE_64065,official,TRUE
BE_64074,5.254667074323087,50.69698803606915,BE,BE33,BE334,64074,Waremme,15177,30.90162788,2018,BE_64074,official,TRUE
BE_64075,5.016706066351112,50.61375081084908,BE,BE33,BE334,64075,Wasseiges,2970,24.39928326,2018,BE_64075,official,TRUE
BE_64076,5.246398175066022,50.64270931201046,BE,BE33,BE334,64076,Faimes,3952,28.40668766,2018,BE_64076,official,TRUE
BE_71002,5.58545578052847,51.00700522342068,BE,BE22,BE221,71002,As,8197,22.10098935,2018,BE_71002,official,TRUE
BE_71004,5.222400355167947,51.06118916815757,BE,BE22,BE221,71004,Beringen,46107,78.62818954,2018,BE_71004,official,TRUE
BE_71011,5.430495226097535,50.91718773618762,BE,BE22,BE221,71011,Diepenbeek,19153,41.36888062,2018,BE_71011,official,TRUE
BE_71016,5.49852123570314,50.97658927537191,BE,BE22,BE221,71016,Genk,66175,87.49930985,2018,BE_71016,official,TRUE
BE_71017,5.164298405214281,50.740720289427394,BE,BE22,BE221,71017,Gingelom,8393,56.35109887,2018,BE_71017,official,TRUE
BE_71020,5.104783632159578,50.953578978305394,BE,BE22,BE221,71020,Halen,9478,36.61459531,2018,BE_71020,official,TRUE
BE_71022,5.329920427722099,50.9318017550595,BE,BE22,BE221,71022,Hasselt,77749,102.69520291,2018,BE_71022,official,TRUE
BE_71024,5.173323315091912,50.94066714898797,BE,BE22,BE221,71024,Herk-de-Stad,12673,43.05571002,2018,BE_71024,official,TRUE
BE_71034,5.251600767662583,51.11775161170619,BE,BE22,BE221,71034,Leopoldsburg,15648,22.50376714,2018,BE_71034,official,TRUE
BE_71037,5.181537698053879,50.99042372570913,BE,BE22,BE221,71037,Lummen,14775,53.6576594,2018,BE_71037,official,TRUE
BE_71045,5.204161274965606,50.873090437924944,BE,BE22,BE221,71045,Nieuwerkerken,6967,22.52876857,2018,BE_71045,official,TRUE
BE_71047,5.583950603627804,51.042232197011316,BE,BE22,BE221,71047,Opglabbeek,10339,25.16729198,2018,BE_71047,official,TRUE
BE_71053,5.185510891715673,50.815650551851476,BE,BE22,BE221,71053,Sint-Truiden,40939,107.14943204,2018,BE_71053,official,TRUE
BE_71057,5.090545591104186,51.06391009901989,BE,BE22,BE221,71057,Tessenderlo,18534,51.68867171,2018,BE_71057,official,TRUE
BE_71066,5.369009999306304,50.989249352259534,BE,BE22,BE221,71066,Zonhoven,21230,39.67995669,2018,BE_71066,official,TRUE
BE_71067,5.572298178279817,50.93715699918888,BE,BE22,BE221,71067,Zutendaal,7241,32.04093764,2018,BE_71067,official,TRUE
BE_71069,5.160874609682535,51.10108058172741,BE,BE22,BE221,71069,Ham,10835,32.71058116,2018,BE_71069,official,TRUE
BE_71070,5.295758942716936,51.029618276531245,BE,BE22,BE221,71070,Heusden-Zolder,33549,53.4336857,2018,BE_71070,official,TRUE
BE_72003,5.552704530899858,51.18137909411842,BE,BE22,BE222,72003,Bocholt,13100,59.31986593,2018,BE_72003,official,TRUE
BE_72004,5.60307983961019,51.13920124613834,BE,BE22,BE222,72004,Bree,16013,64.91011637,2018,BE_72004,official,TRUE
BE_72018,5.758494442572229,51.15102453759016,BE,BE22,BE222,72018,Kinrooi,12232,54.88104096,2018,BE_72018,official,TRUE
BE_72020,5.3173595908699,51.22935323347374,BE,BE22,BE222,72020,Lommel,34064,102.37926528,2018,BE_72020,official,TRUE
BE_72021,5.748205132394896,51.094713311802515,BE,BE22,BE222,72021,Maaseik,25229,77.1932413,2018,BE_72021,official,TRUE
BE_72025,5.446727380864397,51.22983144276405,BE,BE22,BE222,72025,Neerpelt,17166,42.87399146,2018,BE_72025,official,TRUE
BE_72029,5.417358728666526,51.209849973936365,BE,BE22,BE222,72029,Overpelt,15590,40.85009741,2018,BE_72029,official,TRUE
BE_72030,5.452875648846768,51.13482832306553,BE,BE22,BE222,72030,Peer,16407,87.2477317,2018,BE_72030,official,TRUE
BE_72037,5.523248803854349,51.25249259167052,BE,BE22,BE222,72037,Hamont-Achel,14430,43.82088733,2018,BE_72037,official,TRUE
BE_72038,5.372434308471404,51.13280009911002,BE,BE22,BE222,72038,Hechtel-Eksel,12311,76.72755263,2018,BE_72038,official,TRUE
BE_72039,5.407159366877785,51.03424348479502,BE,BE22,BE222,72039,Houthalen-Helchteren,31310,78.28608302,2018,BE_72039,official,TRUE
BE_72040,5.543394432106234,51.09594949809013,BE,BE22,BE222,72040,Meeuwen-Gruitrode,13107,91.2292542,2018,BE_72040,official,TRUE
BE_72041,5.7261486014326755,51.03367040992384,BE,BE22,BE222,72041,Dilsen-Stokkem,20483,65.87526798,2018,BE_72041,official,TRUE
BE_73001,5.292470559127194,50.87972893375415,BE,BE22,BE223,73001,Alken,11580,28.22963027,2018,BE_73001,official,TRUE
BE_73006,5.51675968225952,50.876510995384194,BE,BE22,BE223,73006,Bilzen,32353,75.98859529,2018,BE_73006,official,TRUE
BE_73009,5.332301132003944,50.806268234204616,BE,BE22,BE223,73009,Borgloon,10714,51.31424979,2018,BE_73009,official,TRUE
BE_73022,5.289814955406113,50.747481519251174,BE,BE22,BE223,73022,Heers,7292,53.0515898,2018,BE_73022,official,TRUE
BE_73028,5.4292784119139705,50.7274954624087,BE,BE22,BE223,73028,Herstappe,88,1.33721795,2018,BE_73028,official,TRUE
BE_73032,5.483409352314162,50.84730508697326,BE,BE22,BE223,73032,Hoeselt,9695,30.09569975,2018,BE_73032,official,TRUE
BE_73040,5.400309397295405,50.85702279809298,BE,BE22,BE223,73040,Kortessem,8459,33.99297281,2018,BE_73040,official,TRUE
BE_73042,5.651647690818863,50.89081776700846,BE,BE22,BE223,73042,Lanaken,26069,58.92193676,2018,BE_73042,official,TRUE
BE_73066,5.601257058121297,50.81167387235937,BE,BE22,BE223,73066,Riemst,16677,58.10835934,2018,BE_73066,official,TRUE
BE_73083,5.466153418873209,50.77983408235759,BE,BE22,BE223,73083,Tongeren,31084,87.91620468,2018,BE_73083,official,TRUE
BE_73098,5.335827287759479,50.84291170960862,BE,BE22,BE223,73098,Wellen,7410,26.78154998,2018,BE_73098,official,TRUE
BE_73107,5.692274136391072,50.97373740114627,BE,BE22,BE223,73107,Maasmechelen,38220,76.92853138,2018,BE_73107,official,TRUE
BE_73109,5.766714619413192,50.75467667260278,BE,BE22,BE223,73109,Voeren,4166,50.80861591,2018,BE_73109,official,TRUE
BE_81001,5.811432597087368,49.68409393987869,BE,BE34,BE341,81001,Arlon,30150,118.93190216,2018,BE_81001,official,TRUE
BE_81003,5.762992897638017,49.742629580951366,BE,BE34,BE341,81003,Attert,5542,71.14673334,2018,BE_81003,official,TRUE
BE_81004,5.812333291425514,49.565082549348425,BE,BE34,BE341,81004,Aubange,16929,46.075300059999996,2018,BE_81004,official,TRUE
BE_81013,5.737064169247899,49.83059013082156,BE,BE34,BE341,81013,Martelange,1838,30.01091089,2018,BE_81013,official,TRUE
BE_81015,5.818010154686,49.60413503913119,BE,BE34,BE341,81015,Messancy,8186,52.60205461,2018,BE_81015,official,TRUE
BE_82003,5.721346163171068,50.004309479694186,BE,BE34,BE342,82003,Bastogne,15911,173.02811427,2018,BE_82003,official,TRUE
BE_82005,5.670695319098402,50.06176952412521,BE,BE34,BE342,82005,Bertogne,3586,91.79673448,2018,BE_82005,official,TRUE
BE_82009,5.691540477537527,49.87532240634796,BE,BE34,BE342,82009,Fauvillers,2255,74.92582806,2018,BE_82009,official,TRUE
BE_82014,5.7785142322594485,50.134079138282466,BE,BE34,BE342,82014,Houffalize,5231,167.26383507,2018,BE_82014,official,TRUE
BE_82032,5.911491480927079,50.28882006921838,BE,BE34,BE342,82032,Vielsalm,7873,140.85730035,2018,BE_82032,official,TRUE
BE_82036,5.590282481619002,49.92945491946025,BE,BE34,BE342,82036,Vaux-sur-Sûre,5651,135.72426668,2018,BE_82036,official,TRUE
BE_82037,5.932832044260183,50.19536222635588,BE,BE34,BE342,82037,Gouvy,5512,165.39314847,2018,BE_82037,official,TRUE
BE_82038,5.524911662870527,50.04000936547306,BE,BE34,BE342,82038,Sainte-Ode,2832,97.9535677,2018,BE_82038,official,TRUE
BE_83012,5.4957482703941345,50.354364063663425,BE,BE34,BE343,83012,Durbuy,11394,157.02596077,2018,BE_83012,official,TRUE
BE_83013,5.538422332365228,50.28977193856241,BE,BE34,BE343,83013,Erezée,3279,78.87230793,2018,BE_83013,official,TRUE
BE_83028,5.44219918215468,50.27107898384038,BE,BE34,BE343,83028,Hotton,5828,56.74584512,2018,BE_83028,official,TRUE
BE_83031,5.585741617167355,50.178381310366944,BE,BE34,BE343,83031,La Roche-en-Ardenne,4202,145.83251897,2018,BE_83031,official,TRUE
BE_83034,5.330348954641285,50.218062644589644,BE,BE34,BE343,83034,Marche-en-Famenne,17461,122.40276775,2018,BE_83034,official,TRUE
BE_83040,5.334212191520898,50.13910149776284,BE,BE34,BE343,83040,Nassogne,5482,112.95420571,2018,BE_83040,official,TRUE
BE_83044,5.506797339680561,50.23068464753078,BE,BE34,BE343,83044,Rendeux,2795,71.97897976,2018,BE_83044,official,TRUE
BE_83049,5.505361133217646,50.100030414055084,BE,BE34,BE343,83049,Tenneville,2843,91.95008256,2018,BE_83049,official,TRUE
BE_83055,5.670701117856695,50.30881461574733,BE,BE34,BE343,83055,Manhay,3567,120.21469267,2018,BE_83055,official,TRUE
BE_84009,5.256319517102285,49.85501210771497,BE,BE34,BE344,84009,Bertrix,8766,138.48353547,2018,BE_84009,official,TRUE
BE_84010,5.06966217670007,49.79882781830226,BE,BE34,BE344,84010,Bouillon,5355,148.92501485,2018,BE_84010,official,TRUE
BE_84016,5.04383527887652,49.997955868144246,BE,BE34,BE344,84016,Daverdisse,1408,56.89336621,2018,BE_84016,official,TRUE
BE_84029,5.278869279705931,49.794291664983604,BE,BE34,BE344,84029,Herbeumont,1677,58.43947695,2018,BE_84029,official,TRUE
BE_84033,5.536792352892187,49.80108512195448,BE,BE34,BE344,84033,Léglise,5368,173.89160893,2018,BE_84033,official,TRUE
BE_84035,5.251789783973922,49.96583406847211,BE,BE34,BE344,84035,Libin,5173,140.68794669,2018,BE_84035,official,TRUE
BE_84043,5.4353261887337165,49.84529588460202,BE,BE34,BE344,84043,Neufchâteau,7684,114.47526568,2018,BE_84043,official,TRUE
BE_84050,5.136201874587828,49.90040094026032,BE,BE34,BE344,84050,Paliseul,5399,111.11387524,2018,BE_84050,official,TRUE
BE_84059,5.366371291797526,50.02373401985087,BE,BE34,BE344,84059,Saint-Hubert,5576,111.99380157,2018,BE_84059,official,TRUE
BE_84068,5.2292676867500845,50.086017117323905,BE,BE34,BE344,84068,Tellin,2473,57.00558162,2018,BE_84068,official,TRUE
BE_84075,5.121498732383784,50.07927566708467,BE,BE34,BE344,84075,Wellin,3065,67.77321011,2018,BE_84075,official,TRUE
BE_84077,5.382171218619311,49.92013808614572,BE,BE34,BE344,84077,Libramont-Chevigny,11203,179.01312943,2018,BE_84077,official,TRUE
BE_85007,5.391930166457814,49.701236590837254,BE,BE34,BE345,85007,Chiny,5176,114.09674368,2018,BE_85007,official,TRUE
BE_85009,5.608190065135941,49.670498691251034,BE,BE34,BE345,85009,Etalle,5860,79.34170419,2018,BE_85009,official,TRUE
BE_85011,5.295904072781279,49.699832996466625,BE,BE34,BE345,85011,Florenville,5633,148.69202729,2018,BE_85011,official,TRUE
BE_85024,5.47121536445333,49.60249896114397,BE,BE34,BE345,85024,Meix-devant-Virton,2829,55.22761597,2018,BE_85024,official,TRUE
BE_85026,5.694392582827324,49.560856065684646,BE,BE34,BE345,85026,Musson,4512,35.39594269,2018,BE_85026,official,TRUE
BE_85034,5.670471964811542,49.6137198483036,BE,BE34,BE345,85034,Saint-Léger,3609,36.21049993,2018,BE_85034,official,TRUE
BE_85039,5.495195846267652,49.688371528539285,BE,BE34,BE345,85039,Tintigny,4282,81.70373746,2018,BE_85039,official,TRUE
BE_85045,5.540580746873538,49.565726969761826,BE,BE34,BE345,85045,Virton,11350,95.73475615,2018,BE_85045,official,TRUE
BE_85046,5.625827883931231,49.7260708180989,BE,BE34,BE345,85046,Habay,8386,103.29419397,2018,BE_85046,official,TRUE
BE_85047,5.492335947099898,49.53931116524341,BE,BE34,BE345,85047,Rouvroy,2082,28.18656033,2018,BE_85047,official,TRUE
BE_91005,4.836453355589709,50.320245339326625,BE,BE35,BE351,91005,Anhée,7120,66.00066782,2018,BE_91005,official,TRUE
BE_91013,4.950962852166659,50.10767285065928,BE,BE35,BE351,91013,Beauraing,9283,174.42994693,2018,BE_91013,official,TRUE
BE_91015,5.030563914793221,49.93238456888179,BE,BE35,BE351,91015,Bièvre,3313,109.65782532,2018,BE_91015,official,TRUE
BE_91030,5.101393881066102,50.290741125288974,BE,BE35,BE351,91030,Ciney,16457,148.05283043,2018,BE_91030,official,TRUE
BE_91034,4.914740652029297,50.25740648286231,BE,BE35,BE351,91034,Dinant,13565,99.83356636,2018,BE_91034,official,TRUE
BE_91054,4.924278439688929,49.98685289718907,BE,BE35,BE351,91054,Gedinne,4564,151.87574195,2018,BE_91054,official,TRUE
BE_91059,5.111197241139001,50.34245784284342,BE,BE35,BE351,91059,Hamois,7549,76.57840924,2018,BE_91059,official,TRUE
BE_91064,5.258189813574911,50.37497051553976,BE,BE35,BE351,91064,Havelange,5135,104.77857922,2018,BE_91064,official,TRUE
BE_91072,4.989306140407531,50.181605529520056,BE,BE35,BE351,91072,Houyet,4875,123.1848876,2018,BE_91072,official,TRUE
BE_91103,4.821919356695767,50.248851146468276,BE,BE35,BE351,91103,Onhaye,3201,65.62123238,2018,BE_91103,official,TRUE
BE_91114,5.225007757525531,50.1586442247956,BE,BE35,BE351,91114,Rochefort,12567,166.45532986,2018,BE_91114,official,TRUE
BE_91120,5.3324846128804735,50.302328146659676,BE,BE35,BE351,91120,Somme-Leuze,5589,95.21898368,2018,BE_91120,official,TRUE
BE_91141,4.91489341575229,50.330554139501615,BE,BE35,BE351,91141,Yvoir,9607,57.09403434,2018,BE_91141,official,TRUE
BE_91142,4.826177357607329,50.196496953523486,BE,BE35,BE351,91142,Hastière,5988,56.59857821,2018,BE_91142,official,TRUE
BE_91143,4.93216149916442,49.84697319759063,BE,BE35,BE351,91143,Vresse-sur-Semois,2769,101.45526409,2018,BE_91143,official,TRUE
BE_92003,5.087999381203394,50.491187653749854,BE,BE35,BE352,92003,Andenne,27028,86.2025922,2018,BE_92003,official,TRUE
BE_92006,4.986853617220431,50.38265496537308,BE,BE35,BE352,92006,Assesse,6986,78.56017792,2018,BE_92006,official,TRUE
BE_92035,4.900520025750517,50.58025283425631,BE,BE35,BE352,92035,Eghezée,16254,103.13414071,2018,BE_92035,official,TRUE
BE_92045,4.75331361658058,50.436534178953224,BE,BE35,BE352,92045,Floreffe,8117,39.1539315,2018,BE_92045,official,TRUE
BE_92048,4.684114115970979,50.394807058488766,BE,BE35,BE352,92048,Fosses-la-Ville,10460,63.27001529,2018,BE_92048,official,TRUE
BE_92054,5.054778198624135,50.416822191045455,BE,BE35,BE352,92054,Gesves,7225,64.99659296,2018,BE_92054,official,TRUE
BE_92087,4.664565782616784,50.32587505481309,BE,BE35,BE352,92087,Mettet,13047,116.82395406,2018,BE_92087,official,TRUE
BE_92094,4.8608416504800545,50.46345903143409,BE,BE35,BE352,92094,Namur,111498,176.12701898,2018,BE_92094,official,TRUE
BE_92097,5.141251933606776,50.44075376983924,BE,BE35,BE352,92097,Ohey,5092,56.7466527,2018,BE_92097,official,TRUE
BE_92101,4.840783501292506,50.38127228730018,BE,BE35,BE352,92101,Profondeville,12224,50.38147097,2018,BE_92101,official,TRUE
BE_92114,4.5891317823249596,50.5171899383183,BE,BE35,BE352,92114,Sombreffe,8426,35.92709224,2018,BE_92114,official,TRUE
BE_92137,4.621088329150361,50.44110388987187,BE,BE35,BE352,92137,Sambreville,28246,34.4127138,2018,BE_92137,official,TRUE
BE_92138,4.99184262459079,50.55264482540741,BE,BE35,BE352,92138,Fernelmont,7923,65.81748479,2018,BE_92138,official,TRUE
BE_92140,4.677239843947063,50.46167163280149,BE,BE35,BE352,92140,Jemeppe-sur-Sambre,19094,46.90452443,2018,BE_92140,official,TRUE
BE_92141,4.805920840534782,50.52624160909391,BE,BE35,BE352,92141,La Bruyère,9241,53.19180213,2018,BE_92141,official,TRUE
BE_92142,4.698224317409868,50.560228418312086,BE,BE35,BE352,92142,Gembloux,25975,96.34219021,2018,BE_92142,official,TRUE
BE_93010,4.426426347578749,50.18145535023161,BE,BE35,BE353,93010,Cerfontaine,4930,83.47658347,2018,BE_93010,official,TRUE
BE_93014,4.49935639113759,50.0596145230076,BE,BE35,BE353,93014,Couvin,13838,207.05739234,2018,BE_93014,official,TRUE
BE_93018,4.703173679292256,50.13573908763144,BE,BE35,BE353,93018,Doische,2955,84.12074,2018,BE_93018,official,TRUE
BE_93022,4.598574788154688,50.25897998351512,BE,BE35,BE353,93022,Florennes,11789,134.30565913,2018,BE_93022,official,TRUE
BE_93056,4.561940675949847,50.18661640773203,BE,BE35,BE353,93056,Philippeville,9245,157.19043993,2018,BE_93056,official,TRUE
BE_93088,4.45738711672825,50.27607126694721,BE,BE35,BE353,93088,Walcourt,18398,123.74956194,2018,BE_93088,official,TRUE
BE_93090,4.605185773853029,50.06885823350633,BE,BE35,BE353,93090,Viroinval,5877,121.15842389,2018,BE_93090,official,TRUE
