gisco_id,longitude,latitude,country,nuts_2,nuts_3,lau_id,lau_name,population,area_km2,year,fid,concordance,pop_weighted
BE_11001,4.385337213623049,51.13317076289441,BE,BE21,BE211,11001,Aartselaar,14441,11.00006787,2020,BE_11001,official,TRUE
BE_11002,4.422017869230598,51.21258786706091,BE,BE21,BE211,11002,Antwerpen / Anvers,530944,204.1372801,2020,BE_11002,official,TRUE
BE_11004,4.501921282821548,51.16505227097261,BE,BE21,BE211,11004,Boechout,13389,20.72341665,2020,BE_11004,official,TRUE
BE_11005,4.372160726762074,51.09330412242497,BE,BE21,BE211,11005,Boom,18593,7.31016917,2020,BE_11005,official,TRUE
BE_11007,4.481278157685269,51.198216109215664,BE,BE21,BE211,11007,Borsbeek,10960,3.88991035,2020,BE_11007,official,TRUE
BE_11008,4.490318380633789,51.29972998378653,BE,BE21,BE211,11008,Brasschaat,38255,38.62568809,2020,BE_11008,official,TRUE
BE_11009,4.599916185001191,51.317672131822626,BE,BE21,BE211,11009,Brecht,29484,91.37736526,2020,BE_11009,official,TRUE
BE_11013,4.438082449891661,51.15856097445181,BE,BE21,BE211,11013,Edegem,22271,8.69904532,2020,BE_11013,official,TRUE
BE_11016,4.458129196363217,51.45354201131027,BE,BE21,BE211,11016,Essen,19170,47.57059565,2020,BE_11016,official,TRUE
BE_11018,4.341831036663022,51.14319959614171,BE,BE21,BE211,11018,Hemiksem,11655,5.51489403,2020,BE_11018,official,TRUE
BE_11021,4.472338427120363,51.15303453675515,BE,BE21,BE211,11021,Hove (Antwerpen) / Hove (Anvers),8285,6.00490015,2020,BE_11021,official,TRUE
BE_11022,4.472656248973782,51.38400274303846,BE,BE21,BE211,11022,Kalmthout,18899,59.57155324,2020,BE_11022,official,TRUE
BE_11023,4.427289644460664,51.3173576466653,BE,BE21,BE211,11023,Kapellen (Antwerpen) / Kapellen (Anvers),27525,37.23061519,2020,BE_11023,official,TRUE
BE_11024,4.452094791567664,51.13298180938787,BE,BE21,BE211,11024,Kontich,21204,23.87285039,2020,BE_11024,official,TRUE
BE_11025,4.490319124075187,51.127746315450445,BE,BE21,BE211,11025,Lint,8827,5.60879596,2020,BE_11025,official,TRUE
BE_11029,4.453028443880681,51.17241955207744,BE,BE21,BE211,11029,Mortsel,26201,7.79559258,2020,BE_11029,official,TRUE
BE_11030,4.33282024298777,51.1102606159918,BE,BE21,BE211,11030,Niel,10557,5.31730944,2020,BE_11030,official,TRUE
BE_11035,4.582493858830907,51.194774582040516,BE,BE21,BE211,11035,Ranst,19729,43.82324464,2020,BE_11035,official,TRUE
BE_11037,4.41049848103387,51.09149345670068,BE,BE21,BE211,11037,Rumst,15055,20.18019798,2020,BE_11037,official,TRUE
BE_11038,4.335367461608811,51.122046559028945,BE,BE21,BE211,11038,Schelle,8538,7.74604877,2020,BE_11038,official,TRUE
BE_11039,4.578017902379146,51.24573863388179,BE,BE21,BE211,11039,Schilde,19914,36.05027019,2020,BE_11039,official,TRUE
BE_11040,4.494835145106875,51.252552733852035,BE,BE21,BE211,11040,Schoten,34335,29.52843308,2020,BE_11040,official,TRUE
BE_11044,4.386904928588754,51.32435380442843,BE,BE21,BE211,11044,Stabroek,18804,21.57230018,2020,BE_11044,official,TRUE
BE_11050,4.516945225901036,51.22822113482319,BE,BE21,BE211,11050,Wijnegem,9994,7.87517976,2020,BE_11050,official,TRUE
BE_11052,4.514074209319668,51.20234283788519,BE,BE21,BE211,11052,Wommelgem,12950,12.98387747,2020,BE_11052,official,TRUE
BE_11053,4.576699564489544,51.37671859832831,BE,BE21,BE211,11053,Wuustwezel,21229,89.4221809,2020,BE_11053,official,TRUE
BE_11054,4.671999632179726,51.21109475353675,BE,BE21,BE211,11054,Zandhoven,13078,39.94751669,2020,BE_11054,official,TRUE
BE_11055,4.6559523105573755,51.26289821974873,BE,BE21,BE211,11055,Zoersel,22091,38.64285348,2020,BE_11055,official,TRUE
BE_11056,4.332542620132159,51.21353159187363,BE,BE21,BE211,11056,Zwijndrecht,19183,20.1365865,2020,BE_11056,official,TRUE
BE_11057,4.710061106263611,51.30000420829113,BE,BE21,BE211,11057,Malle,15614,51.90562555,2020,BE_11057,official,TRUE
BE_12002,4.651871674371638,51.11259555856381,BE,BE21,BE212,12002,Berlaar,11674,24.52437861,2020,BE_12002,official,TRUE
BE_12005,4.554113599742363,51.02273671264638,BE,BE21,BE212,12005,Bonheiden,15090,29.18841621,2020,BE_12005,official,TRUE
BE_12007,4.23673259973791,51.09411218387383,BE,BE21,BE212,12007,Bornem,21363,46.13339672,2020,BE_12007,official,TRUE
BE_12009,4.506753062457391,51.09579600952899,BE,BE21,BE212,12009,Duffel,17675,22.60636027,2020,BE_12009,official,TRUE
BE_12014,4.730169622886168,51.07212480994517,BE,BE21,BE212,12014,Heist-op-den-Berg,42981,86.70446606,2020,BE_12014,official,TRUE
BE_12021,4.568654241834978,51.1337125127467,BE,BE21,BE212,12021,Lier / Lierre,36711,49.83089299,2020,BE_12021,official,TRUE
BE_12025,4.477087616325727,51.02679181660346,BE,BE21,BE212,12025,Mechelen / Malines,87286,66.05356899,2020,BE_12025,official,TRUE
BE_12026,4.658867501917246,51.15553854859087,BE,BE21,BE212,12026,Nijlen,22957,39.16500445,2020,BE_12026,official,TRUE
BE_12029,4.642204566645865,51.05478286313755,BE,BE21,BE212,12029,Putte,17939,35.16699398,2020,BE_12029,official,TRUE
BE_12035,4.527948876878496,51.056529113685464,BE,BE21,BE212,12035,Sint-Katelijne-Waver,21032,36.13675467,2020,BE_12035,official,TRUE
BE_12040,4.359889376924898,51.05770170144072,BE,BE21,BE212,12040,Willebroek,26869,27.47570665,2020,BE_12040,official,TRUE
BE_12041,NA,NA,BE,BE21,BE212,12041,Puurs-Sint-Amands,26177,49.12085018,2020,BE_12041,geo,NA
BE_13001,5.086706092683053,51.32263618749838,BE,BE21,BE213,13001,Arendonk,13816,55.23744742,2020,BE_13001,official,TRUE
BE_13002,4.925658696697215,51.44330144517805,BE,BE21,BE213,13002,Baarle-Hertog / Baerle-Duc,2875,7.53125221,2020,BE_13002,official,TRUE
BE_13003,5.175915531332385,51.16961546703955,BE,BE21,BE213,13003,Balen,22844,72.98532855,2020,BE_13003,official,TRUE
BE_13004,4.845543914446356,51.31762091541585,BE,BE21,BE213,13004,Beerse,18141,37.28024494,2020,BE_13004,official,TRUE
BE_13006,5.122701218496172,51.240312893712556,BE,BE21,BE213,13006,Dessel,9622,27.39645566,2020,BE_13006,official,TRUE
BE_13008,4.987998008533136,51.164231473620184,BE,BE21,BE213,13008,Geel,40721,110.2326717,2020,BE_13008,official,TRUE
BE_13010,4.732852110720799,51.186418609925774,BE,BE21,BE213,13010,Grobbendonk,11186,28.42657302,2020,BE_13010,official,TRUE
BE_13011,4.833139359083918,51.1723931457846,BE,BE21,BE213,13011,Herentals,28299,47.99958441,2020,BE_13011,official,TRUE
BE_13012,4.757401050953148,51.13999166038034,BE,BE21,BE213,13012,Herenthout,9112,23.61734015,2020,BE_13012,official,TRUE
BE_13013,4.870869674984843,51.04698928624148,BE,BE21,BE213,13013,Herselt,14538,52.39747907,2020,BE_13013,official,TRUE
BE_13014,4.762151481781394,51.41320201813257,BE,BE21,BE213,13014,Hoogstraten,21440,105.46039006,2020,BE_13014,official,TRUE
BE_13016,4.806814527388849,51.06799545464372,BE,BE21,BE213,13016,Hulshout,10486,17.38327021,2020,BE_13016,official,TRUE
BE_13017,4.937246788363866,51.23786330638218,BE,BE21,BE213,13017,Kasterlee,18897,72.26501397,2020,BE_13017,official,TRUE
BE_13019,4.829690578361431,51.25076690376987,BE,BE21,BE213,13019,Lille,16564,59.57576157,2020,BE_13019,official,TRUE
BE_13021,5.080859858207939,51.12858400105974,BE,BE21,BE213,13021,Meerhout,10331,36.55316233,2020,BE_13021,official,TRUE
BE_13023,4.857932849681924,51.358325029514866,BE,BE21,BE213,13023,Merksplas,8601,44.65027631,2020,BE_13023,official,TRUE
BE_13025,5.116833436395769,51.19216062683457,BE,BE21,BE213,13025,Mol,37082,114.50601451,2020,BE_13025,official,TRUE
BE_13029,4.882651956776947,51.16025510360762,BE,BE21,BE213,13029,Olen,12567,23.15254731,2020,BE_13029,official,TRUE
BE_13031,4.984407134043777,51.32190730306652,BE,BE21,BE213,13031,Oud-Turnhout,13978,39.20234649,2020,BE_13031,official,TRUE
BE_13035,5.001744798878697,51.39132124435054,BE,BE21,BE213,13035,Ravels,15011,95.08636233,2020,BE_13035,official,TRUE
BE_13036,5.084188249569739,51.269208961279915,BE,BE21,BE213,13036,Retie,11519,48.48027095,2020,BE_13036,official,TRUE
BE_13037,4.764863072100241,51.34505891147323,BE,BE21,BE213,13037,Rijkevorsel,12178,46.86452498,2020,BE_13037,official,TRUE
BE_13040,4.943246116065391,51.32090016752197,BE,BE21,BE213,13040,Turnhout,45400,56.66125633,2020,BE_13040,official,TRUE
BE_13044,4.769885972376319,51.205439966899704,BE,BE21,BE213,13044,Vorselaar,7943,27.59549062,2020,BE_13044,official,TRUE
BE_13046,4.885590809765386,51.31006335858418,BE,BE21,BE213,13046,Vosselaar,11349,11.86302715,2020,BE_13046,official,TRUE
BE_13049,4.89037460846205,51.10965640081541,BE,BE21,BE213,13049,Westerlo,25131,55.43092753,2020,BE_13049,official,TRUE
BE_13053,5.011028996378319,51.08107857605234,BE,BE21,BE213,13053,Laakdal,16191,42.37073862,2020,BE_13053,official,TRUE
BE_21001,4.309104349114515,50.83683532783737,BE,BE10,BE100,21001,Anderlecht,121546,17.91143101,2020,BE_21001,official,TRUE
BE_21002,4.4176992295095285,50.817394278019435,BE,BE10,BE100,21002,Auderghem / Oudergem,34486,8.99843234,2020,BE_21002,official,TRUE
BE_21003,4.298372913970852,50.865856958709465,BE,BE10,BE100,21003,Berchem-Sainte-Agathe / Sint-Agatha-Berchem,25557,2.96426037,2020,BE_21003,official,TRUE
BE_21004,4.354349305741573,50.86397959568039,BE,BE10,BE100,21004,Bruxelles / Brussel,204458,32.77139496,2020,BE_21004,official,TRUE
BE_21005,4.3925139381542,50.83381386479077,BE,BE10,BE100,21005,Etterbeek,48621,3.18016802,2020,BE_21005,official,TRUE
BE_21006,4.405683395644701,50.87042774935188,BE,BE10,BE100,21006,Evere,42783,5.12280205,2020,BE_21006,official,TRUE
BE_21007,4.331416629251366,50.817915179781785,BE,BE10,BE100,21007,Vorst (Brussel-Hoofdstad) / Forest (Bruxelles-Capitale),56804,6.31589319,2020,BE_21007,official,TRUE
BE_21008,4.312090638546541,50.87396313925415,BE,BE10,BE100,21008,Ganshoren,25340,2.43199299,2020,BE_21008,official,TRUE
BE_21009,4.375139618347944,50.82709450300727,BE,BE10,BE100,21009,Ixelles / Elsene,88301,6.41151246,2020,BE_21009,official,TRUE
BE_21010,4.33030197939035,50.875454776048194,BE,BE10,BE100,21010,Jette,53013,5.17430505,2020,BE_21010,official,TRUE
BE_21011,4.329230094433917,50.862198767195544,BE,BE10,BE100,21011,Koekelberg,21982,1.17892899,2020,BE_21011,official,TRUE
BE_21012,4.324262604118249,50.85604538983824,BE,BE10,BE100,21012,Molenbeek-Saint-Jean / Sint-Jans-Molenbeek,98466,6.03231422,2020,BE_21012,official,TRUE
BE_21013,4.342051802147056,50.8304042724462,BE,BE10,BE100,21013,Saint-Gilles / Sint-Gillis,50066,2.53064366,2020,BE_21013,official,TRUE
BE_21014,4.375796099297028,50.852967297988144,BE,BE10,BE100,21014,Saint-Josse-ten-Noode / Sint-Joost-ten-Node,27552,1.15617234,2020,BE_21014,official,TRUE
BE_21015,4.381469371570512,50.86219239860224,BE,BE10,BE100,21015,Schaerbeek / Schaarbeek,133315,7.91449294,2020,BE_21015,official,TRUE
BE_21016,4.344070486539025,50.801050840668495,BE,BE10,BE100,21016,Uccle / Ukkel,84239,22.82804238,2020,BE_21016,official,TRUE
BE_21017,4.40968020332277,50.80481490937398,BE,BE10,BE100,21017,Watermael-Boitsfort / Watermaal-Bosvoorde,25361,12.98803161,2020,BE_21017,official,TRUE
BE_21018,4.423141792635686,50.847363707264314,BE,BE10,BE100,21018,Woluwe-Saint-Lambert / Sint-Lambrechts-Woluwe,57810,7.30995277,2020,BE_21018,official,TRUE
BE_21019,4.432188532036547,50.83295737148481,BE,BE10,BE100,21019,Woluwe-Saint-Pierre / Sint-Pieters-Woluwe,42193,8.93851979,2020,BE_21019,official,TRUE
BE_23002,4.236120854262656,50.89788941058368,BE,BE24,BE241,23002,Asse,33529,50.23832892,2020,BE_23002,official,TRUE
BE_23003,4.303342044240607,50.753750394102795,BE,BE24,BE241,23003,Beersel,25621,30.45660345,2020,BE_23003,official,TRUE
BE_23009,3.9336809826986867,50.71365820860019,BE,BE24,BE241,23009,Bever / Biévène,2179,19.25312408,2020,BE_23009,official,TRUE
BE_23016,4.256119358029058,50.85203516434778,BE,BE24,BE241,23016,Dilbeek,43488,41.42680405,2020,BE_23016,official,TRUE
BE_23023,3.9879092300040946,50.750727421456766,BE,BE24,BE241,23023,Galmaarden / Gammerages,8843,35.25971085,2020,BE_23023,official,TRUE
BE_23024,4.099328174606948,50.78238747175274,BE,BE24,BE241,23024,Gooik,9197,40.20358995,2020,BE_23024,official,TRUE
BE_23025,4.363126069208673,50.91491221588292,BE,BE24,BE241,23025,Grimbergen,38042,38.75354897,2020,BE_23025,official,TRUE
BE_23027,4.237730279507829,50.73174061599896,BE,BE24,BE241,23027,Halle (Halle-Vilvoorde) / Hal (Hal-Vilvorde),40208,44.97266309,2020,BE_23027,official,TRUE
BE_23032,4.036102748822844,50.71098190971778,BE,BE24,BE241,23032,Herne,6700,44.68723993,2020,BE_23032,official,TRUE
BE_23033,4.473722071617087,50.76621073984306,BE,BE24,BE241,23033,Hoeilaart,11418,20.57879083,2020,BE_23033,official,TRUE
BE_23038,4.554056314224887,50.938458433565295,BE,BE24,BE241,23038,Kampenhout,12131,33.66711984,2020,BE_23038,official,TRUE
BE_23039,4.357566349534994,51.01052727279373,BE,BE24,BE241,23039,Kapelle-op-den-Bos,9512,15.46117058,2020,BE_23039,official,TRUE
BE_23044,4.090866301423726,50.86884575460568,BE,BE24,BE241,23044,Liedekerke,13414,10.23562537,2020,BE_23044,official,TRUE
BE_23045,4.289619216947639,51.01065033693607,BE,BE24,BE241,23045,Londerzeel,18865,36.47571733,2020,BE_23045,official,TRUE
BE_23047,4.439831345386592,50.90542445517894,BE,BE24,BE241,23047,Machelen (Halle-Vilvoorde) / Machelen (Hal-Vilvorde),15623,11.4967422,2020,BE_23047,official,TRUE
BE_23050,4.322182702674483,50.948085045425806,BE,BE24,BE241,23050,Meise,19639,35.10878321,2020,BE_23050,official,TRUE
BE_23052,4.23748698755129,50.955623560054406,BE,BE24,BE241,23052,Merchtem,16783,36.89655864,2020,BE_23052,official,TRUE
BE_23060,4.185646445699752,50.96811941264069,BE,BE24,BE241,23060,Opwijk,14756,19.90808375,2020,BE_23060,official,TRUE
BE_23062,4.520436486414463,50.77343958190252,BE,BE24,BE241,23062,Overijse,25509,45.04057849,2020,BE_23062,official,TRUE
BE_23064,4.151553587714611,50.74866085458132,BE,BE24,BE241,23064,Pepingen,4549,35.99482458,2020,BE_23064,official,TRUE
BE_23077,4.279579670404411,50.793194307716895,BE,BE24,BE241,23077,Sint-Pieters-Leeuw,34661,40.67074321,2020,BE_23077,official,TRUE
BE_23081,4.505762808384969,50.91766218191656,BE,BE24,BE241,23081,Steenokkerzeel,12287,23.59795167,2020,BE_23081,official,TRUE
BE_23086,4.163612023605568,50.87034150230459,BE,BE24,BE241,23086,Ternat,16024,24.68681756,2020,BE_23086,official,TRUE
BE_23088,4.421611842998581,50.926039971916495,BE,BE24,BE241,23088,Vilvoorde / Vilvorde,45549,21.59069027,2020,BE_23088,official,TRUE
BE_23094,4.474086945233311,50.876202302692356,BE,BE24,BE241,23094,Zaventem,35194,27.762844779999998,2020,BE_23094,official,TRUE
BE_23096,4.473887795831915,50.978196546574814,BE,BE24,BE241,23096,Zemst,23273,42.9072992,2020,BE_23096,official,TRUE
BE_23097,4.095812517277009,50.84060974951016,BE,BE24,BE241,23097,Roosdaal,11664,22.16696973,2020,BE_23097,official,TRUE
BE_23098,4.313538750589839,50.78946939162747,BE,BE24,BE241,23098,Drogenbos,5673,2.52296467,2020,BE_23098,official,TRUE
BE_23099,4.46506654916198,50.84907925246989,BE,BE24,BE241,23099,Kraainem,13863,5.82823682,2020,BE_23099,official,TRUE
BE_23100,4.337888507076068,50.77099716464367,BE,BE24,BE241,23100,Linkebeek,4702,4.17677602,2020,BE_23100,official,TRUE
BE_23101,4.362834995670929,50.744701746867186,BE,BE24,BE241,23101,Sint-Genesius-Rode / Rhode-Saint-Genèse,18563,22.72628364,2020,BE_23101,official,TRUE
BE_23102,4.312220896276548,50.9019267428745,BE,BE24,BE241,23102,Wemmel,16846,9.00843142,2020,BE_23102,official,TRUE
BE_23103,4.489082929100199,50.84294824607251,BE,BE24,BE241,23103,Wezembeek-Oppem,14279,6.88345953,2020,BE_23103,official,TRUE
BE_23104,4.1558147682138085,50.81097193398597,BE,BE24,BE241,23104,Lennik,9108,31.17697298,2020,BE_23104,official,TRUE
BE_23105,4.109244731414954,50.90076003767778,BE,BE24,BE241,23105,Affligem,13359,18.03291425,2020,BE_23105,official,TRUE
BE_24001,4.845840794394244,50.989181419072956,BE,BE24,BE242,24001,Aarschot,30225,63.04845809,2020,BE_24001,official,TRUE
BE_24007,4.787129254088792,51.008628448455305,BE,BE24,BE242,24007,Begijnendijk,10261,17.65080646,2020,BE_24007,official,TRUE
BE_24008,4.977649928887802,50.94232307367424,BE,BE24,BE242,24008,Bekkevoort,6338,37.35860492,2020,BE_24008,official,TRUE
BE_24009,4.618174432423389,50.85922060772787,BE,BE24,BE242,24009,Bertem,10140,30.004759,2020,BE_24009,official,TRUE
BE_24011,4.767232304468525,50.85173920184728,BE,BE24,BE242,24011,Bierbeek,10169,38.92313109,2020,BE_24011,official,TRUE
BE_24014,4.559719033147907,50.98187875414919,BE,BE24,BE242,24014,Boortmeerbeek,12635,18.75495094,2020,BE_24014,official,TRUE
BE_24016,4.8430234884988925,50.83851790757633,BE,BE24,BE242,24016,Boutersem,8254,31.15272856,2020,BE_24016,official,TRUE
BE_24020,5.055277929780279,50.985775837279654,BE,BE24,BE242,24020,Diest,24265,58.68115061,2020,BE_24020,official,TRUE
BE_24028,5.128201789442175,50.892156041202725,BE,BE24,BE242,24028,Geetbets,6142,35.51341825,2020,BE_24028,official,TRUE
BE_24033,4.632500928297658,50.96866397971228,BE,BE24,BE242,24033,Haacht,14891,30.69904742,2020,BE_24033,official,TRUE
BE_24038,4.664264905249159,50.905414198781344,BE,BE24,BE242,24038,Herent,21937,32.69606351,2020,BE_24038,official,TRUE
BE_24041,4.888914207088485,50.777148291363616,BE,BE24,BE242,24041,Hoegaarden,6881,34.07529276,2020,BE_24041,official,TRUE
BE_24043,4.776180642404536,50.9258019481278,BE,BE24,BE242,24043,Holsbeek,10068,38.77064866,2020,BE_24043,official,TRUE
BE_24045,4.608931287752469,50.784798064588834,BE,BE24,BE242,24045,Huldenberg,9940,40.00360225,2020,BE_24045,official,TRUE
BE_24048,4.64785256336796,51.00527309681952,BE,BE24,BE242,24048,Keerbergen,12966,18.53722469,2020,BE_24048,official,TRUE
BE_24054,5.021194253324093,50.898016756574506,BE,BE24,BE242,24054,Kortenaken,7903,49.39707886,2020,BE_24054,official,TRUE
BE_24055,4.549526066917371,50.88717075921458,BE,BE24,BE242,24055,Kortenberg,20328,34.74050325,2020,BE_24055,official,TRUE
BE_24059,5.0794659883869135,50.7514050743605,BE,BE24,BE242,24059,Landen,16111,53.33373191,2020,BE_24059,official,TRUE
BE_24062,4.707866048560629,50.87943818840507,BE,BE24,BE242,24062,Leuven / Louvain,102031,57.53532597,2020,BE_24062,official,TRUE
BE_24066,4.79911923370234,50.887343048079416,BE,BE24,BE242,24066,Lubbeek,14578,45.30399463,2020,BE_24066,official,TRUE
BE_24086,4.687764715771514,50.82719911564436,BE,BE24,BE242,24086,Oud-Heverlee,11109,31.18427259,2020,BE_24086,official,TRUE
BE_24094,4.7332681982517535,50.956965487765856,BE,BE24,BE242,24094,Rotselaar,17024,37.20396288,2020,BE_24094,official,TRUE
BE_24104,4.517509932722203,50.824780492115146,BE,BE24,BE242,24104,Tervuren,22747,33.45751828,2020,BE_24104,official,TRUE
BE_24107,4.93653058934887,50.80882290521628,BE,BE24,BE242,24107,Tienen / Tirlemont,35363,72.85945038,2020,BE_24107,official,TRUE
BE_24109,4.721160561717046,50.99826347047246,BE,BE24,BE242,24109,Tremelo,14925,21.91021985,2020,BE_24109,official,TRUE
BE_24130,5.104024544882968,50.82999390817148,BE,BE24,BE242,24130,Zoutleeuw / Léau,8674,46.81299086,2020,BE_24130,official,TRUE
BE_24133,5.036478887864417,50.8236867640364,BE,BE24,BE242,24133,Linter,7272,36.90168987,2020,BE_24133,official,TRUE
BE_24134,4.969207510059955,50.99068798673182,BE,BE24,BE242,24134,Scherpenheuvel-Zichem / Montaigu-Zichem,23243,51.17618777,2020,BE_24134,official,TRUE
BE_24135,4.8975990066447626,50.92208809212334,BE,BE24,BE242,24135,Tielt-Winge,10804,44.54981282,2020,BE_24135,official,TRUE
BE_24137,4.949448350709407,50.86241609659433,BE,BE24,BE242,24137,Glabbeek,5328,26.97854397,2020,BE_24137,official,TRUE
BE_25005,4.742874161783046,50.77870647740444,BE,BE31,BE310,25005,Beauvechain / Bevekom,7242,38.66291046,2020,BE_25005,official,TRUE
BE_25014,4.374384549333113,50.68039296435398,BE,BE31,BE310,25014,Braine-l'Alleud / Eigenbrakel,40204,52.24868979,2020,BE_25014,official,TRUE
BE_25015,4.282054500014549,50.68096376377014,BE,BE31,BE310,25015,Braine-le-Château / Kasteelbrakel,10572,22.74647107,2020,BE_25015,official,TRUE
BE_25018,4.683921235149339,50.688777047186605,BE,BE31,BE310,25018,Chaumont-Gistoux,11646,48.26854187,2020,BE_25018,official,TRUE
BE_25023,4.560648244950932,50.64073420108233,BE,BE31,BE310,25023,Court-Saint-Etienne,10587,26.97280987,2020,BE_25023,official,TRUE
BE_25031,4.457826858511233,50.61095684779303,BE,BE31,BE310,25031,Genappe / Genepiën,15565,90.28886476,2020,BE_25031,official,TRUE
BE_25037,4.684873038005068,50.746641401557106,BE,BE31,BE310,25037,Grez-Doiceau / Graven,13894,55.59021805,2020,BE_25037,official,TRUE
BE_25043,4.792609453781724,50.69330035313215,BE,BE31,BE310,25043,Incourt,5526,38.79428236,2020,BE_25043,official,TRUE
BE_25044,4.2315088404520775,50.642226006162076,BE,BE31,BE310,25044,Ittre / Itter,6979,35.0255888,2020,BE_25044,official,TRUE
BE_25048,4.869361059775431,50.72485101907156,BE,BE31,BE310,25048,Jodoigne / Geldenaken,14715,73.69720916,2020,BE_25048,official,TRUE
BE_25050,4.4840236537965055,50.73370069000931,BE,BE31,BE310,25050,La Hulpe / Terhulpen,7438,15.46679981,2020,BE_25050,official,TRUE
BE_25068,4.617883364583667,50.63822805480284,BE,BE31,BE310,25068,Mont-Saint-Guibert,7895,18.75872595,2020,BE_25068,official,TRUE
BE_25072,4.327125995020379,50.5976549081503,BE,BE31,BE310,25072,Nivelles / Nijvel,28924,60.87120314,2020,BE_25072,official,TRUE
BE_25084,4.80467609942224,50.62778008946538,BE,BE31,BE310,25084,Perwijs (Nijvel) / Perwez (Nivelles),9474,51.16182038,2020,BE_25084,official,TRUE
BE_25091,4.517658590420076,50.71696278242306,BE,BE31,BE310,25091,Rixensart,22873,17.4748389,2020,BE_25091,official,TRUE
BE_25105,4.205106269692624,50.69046370359866,BE,BE31,BE310,25105,Tubize / Tubeke,26753,32.82759519,2020,BE_25105,official,TRUE
BE_25107,4.530760875796125,50.56289107453392,BE,BE31,BE310,25107,Villers-la-Ville,10779,47.93637213,2020,BE_25107,official,TRUE
BE_25110,4.393389120996518,50.711194081424,BE,BE31,BE310,25110,Waterloo,30442,21.39885187,2020,BE_25110,official,TRUE
BE_25112,4.605338497965209,50.71355809761665,BE,BE31,BE310,25112,Wavre / Waver,34842,42.15350355,2020,BE_25112,official,TRUE
BE_25117,4.636930896529329,50.60256388598864,BE,BE31,BE310,25117,Chastre,7685,31.50518849,2020,BE_25117,official,TRUE
BE_25118,4.989494720188099,50.75297714907223,BE,BE31,BE310,25118,Hélécine,3650,16.96371252,2020,BE_25118,official,TRUE
BE_25119,4.469023225806372,50.69164885576954,BE,BE31,BE310,25119,Lasne,14277,47.62129603,2020,BE_25119,official,TRUE
BE_25120,4.966044993758914,50.68929423681327,BE,BE31,BE310,25120,Orp-Jauche,8990,50.82671981,2020,BE_25120,official,TRUE
BE_25121,4.591683356363074,50.668499527787404,BE,BE31,BE310,25121,Ottignies-Louvain-la-Neuve,31383,33.38506929,2020,BE_25121,official,TRUE
BE_25122,4.88397963241262,50.656986599736356,BE,BE31,BE310,25122,Ramillies,6554,49.23935017,2020,BE_25122,official,TRUE
BE_25123,4.141994593514491,50.669524474245634,BE,BE31,BE310,25123,Rebecq,10943,39.24020907,2020,BE_25123,official,TRUE
BE_25124,4.690321478150796,50.6294110925903,BE,BE31,BE310,25124,Walhain,7377,38.07990785,2020,BE_25124,official,TRUE
BE_31003,3.335607733989009,51.14574297349562,BE,BE25,BE251,31003,Beernem,15830,72.560367,2020,BE_31003,official,TRUE
BE_31004,3.1340800905129713,51.31026175538966,BE,BE25,BE251,31004,Blankenberge,20496,17.75983205,2020,BE_31004,official,TRUE
BE_31005,3.2254401207574355,51.21052945565917,BE,BE25,BE251,31005,Brugge / Bruges,118961,139.24933051,2020,BE_31005,official,TRUE
BE_31006,3.325776994337122,51.21913894787617,BE,BE25,BE251,31006,Damme,11015,90.46633434,2020,BE_31006,official,TRUE
BE_31012,3.113473641809535,51.18366633870964,BE,BE25,BE251,31012,Jabbeke,13874,53.52919567,2020,BE_31012,official,TRUE
BE_31022,3.2327875237335153,51.14232834130021,BE,BE25,BE251,31022,Oostkamp,23830,80.07967293,2020,BE_31022,official,TRUE
BE_31033,3.1005771029182387,51.06674057709412,BE,BE25,BE251,31033,Torhout,20496,45.38501728,2020,BE_31033,official,TRUE
BE_31040,3.1504124739359365,51.12988833836021,BE,BE25,BE251,31040,Zedelgem,22865,60.63787814,2020,BE_31040,official,TRUE
BE_31042,3.150439864136589,51.25872544563639,BE,BE25,BE251,31042,Zuienkerke,2720,48.94993196,2020,BE_31042,official,TRUE
BE_31043,3.27468145875674,51.34037042663486,BE,BE25,BE251,31043,Knokke-Heist,33118,56.87220431,2020,BE_31043,official,TRUE
BE_32003,2.869572830091592,51.03479478076775,BE,BE25,BE252,32003,Diksmuide / Dixmude,16852,150.66577238,2020,BE_32003,official,TRUE
BE_32006,2.9302785339992403,50.978946523098834,BE,BE25,BE252,32006,Houthulst,10117,56.01584333,2020,BE_32006,official,TRUE
BE_32010,2.970163212175011,51.08959548078829,BE,BE25,BE252,32010,Koekelare,8774,39.43102907,2020,BE_32010,official,TRUE
BE_32011,3.0233617975721816,51.028161515218244,BE,BE25,BE252,32011,Kortemark,12699,55.37877805,2020,BE_32011,official,TRUE
BE_32030,2.7601730902328843,50.96699057798124,BE,BE25,BE252,32030,Lo-Reninge,3292,63.55567442,2020,BE_32030,official,TRUE
BE_33011,2.8780516455875214,50.85172604566898,BE,BE25,BE253,33011,Ieper / Ypres,35050,131.40203248,2020,BE_33011,official,TRUE
BE_33016,2.894568777397693,50.76123540091359,BE,BE25,BE253,33016,Mesen / Messines,1047,3.60060953,2020,BE_33016,official,TRUE
BE_33021,2.722007321387188,50.85552687897788,BE,BE25,BE253,33021,Poperinge,19735,120.50313796,2020,BE_33021,official,TRUE
BE_33029,3.050373165950271,50.789061854929585,BE,BE25,BE253,33029,Wervik,18939,43.81920351,2020,BE_33029,official,TRUE
BE_33037,3.0025334479155785,50.866443803942204,BE,BE25,BE253,33037,Zonnebeke,12499,68.08511066,2020,BE_33037,official,TRUE
BE_33039,2.8260494021010847,50.775355886781924,BE,BE25,BE253,33039,Heuvelland,7935,94.8402977,2020,BE_33039,official,TRUE
BE_33040,2.934680485037446,50.917016129807614,BE,BE25,BE253,33040,Langemark-Poelkapelle,8117,53.10651984,2020,BE_33040,official,TRUE
BE_33041,2.7554115753800503,50.918669306688976,BE,BE25,BE253,33041,Vleteren,3655,38.47310088,2020,BE_33041,official,TRUE
BE_34002,3.4328082797304784,50.83368008343288,BE,BE25,BE254,34002,Anzegem,14794,42.35062489,2020,BE_34002,official,TRUE
BE_34003,3.44587521519977,50.77611438191307,BE,BE25,BE254,34003,Avelgem,10223,22.11950404,2020,BE_34003,official,TRUE
BE_34009,3.3590592442267733,50.84897575413557,BE,BE25,BE254,34009,Deerlijk,12086,16.98389892,2020,BE_34009,official,TRUE
BE_34013,3.309668297396601,50.85281316147864,BE,BE25,BE254,34013,Harelbeke,28515,29.36363222,2020,BE_34013,official,TRUE
BE_34022,3.2651105073627256,50.82478946662635,BE,BE25,BE254,34022,Kortrijk / Courtrai,77174,80.72742463,2020,BE_34022,official,TRUE
BE_34023,3.2830111881025417,50.85485597182503,BE,BE25,BE254,34023,Kuurne,13697,10.11644405,2020,BE_34023,official,TRUE
BE_34025,3.238256782694289,50.886688162874634,BE,BE25,BE254,34025,Lendelede,5797,13.30253257,2020,BE_34025,official,TRUE
BE_34027,3.1360467202423234,50.79740424369608,BE,BE25,BE254,34027,Menen / Menin,33660,33.09118707,2020,BE_34027,official,TRUE
BE_34040,3.411194728697983,50.885791863377314,BE,BE25,BE254,34040,Waregem,38380,44.60015894,2020,BE_34040,official,TRUE
BE_34041,3.1829720695524735,50.8237685915518,BE,BE25,BE254,34041,Wevelgem,31610,39.14043161,2020,BE_34041,official,TRUE
BE_34042,3.3513160726157873,50.803168176196436,BE,BE25,BE254,34042,Zwevegem,24819,63.64443041,2020,BE_34042,official,TRUE
BE_34043,3.3689281843266454,50.72935986767491,BE,BE25,BE254,34043,Spiere-Helkijn / Espierres-Helchin,2076,10.82255244,2020,BE_34043,official,TRUE
BE_35002,2.964501535766507,51.236129331894794,BE,BE25,BE255,35002,Bredene,18190,13.17275109,2020,BE_35002,official,TRUE
BE_35005,2.9636847739980205,51.154381084684225,BE,BE25,BE255,35005,Gistel,12180,42.84003882,2020,BE_35005,official,TRUE
BE_35006,3.023850174742182,51.11799341587208,BE,BE25,BE255,35006,Ichtegem,14044,45.75993675,2020,BE_35006,official,TRUE
BE_35011,2.801942796182804,51.17079897065572,BE,BE25,BE255,35011,Middelkerke,19591,75.69956109,2020,BE_35011,official,TRUE
BE_35013,2.9103954548166344,51.21867513613031,BE,BE25,BE255,35013,Oostende / Ostende,71817,37.95426018,2020,BE_35013,official,TRUE
BE_35014,3.0077727914689616,51.180939797125745,BE,BE25,BE255,35014,Oudenburg,9513,35.67929329,2020,BE_35014,official,TRUE
BE_35029,3.049789720098875,51.278179543824315,BE,BE25,BE255,35029,De Haan,12709,42.35980098,2020,BE_35029,official,TRUE
BE_36006,3.089172924000093,50.986282943554656,BE,BE25,BE256,36006,Hooglede,9987,38.102564,2020,BE_36006,official,TRUE
BE_36007,3.255317687892671,50.91966773274538,BE,BE25,BE256,36007,Ingelmunster,11170,16.466381,2020,BE_36007,official,TRUE
BE_36008,3.2105310593040004,50.91791316584617,BE,BE25,BE256,36008,Izegem,28358,25.63307004,2020,BE_36008,official,TRUE
BE_36010,3.1530143597399074,50.866078002817666,BE,BE25,BE256,36010,Ledegem,9688,24.84504997,2020,BE_36010,official,TRUE
BE_36011,3.137128487328346,51.02768681191581,BE,BE25,BE256,36011,Lichtervelde,8952,26.34875136,2020,BE_36011,official,TRUE
BE_36012,3.0753753474947456,50.87704609233563,BE,BE25,BE256,36012,Moorslede,11444,35.45764706,2020,BE_36012,official,TRUE
BE_36015,3.126966270097961,50.944910620714616,BE,BE25,BE256,36015,Roeselare / Roulers,63578,60.33578591,2020,BE_36015,official,TRUE
BE_36019,3.0269677934446713,50.95843247521388,BE,BE25,BE256,36019,Staden,11518,46.90077691,2020,BE_36019,official,TRUE
BE_37002,3.4086174357484644,50.94161738720719,BE,BE25,BE257,37002,Dentergem,8608,26.1404733,2020,BE_37002,official,TRUE
BE_37007,3.29045472590782,50.94818494299425,BE,BE25,BE257,37007,Meulebeke,10847,29.46595431,2020,BE_37007,official,TRUE
BE_37010,3.3374590174009455,50.92356369560873,BE,BE25,BE257,37010,Oostrozebeke,7958,16.73230051,2020,BE_37010,official,TRUE
BE_37011,3.2635068527691278,50.996752768182716,BE,BE25,BE257,37011,Pittem,6721,34.68483201,2020,BE_37011,official,TRUE
BE_37012,3.3949306468780462,51.044764112451574,BE,BE25,BE257,37012,Ruiselede,5374,30.58768079,2020,BE_37012,official,TRUE
BE_37015,3.331396833853389,50.99729585140894,BE,BE25,BE257,37015,Tielt (Tielt),20619,68.83371198,2020,BE_37015,official,TRUE
BE_37017,3.3562684118806603,50.903861012810644,BE,BE25,BE257,37017,Wielsbeke,9833,21.90631762,2020,BE_37017,official,TRUE
BE_37018,3.256174304646935,51.05263528545282,BE,BE25,BE257,37018,Wingene,14579,68.33189002,2020,BE_37018,official,TRUE
BE_37020,3.200017074951907,50.98324694125039,BE,BE25,BE257,37020,Ardooie,9091,34.97149323,2020,BE_37020,official,TRUE
BE_38002,2.6962079039920033,50.99848016225062,BE,BE25,BE258,38002,Alveringem,5022,80.86779815,2020,BE_38002,official,TRUE
BE_38008,2.5953025021249507,51.09261016814103,BE,BE25,BE258,38008,De Panne / La Panne,11171,24.29994159,2020,BE_38008,official,TRUE
BE_38014,2.651073194914679,51.11587816416453,BE,BE25,BE258,38014,Koksijde,21881,45.04935174,2020,BE_38014,official,TRUE
BE_38016,2.743050898916052,51.13516669990453,BE,BE25,BE258,38016,Nieuwpoort / Nieuport,11639,31.93052325,2020,BE_38016,official,TRUE
BE_38025,2.665096045461917,51.07157931205506,BE,BE25,BE258,38025,Veurne / Furnes,12110,97.20382667,2020,BE_38025,official,TRUE
BE_41002,4.042905529867803,50.94069929735093,BE,BE23,BE231,41002,Aalst (Aalst) / Alost (Alost),87456,78.66213471,2020,BE_41002,official,TRUE
BE_41011,4.066027404013085,50.88729297966395,BE,BE23,BE231,41011,Denderleeuw,20576,13.86701426,2020,BE_41011,official,TRUE
BE_41018,3.8836068635572483,50.773498539324244,BE,BE23,BE231,41018,Geraardsbergen / Grammont,33689,80.10284348,2020,BE_41018,official,TRUE
BE_41024,3.9984521034351177,50.88875046031293,BE,BE23,BE231,41024,Haaltert,18596,30.53387329,2020,BE_41024,official,TRUE
BE_41027,3.884373069900193,50.88941641662877,BE,BE23,BE231,41027,Herzele,18196,47.89921213,2020,BE_41027,official,TRUE
BE_41034,3.972864549674316,50.96726871300747,BE,BE23,BE231,41034,Lede,18897,29.85406518,2020,BE_41034,official,TRUE
BE_41048,4.019421471039557,50.83307276617689,BE,BE23,BE231,41048,Ninove,39295,72.78271389,2020,BE_41048,official,TRUE
BE_41063,3.868844954980823,50.92604432797456,BE,BE23,BE231,41063,Sint-Lievens-Houtem,10407,27.04988027,2020,BE_41063,official,TRUE
BE_41081,3.811204830414727,50.86788343320346,BE,BE23,BE231,41081,Zottegem,26719,57.48156086,2020,BE_41081,official,TRUE
BE_41082,3.9589811987484307,50.923546147630816,BE,BE23,BE231,41082,Erpe-Mere,20163,34.31205975,2020,BE_41082,official,TRUE
BE_42003,3.984841391810903,51.02769564047776,BE,BE23,BE232,42003,Berlare,15109,37.89229229,2020,BE_42003,official,TRUE
BE_42004,4.197490176254396,51.01168455508825,BE,BE23,BE232,42004,Buggenhout,14680,25.69249756,2020,BE_42004,official,TRUE
BE_42006,4.103782094037645,51.027084333297424,BE,BE23,BE232,42006,Dendermonde / Termonde,45895,57.03460518,2020,BE_42006,official,TRUE
BE_42008,4.141937030714061,51.087944142109315,BE,BE23,BE232,42008,Hamme (Dendermonde) / Hamme (Termonde),24961,40.71149028,2020,BE_42008,official,TRUE
BE_42010,3.8849165638285363,51.03541268771447,BE,BE23,BE232,42010,Laarne,12368,32.58561873,2020,BE_42010,official,TRUE
BE_42011,4.131226712452553,50.996611196343146,BE,BE23,BE232,42011,Lebbeke,19565,27.35709294,2020,BE_42011,official,TRUE
BE_42023,4.089282814233588,51.11698772200302,BE,BE23,BE232,42023,Waasmunster,10938,32.20297951,2020,BE_42023,official,TRUE
BE_42025,3.8827967209419483,51.00353460080829,BE,BE23,BE232,42025,Wetteren,26069,37.04367132,2020,BE_42025,official,TRUE
BE_42026,3.9467175226411997,51.00268911263844,BE,BE23,BE232,42026,Wichelen,11667,23.24611887,2020,BE_42026,official,TRUE
BE_42028,4.034482341689953,51.065361438227264,BE,BE23,BE232,42028,Zele,21358,33.05465896,2020,BE_42028,official,TRUE
BE_43002,3.736002948762459,51.225782076900735,BE,BE23,BE233,43002,Assenede,14321,87.5219772,2020,BE_43002,official,TRUE
BE_43005,3.5671319521002003,51.185577396630485,BE,BE23,BE233,43005,Eeklo,21414,30.4468763,2020,BE_43005,official,TRUE
BE_43007,3.622538146755678,51.20400945062319,BE,BE23,BE233,43007,Kaprijke,6440,33.67567332,2020,BE_43007,official,TRUE
BE_43010,3.451901979313147,51.20687109012239,BE,BE23,BE233,43010,Maldegem,24011,95.53883046,2020,BE_43010,official,TRUE
BE_43014,3.5557024897147347,51.24963361767053,BE,BE23,BE233,43014,Sint-Laureins,6823,74.69998454,2020,BE_43014,official,TRUE
BE_43018,3.8052985959651306,51.19900099801507,BE,BE23,BE233,43018,Zelzate,12902,13.84347499,2020,BE_43018,official,TRUE
BE_44012,3.6510684174869588,50.99182068282176,BE,BE23,BE234,44012,De Pinte,10885,17.82578492,2020,BE_44012,official,TRUE
BE_44013,3.7910104873132364,51.046219492518304,BE,BE23,BE234,44013,Destelbergen,18551,26.6679246,2020,BE_44013,official,TRUE
BE_44019,3.7121368016658103,51.135822212093906,BE,BE23,BE234,44019,Evergem,35659,75.30236809,2020,BE_44019,official,TRUE
BE_44020,3.659979201271028,50.92882051662176,BE,BE23,BE234,44020,Gavere,12913,31.5512392,2020,BE_44020,official,TRUE
BE_44021,3.7237424682832696,51.05417657806614,BE,BE23,BE234,44021,Gent / Gand,264143,157.98492576,2020,BE_44021,official,TRUE
BE_44034,3.8431606866968706,51.099571358696906,BE,BE23,BE234,44034,Lochristi,22629,60.68943873,2020,BE_44034,official,TRUE
BE_44040,3.7865515320147556,51.00747023135287,BE,BE23,BE234,44040,Melle,11826,15.37443262,2020,BE_44040,official,TRUE
BE_44043,3.7484717197190287,50.99644739696822,BE,BE23,BE234,44043,Merelbeke,24778,36.98429586,2020,BE_44043,official,TRUE
BE_44045,3.9413599056686155,51.17473262659311,BE,BE23,BE234,44045,Moerbeke (Gent) / Moerbeke (Gand),6569,37.71797151,2020,BE_44045,official,TRUE
BE_44048,3.6270267109283676,50.95779331330497,BE,BE23,BE234,44048,Nazareth,11709,35.46769035,2020,BE_44048,official,TRUE
BE_44052,3.794417238360702,50.94169346963187,BE,BE23,BE234,44052,Oosterzele,13694,43.55527931,2020,BE_44052,official,TRUE
BE_44064,3.629424239992321,51.009413644695684,BE,BE23,BE234,44064,Sint-Martens-Latem,8371,14.30022572,2020,BE_44064,official,TRUE
BE_44073,3.858913324336836,51.172314597546894,BE,BE23,BE234,44073,Wachtebeke,7816,34.62939211,2020,BE_44073,official,TRUE
BE_44081,3.460541723259411,50.928733334278014,BE,BE23,BE234,44081,Zulte,15802,32.71855357,2020,BE_44081,official,TRUE
BE_44083,NA,NA,BE,BE23,BE234,44083,Deinze,43670,127.94624265,2020,BE_44083,geo,NA
BE_44084,NA,NA,BE,BE23,BE234,44084,Aalter,29211,119.78469274,2020,BE_44084,geo,NA
BE_44085,NA,NA,BE,BE23,BE234,44085,Lievegem,26325,80.71147163,2020,BE_44085,geo,NA
BE_45035,3.6150122589125764,50.85229426923391,BE,BE23,BE235,45035,Oudenaarde / Audenarde,31636,69.13274783,2020,BE_45035,official,TRUE
BE_45041,3.6028541644485803,50.746414862284325,BE,BE23,BE235,45041,Ronse / Renaix,26384,34.6977561,2020,BE_45041,official,TRUE
BE_45059,3.765009414336794,50.80279960593693,BE,BE23,BE235,45059,Brakel,14808,56.92035345,2020,BE_45059,official,TRUE
BE_45060,3.5033417454771505,50.77990426460238,BE,BE23,BE235,45060,Kluisbergen,6583,30.61524679,2020,BE_45060,official,TRUE
BE_45061,3.5381795382365566,50.84172917894938,BE,BE23,BE235,45061,Wortegem-Petegem,6398,42.44239372,2020,BE_45061,official,TRUE
BE_45062,3.693629788406062,50.840340499756245,BE,BE23,BE235,45062,Horebeke,2023,11.46188183,2020,BE_45062,official,TRUE
BE_45063,3.8302612954927064,50.806845488037,BE,BE23,BE235,45063,Lierde,6588,26.37670275,2020,BE_45063,official,TRUE
BE_45064,3.6311073306731996,50.80156193736254,BE,BE23,BE235,45064,Maarkedal,6349,46.18392884,2020,BE_45064,official,TRUE
BE_45065,3.7258556007178965,50.87731053337364,BE,BE23,BE235,45065,Zwalm,8173,33.56380747,2020,BE_45065,official,TRUE
BE_45068,NA,NA,BE,BE23,BE235,45068,Kruisem,15761,71.48329851,2020,BE_45068,geo,NA
BE_46003,4.249511178838692,51.21968964293255,BE,BE23,BE236,46003,Beveren (Sint-Niklaas) / Beveren (Saint-Nicolas),49080,152.7076332,2020,BE_46003,official,TRUE
BE_46013,4.3041485829096855,51.16032940238006,BE,BE23,BE236,46013,Kruibeke,16882,33.52098846,2020,BE_46013,official,TRUE
BE_46014,3.988417502854592,51.105354237711325,BE,BE23,BE236,46014,Lokeren,42078,68.2246903,2020,BE_46014,official,TRUE
BE_46020,4.110909768892608,51.22496159330079,BE,BE23,BE236,46020,Sint-Gillis-Waas,19496,55.33250319,2020,BE_46020,official,TRUE
BE_46021,4.142681870211205,51.16526979241269,BE,BE23,BE236,46021,Sint-Niklaas (Sint-Niklaas) / Saint-Nicolas (Saint-Nicolas),79383,84.27536711,2020,BE_46021,official,TRUE
BE_46024,4.040956918442008,51.208955922565835,BE,BE23,BE236,46024,Stekene,18701,45.50548472,2020,BE_46024,official,TRUE
BE_46025,4.213143179848204,51.12765882044179,BE,BE23,BE236,46025,Temse / Tamise,30229,40.21681041,2020,BE_46025,official,TRUE
BE_51004,3.7812220557297547,50.630441394613314,BE,BE32,BE321,51004,Ath / Aat,29516,127.9027274,2020,BE_51004,official,TRUE
BE_51008,3.6806226433411835,50.5283402379691,BE,BE32,BE321,51008,Beloeil,14065,62.30062913,2020,BE_51008,official,TRUE
BE_51009,3.668142290481268,50.48951878464075,BE,BE32,BE321,51009,Bernissart,11863,43.6918011,2020,BE_51009,official,TRUE
BE_51012,3.8543613796650864,50.60044414487784,BE,BE32,BE321,51012,Brugelette,3747,28.60133674,2020,BE_51012,official,TRUE
BE_51014,3.7832055628225403,50.57363678450281,BE,BE32,BE321,51014,Chièvres,6939,47.41164002,2020,BE_51014,official,TRUE
BE_51017,3.685797583371086,50.73297720630767,BE,BE32,BE321,51017,Ellezelles / Elzele,6000,45.16364292,2020,BE_51017,official,TRUE
BE_51019,3.7369593531334084,50.739876619640704,BE,BE32,BE321,51019,Flobecq / Vloesberg,3442,23.33364814,2020,BE_51019,official,TRUE
BE_51065,3.605887661268832,50.683845499930655,BE,BE32,BE321,51065,Frasnes-lez-Anvaing,11848,112.75100356,2020,BE_51065,official,TRUE
BE_51067,NA,NA,BE,BE32,BE325,51067,Enghien / Edingen,14091,39.29081198,2020,BE_51067,geo,NA
BE_51068,NA,NA,BE,BE32,BE325,51068,Silly / Opzullik,8362,68.61379692,2020,BE_51068,geo,NA
BE_51069,NA,NA,BE,BE32,BE325,51069,Lessines / Lessen,18777,72.65389421,2020,BE_51069,geo,NA
BE_52010,4.2829317685434125,50.46994114086059,BE,BE32,BE322,52010,Chapelle-lez-Herlaimont,14823,18.22392716,2020,BE_52010,official,TRUE
BE_52011,4.441681350033286,50.41836749769744,BE,BE32,BE322,52011,Charleroi,203649,102.85349769,2020,BE_52011,official,TRUE
BE_52012,4.519915909540744,50.40902869489754,BE,BE32,BE322,52012,Châtelet,35733,27.28487905,2020,BE_52012,official,TRUE
BE_52015,4.363032139652452,50.45885542940032,BE,BE32,BE322,52015,Courcelles,31231,44.5285817,2020,BE_52015,official,TRUE
BE_52018,4.541810851313934,50.43054371750123,BE,BE32,BE322,52018,Farciennes,11271,10.37072151,2020,BE_52018,official,TRUE
BE_52021,4.556642524198963,50.47558222704688,BE,BE32,BE322,52021,Fleurus,23150,59.4148305,2020,BE_52021,official,TRUE
BE_52022,4.3225460963016715,50.41396372597045,BE,BE32,BE322,52022,Fontaine-l'Evêque,17851,28.48898449,2020,BE_52022,official,TRUE
BE_52025,4.510018212495964,50.351248026435904,BE,BE32,BE322,52025,Gerpinnes,12822,47.76324286,2020,BE_52025,official,TRUE
BE_52048,4.37298647103944,50.37446707563539,BE,BE32,BE322,52048,Montigny-le-Tilleul,10148,15.28372792,2020,BE_52048,official,TRUE
BE_52055,4.387514115132814,50.50496769890549,BE,BE32,BE322,52055,Pont-à-Celles,17268,55.95051557,2020,BE_52055,official,TRUE
BE_52074,4.566456657648507,50.41151408176892,BE,BE32,BE322,52074,Aiseau-Presles,10746,22.34815789,2020,BE_52074,official,TRUE
BE_52075,4.454633014619571,50.52599331014722,BE,BE32,BE322,52075,Les Bons Villers,9470,43.31066802,2020,BE_52075,official,TRUE
BE_53014,3.809152242034965,50.42788209828355,BE,BE32,BE323,53014,Boussu,19885,20.06781393,2020,BE_53014,official,TRUE
BE_53020,3.7762970700271103,50.39601314230058,BE,BE32,BE323,53020,Dour,16521,33.61561637,2020,BE_53020,official,TRUE
BE_53028,3.8890825073566146,50.405085378562646,BE,BE32,BE323,53028,Frameries,22017,26.12639873,2020,BE_53028,official,TRUE
BE_53039,3.713431910479326,50.43053979201944,BE,BE32,BE323,53039,Hensies,6856,26.46261169,2020,BE_53039,official,TRUE
BE_53044,3.9123889800821603,50.51988134940031,BE,BE32,BE323,53044,Jurbise / Jurbeke,10534,58.0189525,2020,BE_53044,official,TRUE
BE_53046,3.9091584136429183,50.563669464074955,BE,BE32,BE323,53046,Lens,4581,49.92340757,2020,BE_53046,official,TRUE
BE_53053,3.9385651060191247,50.45157095439962,BE,BE32,BE323,53053,Mons / Bergen,96440,147.68360033,2020,BE_53053,official,TRUE
BE_53065,3.8601829910230046,50.43771222252408,BE,BE32,BE323,53065,Quaregnon,18959,11.17365748,2020,BE_53065,official,TRUE
BE_53068,3.683287340744863,50.40443734207407,BE,BE32,BE323,53068,Quiévrain,6770,21.55798004,2020,BE_53068,official,TRUE
BE_53070,3.8125837968141596,50.46790000553593,BE,BE32,BE323,53070,Saint-Ghislain,23442,70.58339708,2020,BE_53070,official,TRUE
BE_53082,3.849431114621429,50.40950957799958,BE,BE32,BE323,53082,Colfontaine,20776,13.75701959,2020,BE_53082,official,TRUE
BE_53083,3.7262449875866475,50.353169585428965,BE,BE32,BE323,53083,Honnelles,5150,44.41216719,2020,BE_53083,official,TRUE
BE_53084,3.9492668808347915,50.3664215605483,BE,BE32,BE323,53084,Quévy,8103,65.3201193,2020,BE_53084,official,TRUE
BE_55004,4.1408896662599615,50.60983460242145,BE,BE32,BE325,55004,'s Gravenbrakel / Braine-le-Comte,22104,84.94924135,2020,BE_55004,official,TRUE
BE_55035,4.102354342327723,50.49540355971842,BE,BE32,BE325,55035,Le Roeulx,8764,43.33035989,2020,BE_55035,official,TRUE
BE_55040,4.063465691049723,50.57161280400271,BE,BE32,BE325,55040,Soignies / Zinnik,28319,111.32231776,2020,BE_55040,official,TRUE
BE_55050,4.165457912271413,50.5631171199923,BE,BE32,BE325,55050,Ecaussinnes,11217,34.97628199,2020,BE_55050,official,TRUE
BE_55085,NA,NA,BE,BE32,BE322,55085,Seneffe,11495,63.75103363,2020,BE_55085,geo,NA
BE_55086,NA,NA,BE,BE32,BE322,55086,Manage,23455,19.62307471,2020,BE_55086,geo,NA
BE_56001,4.272822539431271,50.40449780312742,BE,BE32,BE326,56001,Anderlues,12381,17.2168097,2020,BE_56001,official,TRUE
BE_56005,4.25220607725313,50.23803785478182,BE,BE32,BE326,56005,Beaumont,7171,93.53152251,2020,BE_56005,official,TRUE
BE_56016,4.32315058054175,50.042593536005526,BE,BE32,BE326,56016,Chimay,9755,198.95504581,2020,BE_56016,official,TRUE
BE_56022,4.1249225415885125,50.30842950802416,BE,BE32,BE326,56022,Erquelinnes,10001,44.61093043,2020,BE_56022,official,TRUE
BE_56029,4.342847746995731,50.179684155665576,BE,BE32,BE326,56029,Froidchapelle,4005,86.53930973,2020,BE_56029,official,TRUE
BE_56044,4.264293965430913,50.35565541107651,BE,BE32,BE326,56044,Lobbes,5827,31.89020044,2020,BE_56044,official,TRUE
BE_56049,4.17924715355497,50.32637636446371,BE,BE32,BE326,56049,Merbes-le-Château,4228,30.64488592,2020,BE_56049,official,TRUE
BE_56051,4.1820131590063125,50.02701061747372,BE,BE32,BE326,56051,Momignies,5354,86.12083341,2020,BE_56051,official,TRUE
BE_56078,4.306025963738164,50.33731638522819,BE,BE32,BE326,56078,Thuin,14717,77.12522237,2020,BE_56078,official,TRUE
BE_56086,4.413491274611937,50.330347720038894,BE,BE32,BE326,56086,Ham-sur-Heure-Nalinnes,13650,45.67968417,2020,BE_56086,official,TRUE
BE_56088,4.215450305181531,50.15927209704221,BE,BE32,BE326,56088,Sivry-Rance,4802,73.334506,2020,BE_56088,official,TRUE
BE_57003,3.4515100996113097,50.565209484055096,BE,BE32,BE327,57003,Antoing,7732,31.31742346,2020,BE_57003,official,TRUE
BE_57018,3.441235281648505,50.71014452337218,BE,BE32,BE327,57018,Celles (Doornik) / Celles (Tournai),5694,67.44839805,2020,BE_57018,official,TRUE
BE_57027,3.271035204676637,50.696134883620935,BE,BE32,BE327,57027,Estaimpuis,10578,32.06959652,2020,BE_57027,official,TRUE
BE_57062,3.3430063604225544,50.69299014064096,BE,BE32,BE327,57062,Pecq,5765,33.15708484,2020,BE_57062,official,TRUE
BE_57064,3.585441601631297,50.51137589860801,BE,BE32,BE327,57064,Péruwelz,17161,61.14222365,2020,BE_57064,official,TRUE
BE_57072,3.3241087451435374,50.54639054258122,BE,BE32,BE327,57072,Rumes,5239,23.98684734,2020,BE_57072,official,TRUE
BE_57081,3.3891265685780683,50.60904121795677,BE,BE32,BE327,57081,Tournai / Doornik,70042,215.38690254,2020,BE_57081,official,TRUE
BE_57093,3.404641785011978,50.530223230242854,BE,BE32,BE327,57093,Brunehaut,8107,46.56583529,2020,BE_57093,official,TRUE
BE_57094,3.618255542991536,50.59499955468469,BE,BE32,BE327,57094,Leuze-en-Hainaut,13955,74.44901124,2020,BE_57094,official,TRUE
BE_57095,3.5036749509558787,50.7433165783734,BE,BE32,BE327,57095,Mont-de-l'Enclus,3796,27.1863803,2020,BE_57095,official,TRUE
BE_57096,NA,NA,BE,BE32,BE324,57096,Mouscron / Moeskroen,59718,40.78910005,2020,BE_57096,geo,NA
BE_57097,NA,NA,BE,BE32,BE324,57097,Comines-Warneton / Komen-Waasten,18069,61.59490237,2020,BE_57097,geo,NA
BE_58001,NA,NA,BE,BE32,BE325,58001,La Louvière,81226,64.25536121,2020,BE_58001,geo,NA
BE_58002,NA,NA,BE,BE32,BE326,58002,Binche,33494,61.32450138,2020,BE_58002,geo,NA
BE_58003,NA,NA,BE,BE32,BE326,58003,Estinnes,7778,73.20934395,2020,BE_58003,geo,NA
BE_58004,NA,NA,BE,BE32,BE326,58004,Morlanwelz,19448,20.36454861,2020,BE_58004,geo,NA
BE_61003,5.309668385072695,50.548334929589124,BE,BE33,BE331,61003,Amay,14419,27.70663712,2020,BE_61003,official,TRUE
BE_61010,5.117252397775062,50.58048917345629,BE,BE33,BE331,61010,Burdinne,3307,32.60763521,2020,BE_61010,official,TRUE
BE_61012,5.34502488033425,50.413228979624364,BE,BE33,BE331,61012,Clavier,4649,79.66332858,2020,BE_61012,official,TRUE
BE_61019,5.617717862996818,50.42229492207961,BE,BE33,BE331,61019,Ferrières,5012,57.13763018,2020,BE_61019,official,TRUE
BE_61024,5.545873527500999,50.4346210547062,BE,BE33,BE331,61024,Hamoir,3857,27.64890019,2020,BE_61024,official,TRUE
BE_61028,5.11240329914897,50.52930953627781,BE,BE33,BE331,61028,Héron,5484,38.29231975,2020,BE_61028,official,TRUE
BE_61031,5.239000863971647,50.52240737086841,BE,BE33,BE331,61031,Huy / Hoei,21296,47.54178778,2020,BE_61031,official,TRUE
BE_61039,5.232754444845876,50.48347995976525,BE,BE33,BE331,61039,Marchin,5459,30.15031392,2020,BE_61039,official,TRUE
BE_61041,5.3073162937833445,50.47596990354971,BE,BE33,BE331,61041,Modave,4219,40.30190313,2020,BE_61041,official,TRUE
BE_61043,5.402367774577168,50.512027460768856,BE,BE33,BE331,61043,Nandrin,5768,35.98770699,2020,BE_61043,official,TRUE
BE_61048,5.462387576786029,50.44335171946965,BE,BE33,BE331,61048,Ouffet,2804,40.35746245,2020,BE_61048,official,TRUE
BE_61063,5.30886750648621,50.60617647296913,BE,BE33,BE331,61063,Verlaine,4286,24.41381369,2020,BE_61063,official,TRUE
BE_61068,5.261713194298977,50.575441738459894,BE,BE33,BE331,61068,Villers-Le-Bouillet,6594,32.84608649,2020,BE_61068,official,TRUE
BE_61072,5.2168748235881255,50.541250258557156,BE,BE33,BE331,61072,Wanze,13758,44.24122572,2020,BE_61072,official,TRUE
BE_61079,5.514208357905599,50.486819881873316,BE,BE33,BE331,61079,Anthisnes,4203,37.21424494,2020,BE_61079,official,TRUE
BE_61080,5.394783456899005,50.57754137918882,BE,BE33,BE331,61080,Engis,6219,27.68988874,2020,BE_61080,official,TRUE
BE_61081,5.391374913421193,50.478065230409186,BE,BE33,BE331,61081,Tinlot,2742,37.27316261,2020,BE_61081,official,TRUE
BE_62003,5.520847463425603,50.66507419641419,BE,BE33,BE332,62003,Ans,28609,23.29827771,2020,BE_62003,official,TRUE
BE_62006,5.460679418791814,50.680219458875136,BE,BE33,BE332,62006,Awans,9252,27.17756193,2020,BE_62006,official,TRUE
BE_62009,5.687720950162657,50.46868140538476,BE,BE33,BE332,62009,Aywaille,12621,79.9359457,2020,BE_62009,official,TRUE
BE_62011,5.589345084808093,50.759710311077164,BE,BE33,BE332,62011,Bassenge / Bitsingen,8941,38.17498159,2020,BE_62011,official,TRUE
BE_62015,5.660675172476765,50.62667210591725,BE,BE33,BE332,62015,Beyne-Heusay,11912,7.23241701,2020,BE_62015,official,TRUE
BE_62022,5.625031357651227,50.58931088783328,BE,BE33,BE332,62022,Chaudfontaine,20873,25.55056263,2020,BE_62022,official,TRUE
BE_62026,5.580917918786144,50.48307402231478,BE,BE33,BE332,62026,Comblain-au-Pont,5399,22.80716944,2020,BE_62026,official,TRUE
BE_62027,5.746281845719773,50.72255910608427,BE,BE33,BE332,62027,Dalhem,7526,36.12108917,2020,BE_62027,official,TRUE
BE_62032,5.580208962093511,50.55006770523956,BE,BE33,BE332,62032,Esneux,13040,34.63659136,2020,BE_62032,official,TRUE
BE_62038,5.68211661157382,50.615543177801534,BE,BE33,BE332,62038,Fléron,16393,13.70817731,2020,BE_62038,official,TRUE
BE_62051,5.617777106198009,50.671445688951906,BE,BE33,BE332,62051,Herstal,40346,23.4522341,2020,BE_62051,official,TRUE
BE_62060,5.546776069336661,50.712517971515354,BE,BE33,BE332,62060,Juprelle,9466,35.45664148,2020,BE_62060,official,TRUE
BE_62063,5.582959278377486,50.6378004847801,BE,BE33,BE332,62063,Liège / Luik,198686,68.6131387,2020,BE_62063,official,TRUE
BE_62079,5.645368846742861,50.7132977605635,BE,BE33,BE332,62079,Oupeye,25469,34.90301647,2020,BE_62079,official,TRUE
BE_62093,5.527798781859266,50.63336010331011,BE,BE33,BE332,62093,Saint-Nicolas (Luik) / Saint-Nicolas (Liège),24348,6.89639867,2020,BE_62093,official,TRUE
BE_62096,5.512894357118238,50.59619861046757,BE,BE33,BE332,62096,Seraing,64351,35.31545397,2020,BE_62096,official,TRUE
BE_62099,5.735048303337841,50.62901193346767,BE,BE33,BE332,62099,Soumagne,17058,27.25740656,2020,BE_62099,official,TRUE
BE_62100,5.674091838213555,50.51612061818727,BE,BE33,BE332,62100,Sprimont,15093,74.21826609,2020,BE_62100,official,TRUE
BE_62108,5.6904464828752115,50.72014413840557,BE,BE33,BE332,62108,Visé / Wezet,17935,28.82053771,2020,BE_62108,official,TRUE
BE_62118,5.488649761087694,50.63716231395574,BE,BE33,BE332,62118,Grâce-Hollogne,23536,34.23685746,2020,BE_62118,official,TRUE
BE_62119,5.696721275047273,50.66572819441346,BE,BE33,BE332,62119,Blegny,13397,26.03716847,2020,BE_62119,official,TRUE
BE_62120,5.455762736669707,50.60356612766081,BE,BE33,BE332,62120,Flémalle,26427,36.62297931,2020,BE_62120,official,TRUE
BE_62121,5.482540555384286,50.54328281137736,BE,BE33,BE332,62121,Neupré,9996,31.51541253,2020,BE_62121,official,TRUE
BE_62122,5.697841500968862,50.57640764804642,BE,BE33,BE332,62122,Trooz,8730,24.14746472,2020,BE_62122,official,TRUE
BE_63001,6.169254202975244,50.34871923124076,BE,BE33,BE336,63001,Amel / Amblève,5499,125.81210506,2020,BE_63001,official,TRUE
BE_63003,5.855514370070151,50.70233376304382,BE,BE33,BE335,63003,Aubel,4264,18.81953252,2020,BE_63003,official,TRUE
BE_63004,5.979404015261815,50.62821540041703,BE,BE33,BE335,63004,Baelen,4490,85.89860076,2020,BE_63004,official,TRUE
BE_63012,6.290417644950631,50.39618355039656,BE,BE33,BE336,63012,Büllingen / Bullange,5698,150.56884546,2020,BE_63012,official,TRUE
BE_63013,6.193922721236837,50.43626612983365,BE,BE33,BE336,63013,Bütgenbach / Butgenbach,5636,97.02452283,2020,BE_63013,official,TRUE
BE_63020,5.857436598456976,50.60450696012991,BE,BE33,BE335,63020,Dison,15289,13.9872282,2020,BE_63020,official,TRUE
BE_63023,6.035880847389926,50.63012608213254,BE,BE33,BE336,63023,Eupen,19985,96.58971891,2020,BE_63023,official,TRUE
BE_63035,5.796449035235528,50.6395405789366,BE,BE33,BE335,63035,Herve,17653,56.80672031,2020,BE_63035,official,TRUE
BE_63038,5.937386324493073,50.53353743985401,BE,BE33,BE335,63038,Jalhay,8983,106.74044106,2020,BE_63038,official,TRUE
BE_63040,6.015620194328267,50.718120818494555,BE,BE33,BE336,63040,Kelmis / La Calamine,11222,17.99172724,2020,BE_63040,official,TRUE
BE_63045,5.7991190845655,50.28845358367323,BE,BE33,BE335,63045,Lierneux,3580,91.98184304,2020,BE_63045,official,TRUE
BE_63046,5.941068985752552,50.617817902683036,BE,BE33,BE335,63046,Limbourg / Limburg,5913,24.60986362,2020,BE_63046,official,TRUE
BE_63048,5.993872577795494,50.665313652018746,BE,BE33,BE336,63048,Lontzen,5847,28.7450515,2020,BE_63048,official,TRUE
BE_63049,6.027930070921946,50.42452100780506,BE,BE33,BE335,63049,Malmedy,12809,100.49641954,2020,BE_63049,official,TRUE
BE_63057,5.726028854260739,50.594314595784276,BE,BE33,BE335,63057,Olne,4043,15.93070086,2020,BE_63057,official,TRUE
BE_63058,5.805146424711327,50.57149235389151,BE,BE33,BE335,63058,Pepinster,9698,24.94398837,2020,BE_63058,official,TRUE
BE_63061,6.10415653503005,50.686353836475504,BE,BE33,BE336,63061,Raeren,10815,72.72794003,2020,BE_63061,official,TRUE
BE_63067,6.120793957701483,50.2866271495073,BE,BE33,BE336,63067,Sankt Vith / Saint-Vith,9789,147.14302347,2020,BE_63067,official,TRUE
BE_63072,5.864507591151029,50.49063143732447,BE,BE33,BE335,63072,Spa,10259,39.87191201,2020,BE_63072,official,TRUE
BE_63073,5.93259535901104,50.400947427645114,BE,BE33,BE335,63073,Stavelot,7162,85.11648814,2020,BE_63073,official,TRUE
BE_63075,5.798721674621369,50.40398048261794,BE,BE33,BE335,63075,Stoumont,3182,108.51626211,2020,BE_63075,official,TRUE
BE_63076,5.820567527593161,50.533465048177675,BE,BE33,BE335,63076,Theux,12222,83.5084296,2020,BE_63076,official,TRUE
BE_63079,5.8647214578384785,50.58918719069503,BE,BE33,BE335,63079,Verviers,55434,33.06098784,2020,BE_63079,official,TRUE
BE_63080,6.118352023258693,50.42521560483875,BE,BE33,BE335,63080,Waimes / Weismes,7385,97.8451072,2020,BE_63080,official,TRUE
BE_63084,5.964380648575505,50.65958881455155,BE,BE33,BE335,63084,Welkenraedt,10082,24.62236052,2020,BE_63084,official,TRUE
BE_63086,5.865222630912244,50.36848561458233,BE,BE33,BE335,63086,Trois-Ponts,2560,68.82975181,2020,BE_63086,official,TRUE
BE_63087,6.083310587650748,50.20929409060626,BE,BE33,BE336,63087,Burg-Reuland,3976,109.96379665,2020,BE_63087,official,TRUE
BE_63088,5.979759248718796,50.729396926233264,BE,BE33,BE335,63088,Plombières,10548,53.36276242,2020,BE_63088,official,TRUE
BE_63089,5.8597159269252135,50.66002796330038,BE,BE33,BE335,63089,Thimister-Clermont,5696,28.69294476,2020,BE_63089,official,TRUE
BE_64008,5.209974549483599,50.70432180173252,BE,BE33,BE334,64008,Berloz,3150,14.48095024,2020,BE_64008,official,TRUE
BE_64015,5.13733345410318,50.620842718264036,BE,BE33,BE334,64015,Braives,6399,43.94878421,2020,BE_64015,official,TRUE
BE_64021,5.3967046683085105,50.70767454746991,BE,BE33,BE334,64021,Crisnée,3476,17.0176481,2020,BE_64021,official,TRUE
BE_64023,5.324647689746832,50.64837655207361,BE,BE33,BE334,64023,Donceel,3094,23.42791882,2020,BE_64023,official,TRUE
BE_64025,5.408824109263339,50.65849313182902,BE,BE33,BE334,64025,Fexhe-le-Haut-Clocher,3221,19.51179288,2020,BE_64025,official,TRUE
BE_64029,5.184873461116678,50.667355044726996,BE,BE33,BE334,64029,Geer,3485,23.57763273,2020,BE_64029,official,TRUE
BE_64034,5.0794700760469595,50.66826143036667,BE,BE33,BE334,64034,Hannut / Hannuit,16709,86.58606295,2020,BE_64034,official,TRUE
BE_64047,5.0298701142725735,50.72336715887437,BE,BE33,BE334,64047,Lincent / Lijsem,3286,14.71411004,2020,BE_64047,official,TRUE
BE_64056,5.350282576337221,50.72608110418217,BE,BE33,BE334,64056,Oreye / Oerle,3910,19.64921267,2020,BE_64056,official,TRUE
BE_64063,5.335865470082916,50.68644305468213,BE,BE33,BE334,64063,Remicourt,5980,22.61775378,2020,BE_64063,official,TRUE
BE_64065,5.35934790550225,50.585836407482944,BE,BE33,BE334,64065,Saint-Georges-sur-Meuse,6936,20.99453045,2020,BE_64065,official,TRUE
BE_64074,5.254667074323087,50.69698803606915,BE,BE33,BE334,64074,Waremme / Borgworm,15455,30.90162782,2020,BE_64074,official,TRUE
BE_64075,5.016706066351112,50.61375081084908,BE,BE33,BE334,64075,Wasseiges,2982,24.39928338,2020,BE_64075,official,TRUE
BE_64076,5.246398175066022,50.64270931201046,BE,BE33,BE334,64076,Faimes,3950,28.40668762,2020,BE_64076,official,TRUE
BE_71002,5.58545578052847,51.00700522342068,BE,BE22,BE221,71002,As,8243,22.10098947,2020,BE_71002,official,TRUE
BE_71004,5.222400355167947,51.06118916815757,BE,BE22,BE221,71004,Beringen,46632,78.62818935,2020,BE_71004,official,TRUE
BE_71011,5.430495226097535,50.91718773618762,BE,BE22,BE221,71011,Diepenbeek,19110,41.36888071,2020,BE_71011,official,TRUE
BE_71016,5.49852123570314,50.97658927537191,BE,BE22,BE221,71016,Genk,66513,87.49930992,2020,BE_71016,official,TRUE
BE_71017,5.164298405214281,50.740720289427394,BE,BE22,BE221,71017,Gingelom,8396,56.35109884,2020,BE_71017,official,TRUE
BE_71020,5.104783632159578,50.953578978305394,BE,BE22,BE221,71020,Halen,9503,36.61459524,2020,BE_71020,official,TRUE
BE_71022,5.329920427722099,50.9318017550595,BE,BE22,BE221,71022,Hasselt,78853,102.69520297,2020,BE_71022,official,TRUE
BE_71024,5.173323315091912,50.94066714898797,BE,BE22,BE221,71024,Herk-de-Stad / Herck-la-Ville,12665,43.05570998,2020,BE_71024,official,TRUE
BE_71034,5.251600767662583,51.11775161170619,BE,BE22,BE221,71034,Leopoldsburg / Bourg-Léopold,16345,22.50376706,2020,BE_71034,official,TRUE
BE_71037,5.181537698053879,50.99042372570913,BE,BE22,BE221,71037,Lummen,14991,53.65765942,2020,BE_71037,official,TRUE
BE_71045,5.204161274965606,50.873090437924944,BE,BE22,BE221,71045,Nieuwerkerken (Hasselt),7006,22.52876843,2020,BE_71045,official,TRUE
BE_71053,5.185510891715673,50.815650551851476,BE,BE22,BE221,71053,Sint-Truiden / Saint-Trond,41286,107.14943234,2020,BE_71053,official,TRUE
BE_71057,5.090545591104186,51.06391009901989,BE,BE22,BE221,71057,Tessenderlo,18738,51.68867166,2020,BE_71057,official,TRUE
BE_71066,5.369009999306304,50.989249352259534,BE,BE22,BE221,71066,Zonhoven,21337,39.67995646,2020,BE_71066,official,TRUE
BE_71067,5.572298178279817,50.93715699918888,BE,BE22,BE221,71067,Zutendaal,7293,32.04093765,2020,BE_71067,official,TRUE
BE_71069,5.160874609682535,51.10108058172741,BE,BE22,BE221,71069,Ham,10989,32.7105812,2020,BE_71069,official,TRUE
BE_71070,5.295758942716936,51.029618276531245,BE,BE22,BE221,71070,Heusden-Zolder,34081,53.43368592,2020,BE_71070,official,TRUE
BE_72003,5.552704530899858,51.18137909411842,BE,BE22,BE222,72003,Bocholt,13154,59.3198659,2020,BE_72003,official,TRUE
BE_72004,5.60307983961019,51.13920124613834,BE,BE22,BE222,72004,Bree,16186,64.91011626,2020,BE_72004,official,TRUE
BE_72018,5.758494442572229,51.15102453759016,BE,BE22,BE222,72018,Kinrooi,12218,54.88104081,2020,BE_72018,official,TRUE
BE_72020,5.3173595908699,51.22935323347374,BE,BE22,BE222,72020,Lommel,34818,102.37926481,2020,BE_72020,official,TRUE
BE_72021,5.748205132394896,51.094713311802515,BE,BE22,BE222,72021,Maaseik,25320,77.19324113,2020,BE_72021,official,TRUE
BE_72030,5.452875648846768,51.13482832306553,BE,BE22,BE222,72030,Peer,16300,87.24773189,2020,BE_72030,official,TRUE
BE_72037,5.523248803854349,51.25249259167052,BE,BE22,BE222,72037,Hamont-Achel,14317,43.8208872,2020,BE_72037,official,TRUE
BE_72038,5.372434308471404,51.13280009911002,BE,BE22,BE222,72038,Hechtel-Eksel,12528,76.7275525,2020,BE_72038,official,TRUE
BE_72039,5.407159366877785,51.03424348479502,BE,BE22,BE222,72039,Houthalen-Helchteren,31273,78.28608308,2020,BE_72039,official,TRUE
BE_72041,5.7261486014326755,51.03367040992384,BE,BE22,BE222,72041,Dilsen-Stokkem,20708,65.87526809,2020,BE_72041,official,TRUE
BE_72042,NA,NA,BE,BE22,BE222,72042,Oudsbergen,23638,116.39654604,2020,BE_72042,geo,NA
BE_72043,NA,NA,BE,BE22,BE222,72043,Pelt,33208,83.72408934,2020,BE_72043,geo,NA
BE_73001,5.292470559127194,50.87972893375415,BE,BE22,BE223,73001,Alken,11643,28.22963024,2020,BE_73001,official,TRUE
BE_73006,5.51675968225952,50.876510995384194,BE,BE22,BE223,73006,Bilzen,32513,75.98859513,2020,BE_73006,official,TRUE
BE_73009,5.332301132003944,50.806268234204616,BE,BE22,BE223,73009,Borgloon / Looz,11031,51.314249770000004,2020,BE_73009,official,TRUE
BE_73022,5.289814955406113,50.747481519251174,BE,BE22,BE223,73022,Heers,7347,53.05158979,2020,BE_73022,official,TRUE
BE_73028,5.4292784119139705,50.7274954624087,BE,BE22,BE223,73028,Herstappe,79,1.3372179,2020,BE_73028,official,TRUE
BE_73032,5.483409352314162,50.84730508697326,BE,BE22,BE223,73032,Hoeselt,9743,30.09569975,2020,BE_73032,official,TRUE
BE_73040,5.400309397295405,50.85702279809298,BE,BE22,BE223,73040,Kortessem,8441,33.99297278,2020,BE_73040,official,TRUE
BE_73042,5.651647690818863,50.89081776700846,BE,BE22,BE223,73042,Lanaken,26188,58.92193679,2020,BE_73042,official,TRUE
BE_73066,5.601257058121297,50.81167387235937,BE,BE22,BE223,73066,Riemst,16775,58.10813029,2020,BE_73066,official,TRUE
BE_73083,5.466153418873209,50.77983408235759,BE,BE22,BE223,73083,Tongeren / Tongres,31175,87.91620488,2020,BE_73083,official,TRUE
BE_73098,5.335827287759479,50.84291170960862,BE,BE22,BE223,73098,Wellen,7366,26.78154998,2020,BE_73098,official,TRUE
BE_73107,5.692274136391072,50.97373740114627,BE,BE22,BE223,73107,Maasmechelen,38984,76.92853176,2020,BE_73107,official,TRUE
BE_73109,5.766714619413192,50.75467667260278,BE,BE22,BE223,73109,Voeren / Fourons,4181,50.83012106,2020,BE_73109,official,TRUE
BE_81001,5.811432597087368,49.68409393987869,BE,BE34,BE341,81001,Arlon / Aarlen,30862,118.93190219,2020,BE_81001,official,TRUE
BE_81003,5.762992897638017,49.742629580951366,BE,BE34,BE341,81003,Attert,5650,71.14673345,2020,BE_81003,official,TRUE
BE_81004,5.812333291425514,49.565082549348425,BE,BE34,BE341,81004,Aubange,17165,46.07530031,2020,BE_81004,official,TRUE
BE_81013,5.737064169247899,49.83059013082156,BE,BE34,BE341,81013,Martelange,1885,30.01091093,2020,BE_81013,official,TRUE
BE_81015,5.818010154686,49.60413503913119,BE,BE34,BE341,81015,Messancy,8270,52.60205442,2020,BE_81015,official,TRUE
BE_82003,5.721346163171068,50.004309479694186,BE,BE34,BE342,82003,Bastogne / Bastenaken,16393,173.02811435,2020,BE_82003,official,TRUE
BE_82005,5.670695319098402,50.06176952412521,BE,BE34,BE342,82005,Bertogne,3656,91.79673453,2020,BE_82005,official,TRUE
BE_82009,5.691540477537527,49.87532240634796,BE,BE34,BE342,82009,Fauvillers,2322,74.92582801,2020,BE_82009,official,TRUE
BE_82014,5.7785142322594485,50.134079138282466,BE,BE34,BE342,82014,Houffalize,5225,167.26383499,2020,BE_82014,official,TRUE
BE_82032,5.911491480927079,50.28882006921838,BE,BE34,BE342,82032,Vielsalm,7906,140.85730035,2020,BE_82032,official,TRUE
BE_82036,5.590282481619002,49.92945491946025,BE,BE34,BE342,82036,Vaux-sur-Sûre,5748,135.72426663,2020,BE_82036,official,TRUE
BE_82037,5.932832044260183,50.19536222635588,BE,BE34,BE342,82037,Gouvy,6024,165.39314855,2020,BE_82037,official,TRUE
BE_82038,5.524911662870527,50.04000936547306,BE,BE34,BE342,82038,Sainte-Ode,3002,97.95356754,2020,BE_82038,official,TRUE
BE_83012,5.4957482703941345,50.354364063663425,BE,BE34,BE343,83012,Durbuy,11459,157.0259605,2020,BE_83012,official,TRUE
BE_83013,5.538422332365228,50.28977193856241,BE,BE34,BE343,83013,Erezée,3318,78.87230796,2020,BE_83013,official,TRUE
BE_83028,5.44219918215468,50.27107898384038,BE,BE34,BE343,83028,Hotton,6056,56.70580665,2020,BE_83028,official,TRUE
BE_83031,5.585741617167355,50.178381310366944,BE,BE34,BE343,83031,La Roche-en-Ardenne,4206,148.46273021,2020,BE_83031,official,TRUE
BE_83034,5.330348954641285,50.218062644589644,BE,BE34,BE343,83034,Marche-en-Famenne,17619,122.40276776,2020,BE_83034,official,TRUE
BE_83040,5.334212191520898,50.13910149776284,BE,BE34,BE343,83040,Nassogne,5579,112.95420578,2020,BE_83040,official,TRUE
BE_83044,5.506797339680561,50.23068464753078,BE,BE34,BE343,83044,Rendeux,2928,69.38880695,2020,BE_83044,official,TRUE
BE_83049,5.505361133217646,50.100030414055084,BE,BE34,BE343,83049,Tenneville,2848,91.9500825,2020,BE_83049,official,TRUE
BE_83055,5.670701117856695,50.30881461574733,BE,BE34,BE343,83055,Manhay,3774,120.52144098,2020,BE_83055,official,TRUE
BE_84009,5.256319517102285,49.85501210771497,BE,BE34,BE344,84009,Bertrix,8864,138.48353558,2020,BE_84009,official,TRUE
BE_84010,5.06966217670007,49.79882781830226,BE,BE34,BE344,84010,Bouillon,5429,148.92501469,2020,BE_84010,official,TRUE
BE_84016,5.04383527887652,49.997955868144246,BE,BE34,BE344,84016,Daverdisse,1382,56.89336632,2020,BE_84016,official,TRUE
BE_84029,5.278869279705931,49.794291664983604,BE,BE34,BE344,84029,Herbeumont,1649,58.4394768,2020,BE_84029,official,TRUE
BE_84033,5.536792352892187,49.80108512195448,BE,BE34,BE344,84033,Léglise,5558,173.89160875,2020,BE_84033,official,TRUE
BE_84035,5.251789783973922,49.96583406847211,BE,BE34,BE344,84035,Libin,5260,140.6879465,2020,BE_84035,official,TRUE
BE_84043,5.4353261887337165,49.84529588460202,BE,BE34,BE344,84043,Neufchâteau (Neufchâteau),7792,114.47526563,2020,BE_84043,official,TRUE
BE_84050,5.136201874587828,49.90040094026032,BE,BE34,BE344,84050,Paliseul,5395,111.11387519,2020,BE_84050,official,TRUE
BE_84059,5.366371291797526,50.02373401985087,BE,BE34,BE344,84059,Saint-Hubert,5609,111.99380174,2020,BE_84059,official,TRUE
BE_84068,5.2292676867500845,50.086017117323905,BE,BE34,BE344,84068,Tellin,2459,57.00558166,2020,BE_84068,official,TRUE
BE_84075,5.121498732383784,50.07927566708467,BE,BE34,BE344,84075,Wellin,3109,67.77321012,2020,BE_84075,official,TRUE
BE_84077,5.382171218619311,49.92013808614572,BE,BE34,BE344,84077,Libramont-Chevigny,11337,179.01312958,2020,BE_84077,official,TRUE
BE_85007,5.391930166457814,49.701236590837254,BE,BE34,BE345,85007,Chiny,5242,114.09674391,2020,BE_85007,official,TRUE
BE_85009,5.608190065135941,49.670498691251034,BE,BE34,BE345,85009,Etalle,5963,79.3417043,2020,BE_85009,official,TRUE
BE_85011,5.295904072781279,49.699832996466625,BE,BE34,BE345,85011,Florenville,5596,148.69202741,2020,BE_85011,official,TRUE
BE_85024,5.47121536445333,49.60249896114397,BE,BE34,BE345,85024,Meix-devant-Virton,2813,55.22761593,2020,BE_85024,official,TRUE
BE_85026,5.694392582827324,49.560856065684646,BE,BE34,BE345,85026,Musson,4659,35.39594269,2020,BE_85026,official,TRUE
BE_85034,5.670471964811542,49.6137198483036,BE,BE34,BE345,85034,Saint-Léger (Virton),3681,36.21049994,2020,BE_85034,official,TRUE
BE_85039,5.495195846267652,49.688371528539285,BE,BE34,BE345,85039,Tintigny,4313,81.70373737,2020,BE_85039,official,TRUE
BE_85045,5.540580746873538,49.565726969761826,BE,BE34,BE345,85045,Virton,11355,95.73475598,2020,BE_85045,official,TRUE
BE_85046,5.625827883931231,49.7260708180989,BE,BE34,BE345,85046,Habay,8481,103.29419413,2020,BE_85046,official,TRUE
BE_85047,5.492335947099898,49.53931116524341,BE,BE34,BE345,85047,Rouvroy,2119,28.18656021,2020,BE_85047,official,TRUE
BE_91005,4.836453355589709,50.320245339326625,BE,BE35,BE351,91005,Anhée,7147,66.00066779,2020,BE_91005,official,TRUE
BE_91013,4.950962852166659,50.10767285065928,BE,BE35,BE351,91013,Beauraing,9456,174.42994692,2020,BE_91013,official,TRUE
BE_91015,5.030563914793221,49.93238456888179,BE,BE35,BE351,91015,Bièvre,3364,109.65782536,2020,BE_91015,official,TRUE
BE_91030,5.101393881066102,50.290741125288974,BE,BE35,BE351,91030,Ciney,16717,148.05283036,2020,BE_91030,official,TRUE
BE_91034,4.914740652029297,50.25740648286231,BE,BE35,BE351,91034,Dinant,13394,99.83356611,2020,BE_91034,official,TRUE
BE_91054,4.924278439688929,49.98685289718907,BE,BE35,BE351,91054,Gedinne,4657,151.87574181,2020,BE_91054,official,TRUE
BE_91059,5.111197241139001,50.34245784284342,BE,BE35,BE351,91059,Hamois,7639,76.57840933,2020,BE_91059,official,TRUE
BE_91064,5.258189813574911,50.37497051553976,BE,BE35,BE351,91064,Havelange,5238,104.77857919,2020,BE_91064,official,TRUE
BE_91072,4.989306140407531,50.181605529520056,BE,BE35,BE351,91072,Houyet,4992,123.18488779,2020,BE_91072,official,TRUE
BE_91103,4.821919356695767,50.248851146468276,BE,BE35,BE351,91103,Onhaye,3233,65.62123229,2020,BE_91103,official,TRUE
BE_91114,5.225007757525531,50.1586442247956,BE,BE35,BE351,91114,Rochefort,12598,166.45532988,2020,BE_91114,official,TRUE
BE_91120,5.3324846128804735,50.302328146659676,BE,BE35,BE351,91120,Somme-Leuze,5801,95.21898374,2020,BE_91120,official,TRUE
BE_91141,4.91489341575229,50.330554139501615,BE,BE35,BE351,91141,Yvoir,9728,57.09403452,2020,BE_91141,official,TRUE
BE_91142,4.826177357607329,50.196496953523486,BE,BE35,BE351,91142,Hastière,6022,56.59857829,2020,BE_91142,official,TRUE
BE_91143,4.93216149916442,49.84697319759063,BE,BE35,BE351,91143,Vresse-sur-Semois,2843,101.45526406,2020,BE_91143,official,TRUE
BE_92003,5.087999381203394,50.491187653749854,BE,BE35,BE352,92003,Andenne,27603,86.20259225,2020,BE_92003,official,TRUE
BE_92006,4.986853617220431,50.38265496537308,BE,BE35,BE352,92006,Assesse,7136,78.56017778,2020,BE_92006,official,TRUE
BE_92035,4.900520025750517,50.58025283425631,BE,BE35,BE352,92035,Eghezée,16450,103.13414074,2020,BE_92035,official,TRUE
BE_92045,4.75331361658058,50.436534178953224,BE,BE35,BE352,92045,Floreffe,8146,39.15393141,2020,BE_92045,official,TRUE
BE_92048,4.684114115970979,50.394807058488766,BE,BE35,BE352,92048,Fosses-la-Ville,10473,63.24450588,2020,BE_92048,official,TRUE
BE_92054,5.054778198624135,50.416822191045455,BE,BE35,BE352,92054,Gesves,7233,64.99659294,2020,BE_92054,official,TRUE
BE_92087,4.664565782616784,50.32587505481309,BE,BE35,BE352,92087,Mettet,13159,116.82395405,2020,BE_92087,official,TRUE
BE_92094,4.8608416504800545,50.46345903143409,BE,BE35,BE352,92094,Namur / Namen,112214,176.12701889,2020,BE_92094,official,TRUE
BE_92097,5.141251933606776,50.44075376983924,BE,BE35,BE352,92097,Ohey,5147,56.74665295,2020,BE_92097,official,TRUE
BE_92101,4.840783501292506,50.38127228730018,BE,BE35,BE352,92101,Profondeville,12192,50.38147086,2020,BE_92101,official,TRUE
BE_92114,4.5891317823249596,50.5171899383183,BE,BE35,BE352,92114,Sombreffe,8488,35.92709215,2020,BE_92114,official,TRUE
BE_92137,4.621088329150361,50.44110388987187,BE,BE35,BE352,92137,Sambreville,28402,34.41271407,2020,BE_92137,official,TRUE
BE_92138,4.99184262459079,50.55264482540741,BE,BE35,BE352,92138,Fernelmont,8078,65.81748499,2020,BE_92138,official,TRUE
BE_92140,4.677239843947063,50.46167163280149,BE,BE35,BE352,92140,Jemeppe-sur-Sambre,19119,46.90452432,2020,BE_92140,official,TRUE
BE_92141,4.805920840534782,50.52624160909391,BE,BE35,BE352,92141,La Bruyère,9247,53.19180206,2020,BE_92141,official,TRUE
BE_92142,4.698224317409868,50.560228418312086,BE,BE35,BE352,92142,Gembloux,26184,96.34219036,2020,BE_92142,official,TRUE
BE_93010,4.426426347578749,50.18145535023161,BE,BE35,BE353,93010,Cerfontaine,4996,83.47658348,2020,BE_93010,official,TRUE
BE_93014,4.49935639113759,50.0596145230076,BE,BE35,BE353,93014,Couvin,14118,207.05739246,2020,BE_93014,official,TRUE
BE_93018,4.703173679292256,50.13573908763144,BE,BE35,BE353,93018,Doische,2971,84.12074009,2020,BE_93018,official,TRUE
BE_93022,4.598574788154688,50.25897998351512,BE,BE35,BE353,93022,Florennes,11971,134.30565914,2020,BE_93022,official,TRUE
BE_93056,4.561940675949847,50.18661640773203,BE,BE35,BE353,93056,Philippeville,9254,157.19043983,2020,BE_93056,official,TRUE
BE_93088,4.45738711672825,50.27607126694721,BE,BE35,BE353,93088,Walcourt,18419,123.74956196,2020,BE_93088,official,TRUE
BE_93090,4.605185773853029,50.06885823350633,BE,BE35,BE353,93090,Viroinval,5847,121.15842387,2020,BE_93090,official,TRUE
