gisco_id,longitude,latitude,country,nuts_2,nuts_3,lau_id,lau_name,population,area_km2,year,fid,concordance,pop_weighted
CH_CH0001,8.487911248382684,47.26831008261677,CH,CH04,CH040,CH0001,Aeugst am Albis,1982,7.88800848,2020,CH_CH0001,official,TRUE
CH_CH0002,8.44968216747179,47.27928812669917,CH,CH04,CH040,CH0002,Affoltern am Albis,12229,10.59189007,2020,CH_CH0002,official,TRUE
CH_CH0003,8.471969770037692,47.31946901139976,CH,CH04,CH040,CH0003,Bonstetten,5548,7.44205782,2020,CH_CH0003,official,TRUE
CH_CH0004,8.53115973751981,47.244246945515016,CH,CH04,CH040,CH0004,Hausen am Albis,3701,13.66417447,2020,CH_CH0004,official,TRUE
CH_CH0005,8.447449581096238,47.29867521828188,CH,CH04,CH040,CH0005,Hedingen,3734,6.53856423,2020,CH_CH0005,official,TRUE
CH_CH0006,8.51924522392209,47.225501036449984,CH,CH04,CH040,CH0006,Kappel am Albis,1157,7.84597375,2020,CH_CH0006,official,TRUE
CH_CH0007,8.462828516457337,47.22373159167046,CH,CH04,CH040,CH0007,Knonau,2373,6.55546369,2020,CH_CH0007,official,TRUE
CH_CH0008,8.424544037295977,47.235648382119166,CH,CH04,CH040,CH0008,Maschwanden,656,4.57798314,2020,CH_CH0008,official,TRUE
CH_CH0009,8.46215048840739,47.24536673794253,CH,CH04,CH040,CH0009,Mettmenstetten,5094,12.92005064,2020,CH_CH0009,official,TRUE
CH_CH0010,8.421378353986706,47.26303535509095,CH,CH04,CH040,CH0010,Obfelden,5599,7.53779892,2020,CH_CH0010,official,TRUE
CH_CH0011,8.408363723594867,47.280325993080815,CH,CH04,CH040,CH0011,Ottenbach,2555,4.98643505,2020,CH_CH0011,official,TRUE
CH_CH0012,8.491155227666605,47.24508566557882,CH,CH04,CH040,CH0012,Rifferswil,1123,6.53826064,2020,CH_CH0012,official,TRUE
CH_CH0013,8.483965926713136,47.34061584646256,CH,CH04,CH040,CH0013,Stallikon,3680,12.01397642,2020,CH_CH0013,official,TRUE
CH_CH0014,8.472957603293391,47.334691265249546,CH,CH04,CH040,CH0014,Wettswil am Albis,5188,3.74843901,2020,CH_CH0014,official,TRUE
CH_CH0021,8.697869006449075,47.581971985424794,CH,CH04,CH040,CH0021,Adlikon,707,6.70571307,2020,CH_CH0021,official,TRUE
CH_CH0022,8.650328182365742,47.65282676751921,CH,CH04,CH040,CH0022,Benken (ZH),855,5.59127471,2020,CH_CH0022,official,TRUE
CH_CH0023,8.600293461225414,47.569303978141264,CH,CH04,CH040,CH0023,Berg am Irchel,570,6.98749326,2020,CH_CH0023,official,TRUE
CH_CH0024,8.622834491871995,47.551136817848615,CH,CH04,CH040,CH0024,Buch am Irchel,977,10.15150105,2020,CH_CH0024,official,TRUE
CH_CH0025,8.620119525235454,47.663068728450696,CH,CH04,CH040,CH0025,Dachsen,1920,2.73496694,2020,CH_CH0025,official,TRUE
CH_CH0026,8.651771235043832,47.571809064425615,CH,CH04,CH040,CH0026,Dorf,658,5.55450155,2020,CH_CH0026,official,TRUE
CH_CH0027,8.648942423247826,47.688592735007894,CH,CH04,CH040,CH0027,Feuerthalen,3623,2.58346315,2020,CH_CH0027,official,TRUE
CH_CH0028,8.60699923886589,47.575582617699624,CH,CH04,CH040,CH0028,Flaach,1414,10.08830912,2020,CH_CH0028,official,TRUE
CH_CH0029,8.626156472515607,47.68445346427359,CH,CH04,CH040,CH0029,Flurlingen,1438,2.41037424,2020,CH_CH0029,official,TRUE
CH_CH0030,8.678183379268708,47.5928532257048,CH,CH04,CH040,CH0030,Andelfingen,2215,6.56952102,2020,CH_CH0030,official,TRUE
CH_CH0031,8.679466268621105,47.56313420036878,CH,CH04,CH040,CH0031,Henggart,2239,3.10585119,2020,CH_CH0031,official,TRUE
CH_CH0032,8.666504874864236,47.57452237297572,CH,CH04,CH040,CH0032,Humlikon,487,3.64811451,2020,CH_CH0032,official,TRUE
CH_CH0033,8.683354799026732,47.60246117649966,CH,CH04,CH040,CH0033,Kleinandelfingen,2109,10.31561819,2020,CH_CH0033,official,TRUE
CH_CH0034,8.632447698211765,47.67210884018341,CH,CH04,CH040,CH0034,Laufen-Uhwiesen,1709,6.21872558,2020,CH_CH0034,official,TRUE
CH_CH0035,8.650298973154705,47.62772332425055,CH,CH04,CH040,CH0035,Marthalen,1908,14.15517674,2020,CH_CH0035,official,TRUE
CH_CH0037,8.72998995569536,47.61010998201069,CH,CH04,CH040,CH0037,Ossingen,1641,13.11474749,2020,CH_CH0037,official,TRUE
CH_CH0038,8.603882013661101,47.64075334377239,CH,CH04,CH040,CH0038,Rheinau,1333,8.9860529,2020,CH_CH0038,official,TRUE
CH_CH0039,8.740185633475043,47.58592856571269,CH,CH04,CH040,CH0039,Thalheim an der Thur,917,6.42551672,2020,CH_CH0039,official,TRUE
CH_CH0040,8.688049199660167,47.63659226909954,CH,CH04,CH040,CH0040,Trüllikon,1066,9.5302486,2020,CH_CH0040,official,TRUE
CH_CH0041,8.730097064617288,47.62682507133453,CH,CH04,CH040,CH0041,Truttikon,477,4.41244762,2020,CH_CH0041,official,TRUE
CH_CH0043,8.62500587974755,47.57161000506133,CH,CH04,CH040,CH0043,Volken,362,3.21141395,2020,CH_CH0043,official,TRUE
CH_CH0051,8.547348753661934,47.50708387457102,CH,CH04,CH040,CH0051,Bachenbülach,4165,4.3335388,2020,CH_CH0051,official,TRUE
CH_CH0052,8.627399590496577,47.44323721626813,CH,CH04,CH040,CH0052,Bassersdorf,11687,9.20859629,2020,CH_CH0052,official,TRUE
CH_CH0053,8.540587154253137,47.518883373657786,CH,CH04,CH040,CH0053,Bülach,20447,16.13212035,2020,CH_CH0053,official,TRUE
CH_CH0054,8.616384838061233,47.4242307471066,CH,CH04,CH040,CH0054,Dietlikon,7776,4.25146662,2020,CH_CH0054,official,TRUE
CH_CH0055,8.520057496290129,47.574194701424496,CH,CH04,CH040,CH0055,Eglisau,5217,9.10352771,2020,CH_CH0055,official,TRUE
CH_CH0056,8.59253547710468,47.51001061208189,CH,CH04,CH040,CH0056,Embrach,9440,12.73778475,2020,CH_CH0056,official,TRUE
CH_CH0057,8.585951561785288,47.53512481327391,CH,CH04,CH040,CH0057,Freienstein-Teufen,2371,8.3638043,2020,CH_CH0057,official,TRUE
CH_CH0058,8.503971745681682,47.5577430632866,CH,CH04,CH040,CH0058,Glattfelden,5200,12.28697981,2020,CH_CH0058,official,TRUE
CH_CH0059,8.51636039451753,47.52125488881845,CH,CH04,CH040,CH0059,Hochfelden,1931,6.08295861,2020,CH_CH0059,official,TRUE
CH_CH0060,8.503428816616786,47.50539616137851,CH,CH04,CH040,CH0060,Höri,2845,4.76075519,2020,CH_CH0060,official,TRUE
CH_CH0061,8.491900321016757,47.596557059715884,CH,CH04,CH040,CH0061,Hüntwangen,1031,4.9442084,2020,CH_CH0061,official,TRUE
CH_CH0062,8.585370640639637,47.45120842990047,CH,CH04,CH040,CH0062,Kloten,19679,19.11596728,2020,CH_CH0062,official,TRUE
CH_CH0063,8.589610325157233,47.48874202606507,CH,CH04,CH040,CH0063,Lufingen,2401,5.17622229,2020,CH_CH0063,official,TRUE
CH_CH0064,8.650544975916661,47.45027698382157,CH,CH04,CH040,CH0064,Nürensdorf,5629,9.97917206,2020,CH_CH0064,official,TRUE
CH_CH0065,8.615263184219293,47.490492102246144,CH,CH04,CH040,CH0065,Oberembrach,1073,10.32212355,2020,CH_CH0065,official,TRUE
CH_CH0066,8.564963159084597,47.427769301645355,CH,CH04,CH040,CH0066,Opfikon,20361,5.52441946,2020,CH_CH0066,official,TRUE
CH_CH0067,8.541677312707652,47.61194531499696,CH,CH04,CH040,CH0067,Rafz,4576,10.73321467,2020,CH_CH0067,official,TRUE
CH_CH0068,8.573864748779354,47.53363417348443,CH,CH04,CH040,CH0068,Rorbas,2830,4.46452214,2020,CH_CH0068,official,TRUE
CH_CH0069,8.59392462127325,47.41377345258965,CH,CH04,CH040,CH0069,Wallisellen,16324,6.53252939,2020,CH_CH0069,official,TRUE
CH_CH0070,8.470153229383394,47.58755148179746,CH,CH04,CH040,CH0070,Wasterkingen,560,3.94702637,2020,CH_CH0070,official,TRUE
CH_CH0071,8.504793670125729,47.60591769553333,CH,CH04,CH040,CH0071,Wil (ZH),1425,8.87594647,2020,CH_CH0071,official,TRUE
CH_CH0072,8.55653141090866,47.48553336276138,CH,CH04,CH040,CH0072,Winkel,4518,8.10857193,2020,CH_CH0072,official,TRUE
CH_CH0081,8.44041455884532,47.524138132371064,CH,CH04,CH040,CH0081,Bachs,580,9.12372411,2020,CH_CH0081,official,TRUE
CH_CH0082,8.402856336334139,47.46941564267589,CH,CH04,CH040,CH0082,Boppelsen,1377,3.9739211,2020,CH_CH0082,official,TRUE
CH_CH0083,8.440898264962424,47.45805989258124,CH,CH04,CH040,CH0083,Buchs (ZH),6397,5.84056591,2020,CH_CH0083,official,TRUE
CH_CH0084,8.442209842912524,47.43864661614812,CH,CH04,CH040,CH0084,Dällikon,4149,4.47386563,2020,CH_CH0084,official,TRUE
CH_CH0085,8.403186380694969,47.44286015571194,CH,CH04,CH040,CH0085,Dänikon,1874,2.89146176,2020,CH_CH0085,official,TRUE
CH_CH0086,8.455204677427947,47.47944833816272,CH,CH04,CH040,CH0086,Dielsdorf,6001,5.91039933,2020,CH_CH0086,official,TRUE
CH_CH0087,8.390241514941062,47.441715527553704,CH,CH04,CH040,CH0087,Hüttikon,926,1.5737572,2020,CH_CH0087,official,TRUE
CH_CH0088,8.472842305521995,47.51218629165759,CH,CH04,CH040,CH0088,Neerach,3178,6.05920351,2020,CH_CH0088,official,TRUE
CH_CH0089,8.498240878577045,47.49231049691925,CH,CH04,CH040,CH0089,Niederglatt,4954,3.62447749,2020,CH_CH0089,official,TRUE
CH_CH0090,8.490690382286795,47.478257979355455,CH,CH04,CH040,CH0090,Niederhasli,9264,11.29443853,2020,CH_CH0090,official,TRUE
CH_CH0091,8.374952622235465,47.50555190521569,CH,CH04,CH040,CH0091,Niederweningen,3053,6.86242841,2020,CH_CH0091,official,TRUE
CH_CH0092,8.514372073141814,47.47705735595785,CH,CH04,CH040,CH0092,Oberglatt,7108,8.29942883,2020,CH_CH0092,official,TRUE
CH_CH0093,8.404653846315368,47.50028585349788,CH,CH04,CH040,CH0093,Oberweningen,1803,4.90400839,2020,CH_CH0093,official,TRUE
CH_CH0094,8.389927072112828,47.46008005557758,CH,CH04,CH040,CH0094,Otelfingen,2939,7.20645546,2020,CH_CH0094,official,TRUE
CH_CH0095,8.43893812949166,47.48083068728518,CH,CH04,CH040,CH0095,Regensberg,485,2.33301104,2020,CH_CH0095,official,TRUE
CH_CH0096,8.470100275716726,47.43871038471596,CH,CH04,CH040,CH0096,Regensdorf,18457,14.58287806,2020,CH_CH0096,official,TRUE
CH_CH0097,8.533450796973582,47.44948589503391,CH,CH04,CH040,CH0097,Rümlang,8172,12.35256537,2020,CH_CH0097,official,TRUE
CH_CH0098,8.39805195237158,47.50042185308079,CH,CH04,CH040,CH0098,Schleinikon,728,5.61995633,2020,CH_CH0098,official,TRUE
CH_CH0099,8.414946162412349,47.498196924232424,CH,CH04,CH040,CH0099,Schöfflisdorf,1376,4.02890411,2020,CH_CH0099,official,TRUE
CH_CH0100,8.467877820719139,47.53179763897726,CH,CH04,CH040,CH0100,Stadel,2289,12.83809848,2020,CH_CH0100,official,TRUE
CH_CH0101,8.452045499642244,47.49210042363981,CH,CH04,CH040,CH0101,Steinmaur,3535,9.39687021,2020,CH_CH0101,official,TRUE
CH_CH0102,8.434911646514857,47.56047290964802,CH,CH04,CH040,CH0102,Weiach,1810,9.54846706,2020,CH_CH0102,official,TRUE
CH_CH0111,8.851381310036235,47.33828182913117,CH,CH04,CH040,CH0111,Bäretswil,5029,22.27458266,2020,CH_CH0111,official,TRUE
CH_CH0112,8.811252705943271,47.2642919299969,CH,CH04,CH040,CH0112,Bubikon,7334,11.50506887,2020,CH_CH0112,official,TRUE
CH_CH0113,8.849074552834193,47.272206680356575,CH,CH04,CH040,CH0113,Dürnten,7637,10.22965984,2020,CH_CH0113,official,TRUE
CH_CH0114,8.920979811410534,47.32996979344789,CH,CH04,CH040,CH0114,Fischenthal,2501,30.26923609,2020,CH_CH0114,official,TRUE
CH_CH0115,8.765557128974887,47.30505700581384,CH,CH04,CH040,CH0115,Gossau (ZH),10222,18.26182489,2020,CH_CH0115,official,TRUE
CH_CH0116,8.756652805023464,47.27866024812983,CH,CH04,CH040,CH0116,Grüningen,3475,8.78017986,2020,CH_CH0116,official,TRUE
CH_CH0117,8.844751513110769,47.29921276097138,CH,CH04,CH040,CH0117,Hinwil,11138,22.37406064,2020,CH_CH0117,official,TRUE
CH_CH0118,8.856762656716352,47.25681202540709,CH,CH04,CH040,CH0118,Rüti (ZH),12174,10.0510915,2020,CH_CH0118,official,TRUE
CH_CH0119,8.766628945553322,47.33689908285539,CH,CH04,CH040,CH0119,Seegräben,1443,3.77542637,2020,CH_CH0119,official,TRUE
CH_CH0120,8.914140837938199,47.275382192940604,CH,CH04,CH040,CH0120,Wald (ZH),9949,25.28154247,2020,CH_CH0120,official,TRUE
CH_CH0121,8.800957959591091,47.327940507926016,CH,CH04,CH040,CH0121,Wetzikon (ZH),24809,16.78310298,2020,CH_CH0121,official,TRUE
CH_CH0131,8.525230508165226,47.31208484563069,CH,CH04,CH040,CH0131,Adliswil,18769,7.79359202,2020,CH_CH0131,official,TRUE
CH_CH0135,8.542341087864049,47.32279740930658,CH,CH04,CH040,CH0135,Kilchberg (ZH),8858,2.83609992,2020,CH_CH0135,official,TRUE
CH_CH0136,8.538622384396808,47.287775693764445,CH,CH04,CH040,CH0136,Langnau am Albis,7547,8.96906991,2020,CH_CH0136,official,TRUE
CH_CH0137,8.579920568996098,47.27378264525293,CH,CH04,CH040,CH0137,Oberrieden,5083,2.92783791,2020,CH_CH0137,official,TRUE
CH_CH0138,8.695222977904182,47.20370893780544,CH,CH04,CH040,CH0138,Richterswil,13513,7.68680646,2020,CH_CH0138,official,TRUE
CH_CH0139,8.552409690386835,47.306915853915456,CH,CH04,CH040,CH0139,Rüschlikon,6035,3.00861867,2020,CH_CH0139,official,TRUE
CH_CH0141,8.564196819019651,47.290746924937295,CH,CH04,CH040,CH0141,Thalwil,17990,5.77517832,2020,CH_CH0141,official,TRUE
CH_CH0151,8.597750521517078,47.30363285306353,CH,CH04,CH040,CH0151,Erlenbach (ZH),5618,3.01318347,2020,CH_CH0151,official,TRUE
CH_CH0152,8.612676586773743,47.289416046001605,CH,CH04,CH040,CH0152,Herrliberg,6391,9.10013868,2020,CH_CH0152,official,TRUE
CH_CH0153,8.774328064612988,47.250246406828026,CH,CH04,CH040,CH0153,Hombrechtikon,8757,12.23770597,2020,CH_CH0153,official,TRUE
CH_CH0154,8.590932654078147,47.31896098626281,CH,CH04,CH040,CH0154,Küsnacht (ZH),14397,12.50093495,2020,CH_CH0154,official,TRUE
CH_CH0155,8.694666509191554,47.25735317516661,CH,CH04,CH040,CH0155,Männedorf,11243,4.89523437,2020,CH_CH0155,official,TRUE
CH_CH0156,8.64354871461628,47.273883812576116,CH,CH04,CH040,CH0156,Meilen,14220,12.23042183,2020,CH_CH0156,official,TRUE
CH_CH0157,8.723970127705527,47.272392216004796,CH,CH04,CH040,CH0157,Oetwil am See,4817,6.09734352,2020,CH_CH0157,official,TRUE
CH_CH0158,8.732722142509797,47.241528817581575,CH,CH04,CH040,CH0158,Stäfa,14497,8.85815157,2020,CH_CH0158,official,TRUE
CH_CH0159,8.68127386577436,47.26625501815598,CH,CH04,CH040,CH0159,Uetikon am See,6176,3.4717612,2020,CH_CH0159,official,TRUE
CH_CH0160,8.622489990876915,47.33305221417289,CH,CH04,CH040,CH0160,Zumikon,5284,5.459059,2020,CH_CH0160,official,TRUE
CH_CH0161,8.58700138235439,47.34437590117333,CH,CH04,CH040,CH0161,Zollikon,13012,8.03363391,2020,CH_CH0161,official,TRUE
CH_CH0172,8.753312121808472,47.387439680679485,CH,CH04,CH040,CH0172,Fehraltorf,6435,9.44963572,2020,CH_CH0172,official,TRUE
CH_CH0173,8.827317461901586,47.3656142795856,CH,CH04,CH040,CH0173,Hittnau,3688,12.96745573,2020,CH_CH0173,official,TRUE
CH_CH0176,8.681604926029621,47.43544351323649,CH,CH04,CH040,CH0176,Lindau,5617,12.05032907,2020,CH_CH0176,official,TRUE
CH_CH0177,8.78543892044292,47.366547972457205,CH,CH04,CH040,CH0177,Pfäffikon,11935,19.50356555,2020,CH_CH0177,official,TRUE
CH_CH0178,8.77661957379507,47.3960578908777,CH,CH04,CH040,CH0178,Russikon,4370,14.21137583,2020,CH_CH0178,official,TRUE
CH_CH0180,8.767865342907468,47.430603260512505,CH,CH04,CH040,CH0180,Weisslingen,3384,12.90494582,2020,CH_CH0180,official,TRUE
CH_CH0181,8.842357533265352,47.41987457641109,CH,CH04,CH040,CH0181,Wila,1971,9.27245762,2020,CH_CH0181,official,TRUE
CH_CH0182,8.82737042911415,47.431690615104515,CH,CH04,CH040,CH0182,Wildberg,1006,10.467945629999999,2020,CH_CH0182,official,TRUE
CH_CH0191,8.617173043388625,47.396540526402596,CH,CH04,CH040,CH0191,Dübendorf,28678,13.60738457,2020,CH_CH0191,official,TRUE
CH_CH0192,8.689997194325882,47.299284576112065,CH,CH04,CH040,CH0192,Egg,8598,14.61775151,2020,CH_CH0192,official,TRUE
CH_CH0193,8.638531159965847,47.36987433644603,CH,CH04,CH040,CH0193,Fällanden,8672,6.45142991,2020,CH_CH0193,official,TRUE
CH_CH0194,8.683610872921008,47.36551916445639,CH,CH04,CH040,CH0194,Greifensee,5358,2.28191784,2020,CH_CH0194,official,TRUE
CH_CH0195,8.651367570837147,47.34226916663185,CH,CH04,CH040,CH0195,Maur,10215,14.86443817,2020,CH_CH0195,official,TRUE
CH_CH0196,8.72423066324176,47.31147006758693,CH,CH04,CH040,CH0196,Mönchaltorf,3769,7.55802682,2020,CH_CH0196,official,TRUE
CH_CH0197,8.656753171171415,47.38293272028719,CH,CH04,CH040,CH0197,Schwerzenbach,5115,2.62487145,2020,CH_CH0197,official,TRUE
CH_CH0198,8.713627538823355,47.35045115909865,CH,CH04,CH040,CH0198,Uster,34722,28.45544869,2020,CH_CH0198,official,TRUE
CH_CH0199,8.681887833459445,47.3909323257766,CH,CH04,CH040,CH0199,Volketswil,18669,14.01430422,2020,CH_CH0199,official,TRUE
CH_CH0200,8.634495941634613,47.41641843795957,CH,CH04,CH040,CH0200,Wangen-Brüttisellen,7906,7.80572484,2020,CH_CH0200,official,TRUE
CH_CH0211,8.784250359257422,47.573405644943605,CH,CH04,CH040,CH0211,Altikon,706,7.69501103,2020,CH_CH0211,official,TRUE
CH_CH0213,8.677869166152963,47.472669736510134,CH,CH04,CH040,CH0213,Brütten,2010,6.63767924,2020,CH_CH0213,official,TRUE
CH_CH0214,8.729133837194867,47.56096295671113,CH,CH04,CH040,CH0214,Dägerlen,1017,8.0361091,2020,CH_CH0214,official,TRUE
CH_CH0215,8.62521744345703,47.5256508859444,CH,CH04,CH040,CH0215,Dättlikon,789,2.85546179,2020,CH_CH0215,official,TRUE
CH_CH0216,8.769925249976914,47.555411524216524,CH,CH04,CH040,CH0216,Dinhard,1655,7.086621,2020,CH_CH0216,official,TRUE
CH_CH0218,8.825209143092263,47.564405270906896,CH,CH04,CH040,CH0218,Ellikon an der Thur,901,5.08128549,2020,CH_CH0218,official,TRUE
CH_CH0219,8.79914184542104,47.501566568784256,CH,CH04,CH040,CH0219,Elsau,3659,8.06080222,2020,CH_CH0219,official,TRUE
CH_CH0220,8.889332542720028,47.520414579154746,CH,CH04,CH040,CH0220,Hagenbuch,1082,8.136094,2020,CH_CH0220,official,TRUE
CH_CH0221,8.706085665929663,47.54548350417581,CH,CH04,CH040,CH0221,Hettlingen,3148,5.78172914,2020,CH_CH0221,official,TRUE
CH_CH0223,8.666352757721743,47.52712324759131,CH,CH04,CH040,CH0223,Neftenbach,5679,15.07873085,2020,CH_CH0223,official,TRUE
CH_CH0224,8.64020667977234,47.517270345886985,CH,CH04,CH040,CH0224,Pfungen,3845,5.00299638,2020,CH_CH0224,official,TRUE
CH_CH0225,8.78908726606991,47.54408271108056,CH,CH04,CH040,CH0225,Rickenbach (ZH),2704,5.99356939,2020,CH_CH0225,official,TRUE
CH_CH0226,8.826111619684571,47.47154153284569,CH,CH04,CH040,CH0226,Schlatt (ZH),769,8.98023545,2020,CH_CH0226,official,TRUE
CH_CH0227,8.73238189478153,47.53605322893157,CH,CH04,CH040,CH0227,Seuzach,7342,7.56000781,2020,CH_CH0227,official,TRUE
CH_CH0228,8.846241954890463,47.438679062255346,CH,CH04,CH040,CH0228,Turbenthal,4900,25.19036638,2020,CH_CH0228,official,TRUE
CH_CH0230,8.73293453306275,47.49959252628645,CH,CH04,CH040,CH0230,Winterthur,111851,68.03097353,2020,CH_CH0230,official,TRUE
CH_CH0231,8.794346056379048,47.45033002634146,CH,CH04,CH040,CH0231,Zell (ZH),6032,13.11076495,2020,CH_CH0231,official,TRUE
CH_CH0241,8.439436269770153,47.334689261216994,CH,CH04,CH040,CH0241,Aesch (ZH),1555,5.23770214,2020,CH_CH0241,official,TRUE
CH_CH0242,8.440883824271209,47.3538489708527,CH,CH04,CH040,CH0242,Birmensdorf (ZH),6519,11.55806103,2020,CH_CH0242,official,TRUE
CH_CH0243,8.39904723211272,47.4043437108754,CH,CH04,CH040,CH0243,Dietikon,27265,9.442141,2020,CH_CH0243,official,TRUE
CH_CH0244,8.412809046568562,47.422897756654734,CH,CH04,CH040,CH0244,Geroldswil,4958,1.92719694,2020,CH_CH0244,official,TRUE
CH_CH0245,8.464763363423266,47.40776066286135,CH,CH04,CH040,CH0245,Oberengstringen,6600,2.16115101,2020,CH_CH0245,official,TRUE
CH_CH0246,8.401674948799249,47.42581509830146,CH,CH04,CH040,CH0246,Oetwil an der Limmat,2553,2.76192005,2020,CH_CH0246,official,TRUE
CH_CH0247,8.44485427929579,47.398226144755505,CH,CH04,CH040,CH0247,Schlieren,18736,6.63272081,2020,CH_CH0247,official,TRUE
CH_CH0248,8.456576393820624,47.367891308941964,CH,CH04,CH040,CH0248,Uitikon,4344,4.23389938,2020,CH_CH0248,official,TRUE
CH_CH0249,8.443941228297223,47.41198601199278,CH,CH04,CH040,CH0249,Unterengstringen,3881,3.13549759,2020,CH_CH0249,official,TRUE
CH_CH0250,8.422749962375176,47.386655897477006,CH,CH04,CH040,CH0250,Urdorf,9848,7.54234617,2020,CH_CH0250,official,TRUE
CH_CH0251,8.42939179513961,47.41583548723882,CH,CH04,CH040,CH0251,Weiningen (ZH),4832,5.53226576,2020,CH_CH0251,official,TRUE
CH_CH0261,8.525202401762646,47.38445854926209,CH,CH04,CH040,CH0261,Zürich,415367,88.40040649,2020,CH_CH0261,official,TRUE
CH_CH0292,NA,NA,CH,CH04,CH040,CH0292,Stammheim,2747,23.9893799,2020,CH_CH0292,geo,NA
CH_CH0293,NA,NA,CH,CH04,CH040,CH0293,Wädenswil,24341,36.14654199,2020,CH_CH0293,geo,NA
CH_CH0294,8.867714404846463,47.494375571077306,CH,CH04,CH040,CH0294,Elgg,4903,24.38388895,2020,CH_CH0294,geo,TRUE
CH_CH0295,8.601398063008167,47.25356935024355,CH,CH04,CH040,CH0295,Horgen,22665,31.04342584,2020,CH_CH0295,geo,TRUE
CH_CH0296,8.698959607679416,47.42441638844638,CH,CH04,CH040,CH0296,Illnau-Effretikon,17068,32.75473745,2020,CH_CH0296,official,TRUE
CH_CH0297,8.874349476830494,47.37227420613623,CH,CH04,CH040,CH0297,Bauma,4965,29.5448677,2020,CH_CH0297,official,TRUE
CH_CH0298,8.788514164455174,47.52408559589982,CH,CH04,CH040,CH0298,Wiesendangen,6521,19.17179227,2020,CH_CH0298,official,TRUE
CH_CH0301,7.274430270302121,47.0445381825594,CH,CH02,CH021,CH0301,Aarberg,4628,7.77671739,2020,CH_CH0301,official,TRUE
CH_CH0302,7.262545783684985,47.04005575395904,CH,CH02,CH021,CH0302,Bargen (BE),999,7.93199062,2020,CH_CH0302,official,TRUE
CH_CH0303,7.353353508404811,47.067706239054665,CH,CH02,CH021,CH0303,Grossaffoltern,3018,14.97252511,2020,CH_CH0303,official,TRUE
CH_CH0304,7.233315063676126,47.021610195645195,CH,CH02,CH021,CH0304,Kallnach,2222,18.01241134,2020,CH_CH0304,official,TRUE
CH_CH0305,7.285563276839118,47.0703377593756,CH,CH02,CH021,CH0305,Kappelen,1419,11.09172516,2020,CH_CH0305,official,TRUE
CH_CH0306,7.30761712985813,47.07427182467726,CH,CH02,CH021,CH0306,Lyss,15282,14.83685214,2020,CH_CH0306,official,TRUE
CH_CH0307,7.363150302165313,47.006999344144866,CH,CH02,CH021,CH0307,Meikirch,2461,10.24203984,2020,CH_CH0307,official,TRUE
CH_CH0309,7.271580876960742,47.01152975870015,CH,CH02,CH021,CH0309,Radelfingen,1285,14.72164711,2020,CH_CH0309,official,TRUE
CH_CH0310,7.419161575233094,47.058143318126454,CH,CH02,CH021,CH0310,Rapperswil (BE),2618,22.582421,2020,CH_CH0310,official,TRUE
CH_CH0311,7.378051678000309,47.042738401228036,CH,CH02,CH021,CH0311,Schüpfen,3734,19.93409621,2020,CH_CH0311,official,TRUE
CH_CH0312,7.312376899391333,47.03272901102008,CH,CH02,CH021,CH0312,Seedorf (BE),3116,20.67960335,2020,CH_CH0312,official,TRUE
CH_CH0321,7.774275944289247,47.237170612715985,CH,CH02,CH021,CH0321,Aarwangen,4561,9.9385829,2020,CH_CH0321,official,TRUE
CH_CH0322,7.831980202166769,47.135316826761425,CH,CH02,CH021,CH0322,Auswil,439,4.5672401,2020,CH_CH0322,official,TRUE
CH_CH0323,7.735960919200353,47.24138903807022,CH,CH02,CH021,CH0323,Bannwil,669,4.69084348,2020,CH_CH0323,official,TRUE
CH_CH0324,7.75705278183478,47.18459574015958,CH,CH02,CH021,CH0324,Bleienbach,697,5.75165818,2020,CH_CH0324,official,TRUE
CH_CH0325,7.840097060588029,47.18940629732492,CH,CH02,CH021,CH0325,Busswil bei Melchnau,188,2.88152742,2020,CH_CH0325,official,TRUE
CH_CH0326,7.871542936520933,47.145060287042554,CH,CH02,CH021,CH0326,Gondiswil,730,9.2547819,2020,CH_CH0326,official,TRUE
CH_CH0329,7.785707704331828,47.21314339067486,CH,CH02,CH021,CH0329,Langenthal,15624,17.01593929,2020,CH_CH0329,official,TRUE
CH_CH0331,7.791147453816496,47.19053245905314,CH,CH02,CH021,CH0331,Lotzwil,2565,6.14868079,2020,CH_CH0331,official,TRUE
CH_CH0332,7.797105313912456,47.1605094328918,CH,CH02,CH021,CH0332,Madiswil,3279,23.16017724,2020,CH_CH0332,official,TRUE
CH_CH0333,7.852385935158957,47.181138306551944,CH,CH02,CH021,CH0333,Melchnau,1517,10.2352096,2020,CH_CH0333,official,TRUE
CH_CH0334,7.820437789321696,47.19885402300345,CH,CH02,CH021,CH0334,Obersteckholz,419,3.98192748,2020,CH_CH0334,official,TRUE
CH_CH0335,7.749239515115038,47.11037077111033,CH,CH02,CH021,CH0335,Oeschenbach,232,3.86611486,2020,CH_CH0335,official,TRUE
CH_CH0336,7.844696454278952,47.16266708490153,CH,CH02,CH021,CH0336,Reisiswil,176,1.97079059,2020,CH_CH0336,official,TRUE
CH_CH0337,7.820799306470334,47.23942000420409,CH,CH02,CH021,CH0337,Roggwil (BE),4083,7.803102,2020,CH_CH0337,official,TRUE
CH_CH0338,7.817293856445667,47.13499055378519,CH,CH02,CH021,CH0338,Rohrbach,1480,4.12856486,2020,CH_CH0338,official,TRUE
CH_CH0339,7.801636049063476,47.11517162024501,CH,CH02,CH021,CH0339,Rohrbachgraben,404,6.47803767,2020,CH_CH0339,official,TRUE
CH_CH0340,7.776681418303647,47.176626970185396,CH,CH02,CH021,CH0340,Rütschelen,557,3.96896248,2020,CH_CH0340,official,TRUE
CH_CH0341,7.762282697569439,47.2510796378816,CH,CH02,CH021,CH0341,Schwarzhäusern,522,3.59728286,2020,CH_CH0341,official,TRUE
CH_CH0342,7.750044564604632,47.214103601892646,CH,CH02,CH021,CH0342,Thunstetten,3397,9.65652488,2020,CH_CH0342,official,TRUE
CH_CH0344,7.768521305201765,47.13411462514462,CH,CH02,CH021,CH0344,Ursenbach,896,9.21792523,2020,CH_CH0344,official,TRUE
CH_CH0345,7.816689923961042,47.258148068088055,CH,CH02,CH021,CH0345,Wynau,1628,5.12710069,2020,CH_CH0345,official,TRUE
CH_CH0351,7.429714847306435,46.948130423542494,CH,CH02,CH021,CH0351,Bern,133883,51.79363738,2020,CH_CH0351,official,TRUE
CH_CH0352,7.497191302540477,46.97586409282019,CH,CH02,CH021,CH0352,Bolligen,6264,16.55538425,2020,CH_CH0352,official,TRUE
CH_CH0353,7.433704249531073,46.97391459187719,CH,CH02,CH021,CH0353,Bremgarten bei Bern,4387,1.85629905,2020,CH_CH0353,official,TRUE
CH_CH0354,7.4186809595276895,46.98515871550156,CH,CH02,CH021,CH0354,Kirchlindach,3160,12.00969929,2020,CH_CH0354,official,TRUE
CH_CH0355,7.421726865074471,46.923241541099316,CH,CH02,CH021,CH0355,Köniz,41784,51.12247785,2020,CH_CH0355,official,TRUE
CH_CH0356,7.496409959864218,46.93200283380408,CH,CH02,CH021,CH0356,Muri bei Bern,13054,7.61266472,2020,CH_CH0356,official,TRUE
CH_CH0357,7.399261987257394,46.87752086807711,CH,CH02,CH021,CH0357,Oberbalm,853,12.31510674,2020,CH_CH0357,official,TRUE
CH_CH0358,7.522203336703822,46.95763260603533,CH,CH02,CH021,CH0358,Stettlen,3116,3.50500595,2020,CH_CH0358,official,TRUE
CH_CH0359,7.552070309713298,46.956283213862186,CH,CH02,CH021,CH0359,Vechigen,5298,24.94274358,2020,CH_CH0359,official,TRUE
CH_CH0360,7.371011596158483,46.97354630698731,CH,CH02,CH021,CH0360,Wohlen bei Bern,9282,36.15528278,2020,CH_CH0360,official,TRUE
CH_CH0361,7.453666499795889,46.99557217496487,CH,CH02,CH021,CH0361,Zollikofen,10306,5.4143067,2020,CH_CH0361,official,TRUE
CH_CH0362,7.479401603513558,46.97654308920159,CH,CH02,CH021,CH0362,Ittigen,11351,4.21299506,2020,CH_CH0362,official,TRUE
CH_CH0363,7.491114998573209,46.956574151095225,CH,CH02,CH021,CH0363,Ostermundigen,17751,5.98507266,2020,CH_CH0363,official,TRUE
CH_CH0371,7.2570375414559765,47.14021473857529,CH,CH02,CH021,CH0371,Biel/Bienne,55159,21.15636081,2020,CH_CH0371,official,TRUE
CH_CH0372,7.236594846693927,47.1483173048727,CH,CH02,CH021,CH0372,Evilard,2674,3.79290014,2020,CH_CH0372,official,TRUE
CH_CH0381,7.429456607816801,47.1638369235014,CH,CH02,CH021,CH0381,Arch,1594,6.41977633,2020,CH_CH0381,official,TRUE
CH_CH0382,7.3377036094804655,47.10764927753507,CH,CH02,CH021,CH0382,Büetigen,870,3.58084355,2020,CH_CH0382,official,TRUE
CH_CH0383,7.372120711662703,47.14105856238423,CH,CH02,CH021,CH0383,Büren an der Aare,3583,12.66461294,2020,CH_CH0383,official,TRUE
CH_CH0385,7.3595270550367715,47.10740669965922,CH,CH02,CH021,CH0385,Diessbach bei Büren,989,6.22543878,2020,CH_CH0385,official,TRUE
CH_CH0386,7.346684971536464,47.121850866154666,CH,CH02,CH021,CH0386,Dotzigen,1461,4.14758024,2020,CH_CH0386,official,TRUE
CH_CH0387,7.36954965801249,47.17949707633129,CH,CH02,CH021,CH0387,Lengnau (BE),5254,7.33411887,2020,CH_CH0387,official,TRUE
CH_CH0388,7.460328066349655,47.17268743865195,CH,CH02,CH021,CH0388,Leuzigen,1259,10.36258121,2020,CH_CH0388,official,TRUE
CH_CH0389,7.3344947123066495,47.14103917576055,CH,CH02,CH021,CH0389,Meienried,59,0.623867,2020,CH_CH0389,official,TRUE
CH_CH0390,7.348173075165567,47.16155323170487,CH,CH02,CH021,CH0390,Meinisberg,1303,4.39576392,2020,CH_CH0390,official,TRUE
CH_CH0391,7.4099026136331245,47.127184023328304,CH,CH02,CH021,CH0391,Oberwil bei Büren,875,6.72547432,2020,CH_CH0391,official,TRUE
CH_CH0392,7.338737007471396,47.174908681988676,CH,CH02,CH021,CH0392,Pieterlen,4364,8.38421889,2020,CH_CH0392,official,TRUE
CH_CH0393,7.405387505708535,47.15302285714326,CH,CH02,CH021,CH0393,Rüti bei Büren,859,6.52104042,2020,CH_CH0393,official,TRUE
CH_CH0394,7.396638584131596,47.08274551815834,CH,CH02,CH021,CH0394,Wengi,613,7.32753048,2020,CH_CH0394,official,TRUE
CH_CH0401,7.558206779414345,47.09356147413433,CH,CH02,CH021,CH0401,Aefligen,1090,2.03262572,2020,CH_CH0401,official,TRUE
CH_CH0402,7.637199164735132,47.12228106438424,CH,CH02,CH021,CH0402,Alchenstorf,575,6.54986447,2020,CH_CH0402,official,TRUE
CH_CH0403,7.526845502869602,47.02069523765674,CH,CH02,CH021,CH0403,Bäriswil,1062,2.73368406,2020,CH_CH0403,official,TRUE
CH_CH0404,7.6216857288383455,47.05557855759086,CH,CH02,CH021,CH0404,Burgdorf,16420,15.65716933,2020,CH_CH0404,official,TRUE
CH_CH0405,7.598280245452541,47.094663659067464,CH,CH02,CH021,CH0405,Ersigen,2068,15.45258941,2020,CH_CH0405,official,TRUE
CH_CH0406,7.655839942299705,47.01286646735503,CH,CH02,CH021,CH0406,Hasle bei Burgdorf,3286,21.99488219,2020,CH_CH0406,official,TRUE
CH_CH0407,7.659099780890001,47.06155419463179,CH,CH02,CH021,CH0407,Heimiswil,1621,23.22720633,2020,CH_CH0407,official,TRUE
CH_CH0408,7.647921226226477,47.147549609752076,CH,CH02,CH021,CH0408,Hellsau,211,1.53235056,2020,CH_CH0408,official,TRUE
CH_CH0409,7.5395441296313415,47.04315860945788,CH,CH02,CH021,CH0409,Hindelbank,2496,6.87864688,2020,CH_CH0409,official,TRUE
CH_CH0410,7.635159419520822,47.14054711330753,CH,CH02,CH021,CH0410,Höchstetten,275,2.67124323,2020,CH_CH0410,official,TRUE
CH_CH0411,7.546447659558657,47.071782694528466,CH,CH02,CH021,CH0411,Kernenried,553,3.32479848,2020,CH_CH0411,official,TRUE
CH_CH0412,7.588515803505048,47.083708657723776,CH,CH02,CH021,CH0412,Kirchberg (BE),5965,9.1043279,2020,CH_CH0412,official,TRUE
CH_CH0413,7.6055489808548264,47.13070207548308,CH,CH02,CH021,CH0413,Koppigen,2095,6.87303764,2020,CH_CH0413,official,TRUE
CH_CH0414,7.560735308079272,47.01808213593877,CH,CH02,CH021,CH0414,Krauchthal,2366,19.54035539,2020,CH_CH0414,official,TRUE
CH_CH0415,7.584699427699544,47.06906913739529,CH,CH02,CH021,CH0415,Lyssach,1446,5.92097257,2020,CH_CH0415,official,TRUE
CH_CH0416,7.573758211957949,47.04226140085388,CH,CH02,CH021,CH0416,Mötschwil,119,3.02073809,2020,CH_CH0416,official,TRUE
CH_CH0418,7.626321690179219,47.03493504891016,CH,CH02,CH021,CH0418,Oberburg,2937,14.05845682,2020,CH_CH0418,official,TRUE
CH_CH0420,7.576433605027378,47.08596297474008,CH,CH02,CH021,CH0420,Rüdtligen-Alchenflüh,2418,2.7628781,2020,CH_CH0420,official,TRUE
CH_CH0421,7.642103654769897,47.104678421856654,CH,CH02,CH021,CH0421,Rumendingen,78,2.43227872,2020,CH_CH0421,official,TRUE
CH_CH0422,7.581129992767131,47.05746193420776,CH,CH02,CH021,CH0422,Rüti bei Lyssach,160,1.29307976,2020,CH_CH0422,official,TRUE
CH_CH0423,7.6091215549166,47.14304870668045,CH,CH02,CH021,CH0423,Willadingen,205,2.18793371,2020,CH_CH0423,official,TRUE
CH_CH0424,7.6662383341456195,47.10495639689434,CH,CH02,CH021,CH0424,Wynigen,2060,28.16952418,2020,CH_CH0424,official,TRUE
CH_CH0431,7.1438173071863424,47.19175328688602,CH,CH02,CH021,CH0431,Corgémont,1706,17.66502815,2020,CH_CH0431,official,TRUE
CH_CH0432,7.0532510248714555,47.17113656448958,CH,CH02,CH021,CH0432,Cormoret,491,13.52174651,2020,CH_CH0432,official,TRUE
CH_CH0433,7.105170946602362,47.19044712764733,CH,CH02,CH021,CH0433,Cortébert,705,14.6277247,2020,CH_CH0433,official,TRUE
CH_CH0434,7.068366914226619,47.1803233572184,CH,CH02,CH021,CH0434,Courtelary,1438,22.21592737,2020,CH_CH0434,official,TRUE
CH_CH0435,6.899414669064726,47.13912460188179,CH,CH02,CH021,CH0435,La Ferrière,534,14.07294342,2020,CH_CH0435,official,TRUE
CH_CH0437,7.054017815730887,47.20725622283171,CH,CH02,CH021,CH0437,Mont-Tramelan,122,4.66728309,2020,CH_CH0437,official,TRUE
CH_CH0438,7.212924672234818,47.15802515274922,CH,CH02,CH021,CH0438,Orvin,1225,21.64929903,2020,CH_CH0438,official,TRUE
CH_CH0441,6.923836457596515,47.12231694603569,CH,CH02,CH021,CH0441,Renan (BE),928,12.71776237,2020,CH_CH0441,official,TRUE
CH_CH0442,7.341653804678987,47.18586769622423,CH,CH02,CH021,CH0442,Romont (BE),199,7.11912599,2020,CH_CH0442,official,TRUE
CH_CH0443,6.998477458244665,47.15163003843612,CH,CH02,CH021,CH0443,Saint-Imier,5131,20.96958446,2020,CH_CH0443,official,TRUE
CH_CH0444,7.174227895256059,47.195146475690535,CH,CH02,CH021,CH0444,Sonceboz-Sombeval,1968,14.96217813,2020,CH_CH0444,official,TRUE
CH_CH0445,6.9629536697153425,47.141486649668224,CH,CH02,CH021,CH0445,Sonvilier,1237,23.7920199,2020,CH_CH0445,official,TRUE
CH_CH0446,7.102251131931316,47.225986359356874,CH,CH02,CH021,CH0446,Tramelan,4568,24.80614498,2020,CH_CH0446,official,TRUE
CH_CH0448,7.0145412042365765,47.15982211203057,CH,CH02,CH021,CH0448,Villeret,925,16.23184664,2020,CH_CH0448,official,TRUE
CH_CH0449,7.292125085539248,47.18620513874582,CH,CH02,CH021,CH0449,Sauge,815,13.45072661,2020,CH_CH0449,official,TRUE
CH_CH0450,7.246152069467351,47.1941347767652,CH,CH02,CH021,CH0450,Péry-La Heutte,1901,23.66610184,2020,CH_CH0450,official,TRUE
CH_CH0491,7.147848395200637,47.02054896030678,CH,CH02,CH021,CH0491,Brüttelen,578,6.58851041,2020,CH_CH0491,official,TRUE
CH_CH0492,7.100268748571391,47.03915892118499,CH,CH02,CH021,CH0492,Erlach,1385,3.58289322,2020,CH_CH0492,official,TRUE
CH_CH0493,7.179890765577633,47.026960856697,CH,CH02,CH021,CH0493,Finsterhennen,571,3.56302101,2020,CH_CH0493,official,TRUE
CH_CH0494,7.047781744308324,47.02684723995371,CH,CH02,CH021,CH0494,Gals,827,7.84623325,2020,CH_CH0494,official,TRUE
CH_CH0495,7.05264604775179,47.01693549051421,CH,CH02,CH021,CH0495,Gampelen,963,10.65818322,2020,CH_CH0495,official,TRUE
CH_CH0496,7.102912241729652,47.00456731078811,CH,CH02,CH021,CH0496,Ins,3564,23.82122847,2020,CH_CH0496,official,TRUE
CH_CH0497,7.152825428738646,47.047582438440884,CH,CH02,CH021,CH0497,Lüscherz,560,5.55284803,2020,CH_CH0497,official,TRUE
CH_CH0498,7.142372750680798,46.99343815983409,CH,CH02,CH021,CH0498,Müntschemier,1406,4.85961353,2020,CH_CH0498,official,TRUE
CH_CH0499,7.191617292855535,47.03061857308615,CH,CH02,CH021,CH0499,Siselen,595,5.52291034,2020,CH_CH0499,official,TRUE
CH_CH0500,7.163442971956963,47.011412053300376,CH,CH02,CH021,CH0500,Treiten,416,4.7769848,2020,CH_CH0500,official,TRUE
CH_CH0501,7.072740073979194,47.024818125930494,CH,CH02,CH021,CH0501,Tschugg,458,3.29746163,2020,CH_CH0501,official,TRUE
CH_CH0502,7.112657723290517,47.03105168751442,CH,CH02,CH021,CH0502,Vinelz,867,4.67550113,2020,CH_CH0502,official,TRUE
CH_CH0533,7.537895360305227,47.132421899625825,CH,CH02,CH021,CH0533,Bätterkinden,3250,10.22617547,2020,CH_CH0533,official,TRUE
CH_CH0535,7.455797046163576,47.03288472800356,CH,CH02,CH021,CH0535,Deisswil bei Münchenbuchsee,86,2.06469147,2020,CH_CH0535,official,TRUE
CH_CH0536,7.4301774959831555,47.0185716193703,CH,CH02,CH021,CH0536,Diemerswil,206,2.83871216,2020,CH_CH0536,official,TRUE
CH_CH0538,7.520177514114483,47.085979131895705,CH,CH02,CH021,CH0538,Fraubrunnen,5113,32.01310131,2020,CH_CH0538,official,TRUE
CH_CH0540,7.507502084201996,47.05211744450074,CH,CH02,CH021,CH0540,Jegenstorf,5746,13.42125504,2020,CH_CH0540,official,TRUE
CH_CH0541,7.480142768117549,47.064142804708005,CH,CH02,CH021,CH0541,Iffwil,443,5.0619708899999996,2020,CH_CH0541,official,TRUE
CH_CH0543,7.51083756585568,47.02411854554766,CH,CH02,CH021,CH0543,Mattstetten,561,3.76859455,2020,CH_CH0543,official,TRUE
CH_CH0544,7.483725360655502,47.01301944675779,CH,CH02,CH021,CH0544,Moosseedorf,4111,6.38256363,2020,CH_CH0544,official,TRUE
CH_CH0546,7.4515222658136056,47.01774046496066,CH,CH02,CH021,CH0546,Münchenbuchsee,10213,8.81673252,2020,CH_CH0546,official,TRUE
CH_CH0551,7.50336309455737,47.0211825371085,CH,CH02,CH021,CH0551,Urtenen-Schönbühl,6271,7.06577487,2020,CH_CH0551,official,TRUE
CH_CH0552,7.554710821941166,47.13005999094971,CH,CH02,CH021,CH0552,Utzenstorf,4333,16.87889172,2020,CH_CH0552,official,TRUE
CH_CH0553,7.468493180554749,47.02859533801164,CH,CH02,CH021,CH0553,Wiggiswil,103,1.54791753,2020,CH_CH0553,official,TRUE
CH_CH0554,7.5558451209856,47.15071144701252,CH,CH02,CH021,CH0554,Wiler bei Utzenstorf,963,3.81950174,2020,CH_CH0554,official,TRUE
CH_CH0556,7.57429671497822,47.161925051439724,CH,CH02,CH021,CH0556,Zielebach,321,1.90187594,2020,CH_CH0556,official,TRUE
CH_CH0557,7.468458902332747,47.05388972792321,CH,CH02,CH021,CH0557,Zuzwil (BE),578,3.4506633,2020,CH_CH0557,official,TRUE
CH_CH0561,7.562165567440764,46.490390648251775,CH,CH02,CH021,CH0561,Adelboden,3390,87.64714049,2020,CH_CH0561,official,TRUE
CH_CH0562,7.699556640618328,46.654381264601746,CH,CH02,CH021,CH0562,Aeschi bei Spiez,2217,31.03926883,2020,CH_CH0562,official,TRUE
CH_CH0563,7.647704196643879,46.586655983329536,CH,CH02,CH021,CH0563,Frutigen,6923,72.63295004,2020,CH_CH0563,official,TRUE
CH_CH0564,7.662222888457704,46.55610259948564,CH,CH02,CH021,CH0564,Kandergrund,805,32.02681997,2020,CH_CH0564,official,TRUE
CH_CH0565,7.676154690392705,46.49655432638397,CH,CH02,CH021,CH0565,Kandersteg,1298,134.56539077,2020,CH_CH0565,official,TRUE
CH_CH0566,7.725335623336123,46.65679312807353,CH,CH02,CH021,CH0566,Krattigen,1132,6.22002046,2020,CH_CH0566,official,TRUE
CH_CH0567,7.692737897266788,46.62150555434273,CH,CH02,CH021,CH0567,Reichenbach im Kandertal,3608,125.56272778,2020,CH_CH0567,official,TRUE
CH_CH0571,7.79581961276324,46.6981822254736,CH,CH02,CH021,CH0571,Beatenberg,1195,29.00163933,2020,CH_CH0571,official,TRUE
CH_CH0572,7.892089454988349,46.68626737297633,CH,CH02,CH021,CH0572,Bönigen,2536,15.33038433,2020,CH_CH0572,official,TRUE
CH_CH0573,8.040207180444641,46.7563872628069,CH,CH02,CH021,CH0573,Brienz (BE),3092,48.62737938,2020,CH_CH0573,official,TRUE
CH_CH0574,8.098850011500154,46.75313779241483,CH,CH02,CH021,CH0574,Brienzwiler,479,17.63771372,2020,CH_CH0574,official,TRUE
CH_CH0575,7.804668822984129,46.65755310860819,CH,CH02,CH021,CH0575,Därligen,435,7.27895334,2020,CH_CH0575,official,TRUE
CH_CH0576,8.031981425239827,46.62566780775727,CH,CH02,CH021,CH0576,Grindelwald,3802,171.47019237,2020,CH_CH0576,official,TRUE
CH_CH0577,7.869636601848249,46.6583864989091,CH,CH02,CH021,CH0577,Gsteigwiler,406,7.08937732,2020,CH_CH0577,official,TRUE
CH_CH0578,7.905983135601548,46.63242647134843,CH,CH02,CH021,CH0578,Gündlischwand,338,16.67911855,2020,CH_CH0578,official,TRUE
CH_CH0579,7.862643506893256,46.728178591636514,CH,CH02,CH021,CH0579,Habkern,639,50.99592201,2020,CH_CH0579,official,TRUE
CH_CH0580,8.072008899726681,46.752945676231604,CH,CH02,CH021,CH0580,Hofstetten bei Brienz,518,8.89967571,2020,CH_CH0580,official,TRUE
CH_CH0581,7.859219304302668,46.68550064277995,CH,CH02,CH021,CH0581,Interlaken,5610,4.39299217,2020,CH_CH0581,official,TRUE
CH_CH0582,7.961260848839009,46.70719363933114,CH,CH02,CH021,CH0582,Iseltwald,438,22.23348931,2020,CH_CH0582,official,TRUE
CH_CH0584,7.913128485220696,46.596945506725795,CH,CH02,CH021,CH0584,Lauterbrunnen,2290,164.24834933,2020,CH_CH0584,official,TRUE
CH_CH0585,7.7749512124097615,46.65464119134846,CH,CH02,CH021,CH0585,Leissigen,1123,10.74187634,2020,CH_CH0585,official,TRUE
CH_CH0586,7.948058512657703,46.63800124583312,CH,CH02,CH021,CH0586,Lütschental,216,12.38433759,2020,CH_CH0586,official,TRUE
CH_CH0587,7.8641896751530975,46.677966772648055,CH,CH02,CH021,CH0587,Matten bei Interlaken,4103,5.81265916,2020,CH_CH0587,official,TRUE
CH_CH0588,7.928669383072191,46.71945054195788,CH,CH02,CH021,CH0588,Niederried bei Interlaken,357,4.24562598,2020,CH_CH0588,official,TRUE
CH_CH0589,7.965509550959025,46.74072331780376,CH,CH02,CH021,CH0589,Oberried am Brienzersee,459,20.51621256,2020,CH_CH0589,official,TRUE
CH_CH0590,7.887549236464875,46.701684107345024,CH,CH02,CH021,CH0590,Ringgenberg (BE),2562,8.77871394,2020,CH_CH0590,official,TRUE
CH_CH0591,7.82742318674673,46.639883539295624,CH,CH02,CH021,CH0591,Saxeten,99,19.09927694,2020,CH_CH0591,official,TRUE
CH_CH0592,8.057904800981568,46.75743507494518,CH,CH02,CH021,CH0592,Schwanden bei Brienz,617,6.90665348,2020,CH_CH0592,official,TRUE
CH_CH0593,7.843066508797046,46.68532094144757,CH,CH02,CH021,CH0593,Unterseen,5751,14.13511192,2020,CH_CH0593,official,TRUE
CH_CH0594,7.865283295958336,46.665126538489076,CH,CH02,CH021,CH0594,Wilderswil,2658,13.70151819,2020,CH_CH0594,official,TRUE
CH_CH0602,7.650967200841361,46.93296439389943,CH,CH02,CH021,CH0602,Arni (BE),928,10.38798077,2020,CH_CH0602,official,TRUE
CH_CH0603,7.628440766349662,46.924677819885055,CH,CH02,CH021,CH0603,Biglen,1815,3.59241562,2020,CH_CH0603,official,TRUE
CH_CH0605,7.6984252116284715,46.896504805821685,CH,CH02,CH021,CH0605,Bowil,1373,14.66374442,2020,CH_CH0605,official,TRUE
CH_CH0606,7.612657937760844,46.815492419883014,CH,CH02,CH021,CH0606,Brenzikofen,488,2.15206741,2020,CH_CH0606,official,TRUE
CH_CH0607,7.629682871734775,46.86978181795528,CH,CH02,CH021,CH0607,Freimettigen,466,2.98133517,2020,CH_CH0607,official,TRUE
CH_CH0608,7.634351929511895,46.90660703422404,CH,CH02,CH021,CH0608,Grosshöchstetten,4166,6.94239085,2020,CH_CH0608,official,TRUE
CH_CH0609,7.608311084097931,46.858970075969076,CH,CH02,CH021,CH0609,Häutligen,250,3.11115253,2020,CH_CH0609,official,TRUE
CH_CH0610,7.609895042964209,46.8277881623977,CH,CH02,CH021,CH0610,Herbligen,603,2.79947803,2020,CH_CH0610,official,TRUE
CH_CH0611,7.58229056872646,46.81685953989732,CH,CH02,CH021,CH0611,Kiesen,1001,4.74268078,2020,CH_CH0611,official,TRUE
CH_CH0612,7.620832661056365,46.87921445026786,CH,CH02,CH021,CH0612,Konolfingen,5283,12.95287799,2020,CH_CH0612,official,TRUE
CH_CH0613,7.679230124813996,46.9581721882835,CH,CH02,CH021,CH0613,Landiswil,625,10.2606312,2020,CH_CH0613,official,TRUE
CH_CH0614,7.679079856955009,46.84596264639204,CH,CH02,CH021,CH0614,Linden,1298,13.19513615,2020,CH_CH0614,official,TRUE
CH_CH0615,7.648102975050811,46.89665275943954,CH,CH02,CH021,CH0615,Mirchel,624,2.35902742,2020,CH_CH0615,official,TRUE
CH_CH0616,7.559717238339625,46.87258382786904,CH,CH02,CH021,CH0616,Münsingen,12724,15.65370683,2020,CH_CH0616,official,TRUE
CH_CH0617,7.634855721772147,46.878949456030284,CH,CH02,CH021,CH0617,Niederhünigen,644,5.33191908,2020,CH_CH0617,official,TRUE
CH_CH0619,7.622589686559828,46.84070080098627,CH,CH02,CH021,CH0619,Oberdiessbach,3527,16.43864408,2020,CH_CH0619,official,TRUE
CH_CH0620,7.6592461328617985,46.911440370008606,CH,CH02,CH021,CH0620,Oberthal,727,10.56744219,2020,CH_CH0620,official,TRUE
CH_CH0622,7.596128236701932,46.81691211842277,CH,CH02,CH021,CH0622,Oppligen,650,3.36244075,2020,CH_CH0622,official,TRUE
CH_CH0623,7.5424627717382,46.896821975387205,CH,CH02,CH021,CH0623,Rubigen,2929,6.84108448,2020,CH_CH0623,official,TRUE
CH_CH0626,7.618095583715584,46.949557146320565,CH,CH02,CH021,CH0626,Walkringen,1767,17.08145666,2020,CH_CH0626,official,TRUE
CH_CH0627,7.55780602948046,46.92954117731772,CH,CH02,CH021,CH0627,Worb,11316,21.08495026,2020,CH_CH0627,official,TRUE
CH_CH0628,7.659438997776695,46.89774007017429,CH,CH02,CH021,CH0628,Zäziwil,1595,5.4279722,2020,CH_CH0628,official,TRUE
CH_CH0629,7.660370284944416,46.87919203060709,CH,CH02,CH021,CH0629,Oberhünigen,313,5.89038235,2020,CH_CH0629,official,TRUE
CH_CH0630,7.523839493686562,46.91411335021063,CH,CH02,CH021,CH0630,Allmendingen,590,3.82579082,2020,CH_CH0630,official,TRUE
CH_CH0632,7.573529050958187,46.8437594566457,CH,CH02,CH021,CH0632,Wichtrach,4293,11.53374849,2020,CH_CH0632,official,TRUE
CH_CH0661,7.093776022485805,46.9015406319745,CH,CH02,CH021,CH0661,Clavaleyres,46,0.98544399,2020,CH_CH0661,official,TRUE
CH_CH0662,7.22371598032921,46.941987452827846,CH,CH02,CH021,CH0662,Ferenbalm,1260,9.22654208,2020,CH_CH0662,official,TRUE
CH_CH0663,7.343110828924973,46.95429256681808,CH,CH02,CH021,CH0663,Frauenkappelen,1240,9.27934087,2020,CH_CH0663,official,TRUE
CH_CH0665,7.211789021480675,46.96578771014291,CH,CH02,CH021,CH0665,Gurbrü,261,1.62744766,2020,CH_CH0665,official,TRUE
CH_CH0666,7.221478028835644,46.91223984206137,CH,CH02,CH021,CH0666,Kriechenwil,427,4.84674369,2020,CH_CH0666,official,TRUE
CH_CH0667,7.238941595436568,46.90484801851863,CH,CH02,CH021,CH0667,Laupen,3136,4.03798146,2020,CH_CH0667,official,TRUE
CH_CH0668,7.26542340202241,46.94900943011683,CH,CH02,CH021,CH0668,Mühleberg,2986,26.35637431,2020,CH_CH0668,official,TRUE
CH_CH0669,7.121406995847502,46.913265309675204,CH,CH02,CH021,CH0669,Münchenwiler,522,2.53413658,2020,CH_CH0669,official,TRUE
CH_CH0670,7.3091464429759005,46.89835882964388,CH,CH02,CH021,CH0670,Neuenegg,5541,21.51304544,2020,CH_CH0670,official,TRUE
CH_CH0671,7.235478845284272,46.9689830601441,CH,CH02,CH021,CH0671,Wileroltigen,360,4.25342428,2020,CH_CH0671,official,TRUE
CH_CH0681,7.401569617628448,47.2806685792137,CH,CH02,CH021,CH0681,Belprahon,294,3.93213994,2020,CH_CH0681,official,TRUE
CH_CH0683,7.299514113707218,47.25814139862782,CH,CH02,CH021,CH0683,Champoz,170,7.22405518,2020,CH_CH0683,official,TRUE
CH_CH0687,7.456717688142301,47.28938079278576,CH,CH02,CH021,CH0687,Corcelles (BE),205,6.78199604,2020,CH_CH0687,official,TRUE
CH_CH0690,7.338666120718332,47.2414923928994,CH,CH02,CH021,CH0690,Court,1420,24.54255484,2020,CH_CH0690,official,TRUE
CH_CH0691,7.443438317642698,47.28073587257694,CH,CH02,CH021,CH0691,Crémines,509,9.42101889,2020,CH_CH0691,official,TRUE
CH_CH0692,7.395047141862399,47.27811941775929,CH,CH02,CH021,CH0692,Eschert,377,6.46880795,2020,CH_CH0692,official,TRUE
CH_CH0694,7.426584677792282,47.282417005355015,CH,CH02,CH021,CH0694,Grandval,404,8.20046666,2020,CH_CH0694,official,TRUE
CH_CH0696,7.234514967925349,47.23891105894843,CH,CH02,CH021,CH0696,Loveresse,348,4.66507118,2020,CH_CH0696,official,TRUE
CH_CH0700,7.370332403693159,47.27813449235245,CH,CH02,CH021,CH0700,Moutier,7384,19.56478812,2020,CH_CH0700,official,TRUE
CH_CH0701,7.345341089097538,47.277664882436724,CH,CH02,CH021,CH0701,Perrefitte,463,8.53961236,2020,CH_CH0701,official,TRUE
CH_CH0703,7.220330563148706,47.23379152916433,CH,CH02,CH021,CH0703,Reconvilier,2317,8.25721106,2020,CH_CH0703,official,TRUE
CH_CH0704,7.3771824473431105,47.305468231499745,CH,CH02,CH021,CH0704,Roches (BE),201,8.95287412,2020,CH_CH0704,official,TRUE
CH_CH0706,7.1808379977322865,47.250107408398215,CH,CH02,CH021,CH0706,Saicourt,628,13.81353282,2020,CH_CH0706,official,TRUE
CH_CH0707,7.2217992453818765,47.24132666954535,CH,CH02,CH021,CH0707,Saules (BE),151,4.26784403,2020,CH_CH0707,official,TRUE
CH_CH0708,7.550351043278047,47.334453904219586,CH,CH02,CH021,CH0708,Schelten,36,5.54236144,2020,CH_CH0708,official,TRUE
CH_CH0709,7.522401479496216,47.30676778127995,CH,CH02,CH021,CH0709,Seehof,58,8.33371355,2020,CH_CH0709,official,TRUE
CH_CH0711,7.301746773353236,47.24083780396849,CH,CH02,CH021,CH0711,Sorvilier,283,6.97724194,2020,CH_CH0711,official,TRUE
CH_CH0713,7.196771427536051,47.22012633107144,CH,CH02,CH021,CH0713,Tavannes,3586,14.79478956,2020,CH_CH0713,official,TRUE
CH_CH0715,7.183752237304007,47.290795780772726,CH,CH02,CH021,CH0715,Rebévelier,41,3.55134194,2020,CH_CH0715,official,TRUE
CH_CH0716,7.226421419394063,47.274776476965386,CH,CH02,CH021,CH0716,Petit-Val,426,23.96718405,2020,CH_CH0716,official,TRUE
CH_CH0717,7.277145746008738,47.239958285928914,CH,CH02,CH021,CH0717,Valbirse,3975,18.59209271,2020,CH_CH0717,official,TRUE
CH_CH0723,7.094022597165935,47.06449791802191,CH,CH02,CH021,CH0723,La Neuveville,3739,7.0975863,2020,CH_CH0723,official,TRUE
CH_CH0724,7.082845372568243,47.11437337753156,CH,CH02,CH021,CH0724,Nods,765,26.6083798,2020,CH_CH0724,official,TRUE
CH_CH0726,7.129260579993357,47.108063986516044,CH,CH02,CH021,CH0726,Plateau de Diesse,2048,25.49263925,2020,CH_CH0726,official,TRUE
CH_CH0731,7.287644644497058,47.121726876936535,CH,CH02,CH021,CH0731,Aegerten,2159,2.20692157,2020,CH_CH0731,official,TRUE
CH_CH0732,7.243656970277922,47.106864117982994,CH,CH02,CH021,CH0732,Bellmund,1689,3.84561863,2020,CH_CH0732,official,TRUE
CH_CH0733,7.275405349229956,47.1270000954041,CH,CH02,CH021,CH0733,Brügg,4390,4.95815852,2020,CH_CH0733,official,TRUE
CH_CH0734,7.243462004654694,47.0681911765126,CH,CH02,CH021,CH0734,Bühl,464,2.96442141,2020,CH_CH0734,official,TRUE
CH_CH0735,7.2119093417397835,47.067408081488125,CH,CH02,CH021,CH0735,Epsach,317,3.44434831,2020,CH_CH0735,official,TRUE
CH_CH0736,7.191165060994013,47.05763094333608,CH,CH02,CH021,CH0736,Hagneck,413,1.86639736,2020,CH_CH0736,official,TRUE
CH_CH0737,7.2427369537278965,47.08333075842075,CH,CH02,CH021,CH0737,Hermrigen,322,3.3654672899999998,2020,CH_CH0737,official,TRUE
CH_CH0738,7.260727441089486,47.10011064908922,CH,CH02,CH021,CH0738,Jens,659,4.57683721,2020,CH_CH0738,official,TRUE
CH_CH0739,7.232477798397593,47.113338226635925,CH,CH02,CH021,CH0739,Ipsach,3987,1.94229156,2020,CH_CH0739,official,TRUE
CH_CH0740,7.1420804029744795,47.09157687376419,CH,CH02,CH021,CH0740,Ligerz,544,1.96067588,2020,CH_CH0740,official,TRUE
CH_CH0741,7.252680274197282,47.08734403067436,CH,CH02,CH021,CH0741,Merzligen,393,2.31886657,2020,CH_CH0741,official,TRUE
CH_CH0742,7.214254506421105,47.084211952203624,CH,CH02,CH021,CH0742,Mörigen,879,2.08929265,2020,CH_CH0742,official,TRUE
CH_CH0743,7.240901701537072,47.12299117046457,CH,CH02,CH021,CH0743,Nidau,6823,1.51913988,2020,CH_CH0743,official,TRUE
CH_CH0744,7.304915898487435,47.14154138981532,CH,CH02,CH021,CH0744,Orpund,2800,3.92450739,2020,CH_CH0744,official,TRUE
CH_CH0745,7.253781914332408,47.117324724248874,CH,CH02,CH021,CH0745,Port,3695,2.38451219,2020,CH_CH0745,official,TRUE
CH_CH0746,7.319054052904067,47.150619754898415,CH,CH02,CH021,CH0746,Safnern,1928,5.6848748,2020,CH_CH0746,official,TRUE
CH_CH0747,7.3191898564490545,47.13299790612573,CH,CH02,CH021,CH0747,Scheuren,448,2.13555629,2020,CH_CH0747,official,TRUE
CH_CH0748,7.307815762850192,47.12353705372479,CH,CH02,CH021,CH0748,Schwadernau,662,4.15824071,2020,CH_CH0748,official,TRUE
CH_CH0749,7.301117675235287,47.11363946272894,CH,CH02,CH021,CH0749,Studen (BE),3326,2.71018255,2020,CH_CH0749,official,TRUE
CH_CH0750,7.216166354226275,47.10263638428464,CH,CH02,CH021,CH0750,Sutz-Lattrigen,1395,3.67957324,2020,CH_CH0750,official,TRUE
CH_CH0751,7.202286800601916,47.07222836323029,CH,CH02,CH021,CH0751,Täuffelen,2872,4.34956983,2020,CH_CH0751,official,TRUE
CH_CH0754,7.230274707519389,47.05862570313183,CH,CH02,CH021,CH0754,Walperswil,1043,6.90968461,2020,CH_CH0754,official,TRUE
CH_CH0755,7.295253167104972,47.1042655272388,CH,CH02,CH021,CH0755,Worben,2287,2.7741654,2020,CH_CH0755,official,TRUE
CH_CH0756,7.175864604553075,47.10767174391866,CH,CH02,CH021,CH0756,Twann-Tüscherz,1160,12.8396452,2020,CH_CH0756,official,TRUE
CH_CH0761,7.489242043143923,46.65863502431515,CH,CH02,CH021,CH0761,Därstetten,849,32.9106586,2020,CH_CH0761,official,TRUE
CH_CH0762,7.567560537560525,46.6462874787215,CH,CH02,CH021,CH0762,Diemtigen,2250,129.86032467,2020,CH_CH0762,official,TRUE
CH_CH0763,7.55787336092309,46.6616634800072,CH,CH02,CH021,CH0763,Erlenbach im Simmental,1746,36.68182798,2020,CH_CH0763,official,TRUE
CH_CH0766,7.440879261487461,46.65658749317282,CH,CH02,CH021,CH0766,Oberwil im Simmental,808,46.03896155,2020,CH_CH0766,official,TRUE
CH_CH0767,7.619882982385754,46.695862348037565,CH,CH02,CH021,CH0767,Reutigen,999,11.17398873,2020,CH_CH0767,official,TRUE
CH_CH0768,7.675462794163967,46.68636920754671,CH,CH02,CH021,CH0768,Spiez,12812,16.9198751,2020,CH_CH0768,official,TRUE
CH_CH0769,7.642044287763195,46.6776554890144,CH,CH02,CH021,CH0769,Wimmis,2537,22.18848162,2020,CH_CH0769,official,TRUE
CH_CH0770,7.5626188980084725,46.72017011492581,CH,CH02,CH021,CH0770,Stocken-Höfen,1016,14.16973133,2020,CH_CH0770,official,TRUE
CH_CH0782,8.28496116355024,46.657938409302965,CH,CH02,CH021,CH0782,Guttannen,263,201.1918511,2020,CH_CH0782,official,TRUE
CH_CH0783,8.19647988854468,46.73891307699575,CH,CH02,CH021,CH0783,Hasliberg,1164,41.75893984,2020,CH_CH0783,official,TRUE
CH_CH0784,8.233886800745806,46.70466828187403,CH,CH02,CH021,CH0784,Innertkirchen,1063,236.56752641,2020,CH_CH0784,official,TRUE
CH_CH0785,8.185195930087001,46.728182536899844,CH,CH02,CH021,CH0785,Meiringen,4622,40.32111655,2020,CH_CH0785,official,TRUE
CH_CH0786,8.19228722215848,46.71817500860177,CH,CH02,CH021,CH0786,Schattenhalb,552,31.5774998,2020,CH_CH0786,official,TRUE
CH_CH0791,7.378090260899319,46.61833753279785,CH,CH02,CH021,CH0791,Boltigen,1263,76.87287456,2020,CH_CH0791,official,TRUE
CH_CH0792,7.442798783394869,46.45994756769607,CH,CH02,CH021,CH0792,Lenk,2345,123.20686819,2020,CH_CH0792,official,TRUE
CH_CH0793,7.403116927589449,46.50797022816621,CH,CH02,CH021,CH0793,St. Stephan,1339,60.83274731,2020,CH_CH0793,official,TRUE
CH_CH0794,7.375888338114958,46.556035744651595,CH,CH02,CH021,CH0794,Zweisimmen,3018,73.01502575,2020,CH_CH0794,official,TRUE
CH_CH0841,7.267064622651799,46.391716522005304,CH,CH02,CH021,CH0841,Gsteig,978,62.22044633,2020,CH_CH0841,official,TRUE
CH_CH0842,7.323969916225311,46.42448086719667,CH,CH02,CH021,CH0842,Lauenen,827,58.62005448,2020,CH_CH0842,official,TRUE
CH_CH0843,7.280093604826798,46.48304038392801,CH,CH02,CH021,CH0843,Saanen,6818,119.90372721,2020,CH_CH0843,official,TRUE
CH_CH0852,7.3297041719061236,46.7608850675616,CH,CH02,CH021,CH0852,Guggisberg,1508,55.04466901,2020,CH_CH0852,official,TRUE
CH_CH0853,7.398731737291725,46.780751449838206,CH,CH02,CH021,CH0853,Rüschegg,1662,57.28637201,2020,CH_CH0853,official,TRUE
CH_CH0855,7.342173646197936,46.81972820452925,CH,CH02,CH021,CH0855,Schwarzenburg,6831,44.83428218,2020,CH_CH0855,official,TRUE
CH_CH0861,7.501668664298408,46.89145131156841,CH,CH02,CH021,CH0861,Belp,11510,23.22251992,2020,CH_CH0861,official,TRUE
CH_CH0863,7.506033858509184,46.79313995043651,CH,CH02,CH021,CH0863,Burgistein,1096,7.59250926,2020,CH_CH0863,official,TRUE
CH_CH0866,7.544044185754027,46.84087353802853,CH,CH02,CH021,CH0866,Gerzensee,1215,7.90947584,2020,CH_CH0866,official,TRUE
CH_CH0867,7.537038771013131,46.77830322820333,CH,CH02,CH021,CH0867,Gurzelen,840,4.49801188,2020,CH_CH0867,official,TRUE
CH_CH0868,7.569805802691331,46.817425364619595,CH,CH02,CH021,CH0868,Jaberg,278,1.229911,2020,CH_CH0868,official,TRUE
CH_CH0869,7.499007914138185,46.839998474687796,CH,CH02,CH021,CH0869,Kaufdorf,1089,2.03570618,2020,CH_CH0869,official,TRUE
CH_CH0870,7.472365823872414,46.91258102195104,CH,CH02,CH021,CH0870,Kehrsatz,4305,4.49949016,2020,CH_CH0870,official,TRUE
CH_CH0872,7.5412961201831905,46.82293516409468,CH,CH02,CH021,CH0872,Kirchdorf (BE),1843,14.52742445,2020,CH_CH0872,official,TRUE
CH_CH0873,7.505264020657727,46.8221360101192,CH,CH02,CH021,CH0873,Kirchenthurnen,293,1.21721436,2020,CH_CH0873,official,TRUE
CH_CH0874,7.50865157223446,46.80972223362561,CH,CH02,CH021,CH0874,Lohnstorf,227,1.7570669,2020,CH_CH0874,official,TRUE
CH_CH0876,7.507358290392773,46.813479517998324,CH,CH02,CH021,CH0876,Mühlethurnen,1402,2.9647699,2020,CH_CH0876,official,TRUE
CH_CH0877,7.4633421608451105,46.85790279023934,CH,CH02,CH021,CH0877,Niedermuhlern,501,7.276548,2020,CH_CH0877,official,TRUE
CH_CH0879,7.479278217753601,46.81211660128724,CH,CH02,CH021,CH0879,Riggisberg,2554,29.97214208,2020,CH_CH0879,official,TRUE
CH_CH0880,7.4346873258730355,46.821701889634014,CH,CH02,CH021,CH0880,Rüeggisberg,1791,35.65252766,2020,CH_CH0880,official,TRUE
CH_CH0881,7.491465150308831,46.83032744215969,CH,CH02,CH021,CH0881,Rümligen,438,4.74315135,2020,CH_CH0881,official,TRUE
CH_CH0883,7.541484758482397,46.786951974138766,CH,CH02,CH021,CH0883,Seftigen,2144,3.8920591,2020,CH_CH0883,official,TRUE
CH_CH0884,7.490513774217536,46.85879493579991,CH,CH02,CH021,CH0884,Toffen,2515,4.96352419,2020,CH_CH0884,official,TRUE
CH_CH0885,7.573732476118739,46.795982730709206,CH,CH02,CH021,CH0885,Uttigen,2103,3.75307119,2020,CH_CH0885,official,TRUE
CH_CH0886,7.507458748108324,46.766897486291455,CH,CH02,CH021,CH0886,Wattenwil,2936,14.41042457,2020,CH_CH0886,official,TRUE
CH_CH0888,7.470776467280673,46.88995059363939,CH,CH02,CH021,CH0888,Wald (BE),1177,13.24232799,2020,CH_CH0888,official,TRUE
CH_CH0901,7.792497202890444,46.87845300072721,CH,CH02,CH021,CH0901,Eggiwil,2440,60.24447486,2020,CH_CH0901,official,TRUE
CH_CH0902,7.786782298556744,46.94156118197268,CH,CH02,CH021,CH0902,Langnau im Emmental,9380,48.55961257,2020,CH_CH0902,official,TRUE
CH_CH0903,7.746793627653287,46.969412143431725,CH,CH02,CH021,CH0903,Lauperswil,2615,21.25402232,2020,CH_CH0903,official,TRUE
CH_CH0904,7.74243020195588,46.85356046117292,CH,CH02,CH021,CH0904,Röthenbach im Emmental,1169,36.87205199,2020,CH_CH0904,official,TRUE
CH_CH0905,7.729800869421944,46.98056859907352,CH,CH02,CH021,CH0905,Rüderswil,2385,17.27812846,2020,CH_CH0905,official,TRUE
CH_CH0906,7.86814511226399,46.82402007463451,CH,CH02,CH021,CH0906,Schangnau,908,36.50090591,2020,CH_CH0906,official,TRUE
CH_CH0907,7.730126547925213,46.92178090208126,CH,CH02,CH021,CH0907,Signau,2660,21.99503137,2020,CH_CH0907,official,TRUE
CH_CH0908,7.88179026245567,46.94551240915757,CH,CH02,CH021,CH0908,Trub,1326,61.86260042,2020,CH_CH0908,official,TRUE
CH_CH0909,7.842230184207307,46.91993476991371,CH,CH02,CH021,CH0909,Trubschachen,1450,15.54062685,2020,CH_CH0909,official,TRUE
CH_CH0921,7.587183264812559,46.72546456843909,CH,CH02,CH021,CH0921,Amsoldingen,812,4.67672593,2020,CH_CH0921,official,TRUE
CH_CH0922,7.522133998602289,46.741324273143654,CH,CH02,CH021,CH0922,Blumenstein,1246,15.64287471,2020,CH_CH0922,official,TRUE
CH_CH0923,7.691963005542178,46.821921813092864,CH,CH02,CH021,CH0923,Buchholterberg,1527,15.13442432,2020,CH_CH0923,official,TRUE
CH_CH0924,7.779545201508203,46.79003456975646,CH,CH02,CH021,CH0924,Eriz,483,21.85772349,2020,CH_CH0924,official,TRUE
CH_CH0925,7.65238892333435,46.79777315525463,CH,CH02,CH021,CH0925,Fahrni,809,6.76062215,2020,CH_CH0925,official,TRUE
CH_CH0927,7.6795617147518795,46.75234220884805,CH,CH02,CH021,CH0927,Heiligenschwendi,703,5.56969779,2020,CH_CH0927,official,TRUE
CH_CH0928,7.604277626016742,46.785925018598434,CH,CH02,CH021,CH0928,Heimberg,6832,5.61301595,2020,CH_CH0928,official,TRUE
CH_CH0929,7.655786205305018,46.742264547062526,CH,CH02,CH021,CH0929,Hilterfingen,4047,2.94992042,2020,CH_CH0929,official,TRUE
CH_CH0931,7.680594528160847,46.77345841413131,CH,CH02,CH021,CH0931,Homberg,509,6.45552062,2020,CH_CH0931,official,TRUE
CH_CH0932,7.767337419767279,46.782248868741,CH,CH02,CH021,CH0932,Horrenbach-Buchen,235,20.41745528,2020,CH_CH0932,official,TRUE
CH_CH0934,7.669213958233938,46.733821370372034,CH,CH02,CH021,CH0934,Oberhofen am Thunersee,2413,2.99668376,2020,CH_CH0934,official,TRUE
CH_CH0935,7.733660042129486,46.79830620620012,CH,CH02,CH021,CH0935,Oberlangenegg,462,9.16002278,2020,CH_CH0935,official,TRUE
CH_CH0936,7.536228413778195,46.72358182411676,CH,CH02,CH021,CH0936,Pohlern,255,9.92296365,2020,CH_CH0936,official,TRUE
CH_CH0937,7.664298722358088,46.767753690419795,CH,CH02,CH021,CH0937,Schwendibach,250,1.48569197,2020,CH_CH0937,official,TRUE
CH_CH0938,7.7132180689237835,46.7185929169072,CH,CH02,CH021,CH0938,Sigriswil,4833,55.89519903,2020,CH_CH0938,official,TRUE
CH_CH0939,7.629396749516226,46.773553783386596,CH,CH02,CH021,CH0939,Steffisburg,15709,13.3543297,2020,CH_CH0939,official,TRUE
CH_CH0940,7.714905924866647,46.770990459443134,CH,CH02,CH021,CH0940,Teuffenthal (BE),174,4.45558222,2020,CH_CH0940,official,TRUE
CH_CH0941,7.579316342746357,46.75178692084274,CH,CH02,CH021,CH0941,Thierachern,2428,7.55387948,2020,CH_CH0941,official,TRUE
CH_CH0942,7.619628694129747,46.74704731371584,CH,CH02,CH021,CH0942,Thun,43734,21.41167855,2020,CH_CH0942,official,TRUE
CH_CH0943,7.549710614545929,46.74096799473336,CH,CH02,CH021,CH0943,Uebeschi,673,4.31734684,2020,CH_CH0943,official,TRUE
CH_CH0944,7.583358351025214,46.77273786369146,CH,CH02,CH021,CH0944,Uetendorf,5893,10.21652861,2020,CH_CH0944,official,TRUE
CH_CH0945,7.696790880029979,46.799025760522134,CH,CH02,CH021,CH0945,Unterlangenegg,998,6.8688222,2020,CH_CH0945,official,TRUE
CH_CH0946,7.740386638147867,46.81832690424544,CH,CH02,CH021,CH0946,Wachseldorn,235,3.57981258,2020,CH_CH0946,official,TRUE
CH_CH0947,7.618662997198755,46.70869154924232,CH,CH02,CH021,CH0947,Zwieselberg,332,2.41833298,2020,CH_CH0947,official,TRUE
CH_CH0948,7.52984894409906,46.75951858689882,CH,CH02,CH021,CH0948,Forst-Längenbühl,765,4.55694104,2020,CH_CH0948,official,TRUE
CH_CH0951,7.739037767849453,47.06436658978988,CH,CH02,CH021,CH0951,Affoltern im Emmental,1101,11.54409548,2020,CH_CH0951,official,TRUE
CH_CH0952,7.790147140887581,47.08843687872177,CH,CH02,CH021,CH0952,Dürrenroth,1061,14.02339763,2020,CH_CH0952,official,TRUE
CH_CH0953,7.850219088784378,47.078948979246526,CH,CH02,CH021,CH0953,Eriswil,1396,11.36111417,2020,CH_CH0953,official,TRUE
CH_CH0954,7.84614482486425,47.116195078348134,CH,CH02,CH021,CH0954,Huttwil,4898,17.38366763,2020,CH_CH0954,official,TRUE
CH_CH0955,7.686696442284624,47.007427017401994,CH,CH02,CH021,CH0955,Lützelflüh,4147,26.84466724,2020,CH_CH0955,official,TRUE
CH_CH0956,7.665270255608561,47.02239695430727,CH,CH02,CH021,CH0956,Rüegsau,3260,15.2027843,2020,CH_CH0956,official,TRUE
CH_CH0957,7.759145456753734,47.03155568028373,CH,CH02,CH021,CH0957,Sumiswald,5045,59.18544541,2020,CH_CH0957,official,TRUE
CH_CH0958,7.766637822869264,47.01039482641211,CH,CH02,CH021,CH0958,Trachselwald,960,16.02312805,2020,CH_CH0958,official,TRUE
CH_CH0959,7.771624829733982,47.109554606007656,CH,CH02,CH021,CH0959,Walterswil (BE),538,7.88505776,2020,CH_CH0959,official,TRUE
CH_CH0960,7.825055069319481,47.07954155719046,CH,CH02,CH021,CH0960,Wyssachen,1138,11.72811638,2020,CH_CH0960,official,TRUE
CH_CH0971,7.6142891113220585,47.24767790933308,CH,CH02,CH021,CH0971,Attiswil,1505,7.62019802,2020,CH_CH0971,official,TRUE
CH_CH0972,7.7100611885473205,47.223414327680366,CH,CH02,CH021,CH0972,Berken,45,1.33505824,2020,CH_CH0972,official,TRUE
CH_CH0973,7.713777290342025,47.169733801573706,CH,CH02,CH021,CH0973,Bettenhausen,631,3.94227599,2020,CH_CH0973,official,TRUE
CH_CH0975,7.617624669187688,47.266097561917036,CH,CH02,CH021,CH0975,Farnern,202,3.753108,2020,CH_CH0975,official,TRUE
CH_CH0976,7.724009226739414,47.22089859685663,CH,CH02,CH021,CH0976,Graben,332,3.15428618,2020,CH_CH0976,official,TRUE
CH_CH0977,7.690349663429982,47.20517134793075,CH,CH02,CH021,CH0977,Heimenhausen,1143,5.86425991,2020,CH_CH0977,official,TRUE
CH_CH0979,7.705132841575114,47.18739423991084,CH,CH02,CH021,CH0979,Herzogenbuchsee,7200,9.85249314,2020,CH_CH0979,official,TRUE
CH_CH0980,7.671842001845281,47.19835047669586,CH,CH02,CH021,CH0980,Inkwil,626,3.35883567,2020,CH_CH0980,official,TRUE
CH_CH0981,7.694231232823698,47.270407250263226,CH,CH02,CH021,CH0981,Niederbipp,4715,17.44661358,2020,CH_CH0981,official,TRUE
CH_CH0982,7.6927384313986975,47.18657186322969,CH,CH02,CH021,CH0982,Niederönz,1670,2.81250811,2020,CH_CH0982,official,TRUE
CH_CH0983,7.660114091910725,47.2585710111324,CH,CH02,CH021,CH0983,Oberbipp,1767,8.62506522,2020,CH_CH0983,official,TRUE
CH_CH0985,7.728521023955256,47.14800161614836,CH,CH02,CH021,CH0985,Ochlenberg,570,12.06681016,2020,CH_CH0985,official,TRUE
CH_CH0987,7.642685368411514,47.265948405753306,CH,CH02,CH021,CH0987,Rumisberg,488,5.20193865,2020,CH_CH0987,official,TRUE
CH_CH0988,7.6759321753549745,47.14830682103525,CH,CH02,CH021,CH0988,Seeberg,1560,16.864541,2020,CH_CH0988,official,TRUE
CH_CH0989,7.725943088786006,47.17391630972792,CH,CH02,CH021,CH0989,Thörigen,1155,4.55731064,2020,CH_CH0989,official,TRUE
CH_CH0990,7.691496837956082,47.23689264423263,CH,CH02,CH021,CH0990,Walliswil bei Niederbipp,211,1.54991891,2020,CH_CH0990,official,TRUE
CH_CH0991,7.683714743074596,47.231386669268375,CH,CH02,CH021,CH0991,Walliswil bei Wangen,608,3.03180507,2020,CH_CH0991,official,TRUE
CH_CH0992,7.651816323951116,47.23078629452673,CH,CH02,CH021,CH0992,Wangen an der Aare,2312,5.33812808,2020,CH_CH0992,official,TRUE
CH_CH0993,7.65792276471281,47.22017899105176,CH,CH02,CH021,CH0993,Wangenried,425,2.87174245,2020,CH_CH0993,official,TRUE
CH_CH0995,7.644297372904533,47.24844560542304,CH,CH02,CH021,CH0995,Wiedlisbach,2377,7.42195663,2020,CH_CH0995,official,TRUE
CH_CH0996,7.657947344476865,47.27387920961392,CH,CH02,CH021,CH0996,Wolfisberg,184,2.38355199,2020,CH_CH0996,official,TRUE
CH_CH1001,8.060002369784065,47.01554600236343,CH,CH06,CH061,CH1001,Doppleschwand,782,6.98138565,2020,CH_CH1001,official,TRUE
CH_CH1002,8.066931429522818,46.99424563274073,CH,CH06,CH061,CH1002,Entlebuch,3284,56.83862722,2020,CH_CH1002,official,TRUE
CH_CH1004,8.02251607522693,46.8515615254666,CH,CH06,CH061,CH1004,Flühli,1961,108.15933861,2020,CH_CH1004,official,TRUE
CH_CH1005,8.051960905249059,46.97913403951265,CH,CH06,CH061,CH1005,Hasle (LU),1744,40.44891397,2020,CH_CH1005,official,TRUE
CH_CH1007,8.01955735615655,47.0104754650953,CH,CH06,CH061,CH1007,Romoos,666,37.20995904,2020,CH_CH1007,official,TRUE
CH_CH1008,8.015331787914002,46.95178604140542,CH,CH06,CH061,CH1008,Schüpfheim,4219,38.38370891,2020,CH_CH1008,official,TRUE
CH_CH1009,8.111440807163126,47.04106008095499,CH,CH06,CH061,CH1009,Werthenstein,2122,15.78042629,2020,CH_CH1009,official,TRUE
CH_CH1010,7.929632980492274,46.90719094695966,CH,CH06,CH061,CH1010,Escholzmatt-Marbach,4342,106.5567134,2020,CH_CH1010,official,TRUE
CH_CH1021,8.237469380257076,47.25893523040758,CH,CH06,CH061,CH1021,Aesch (LU),1246,4.58485888,2020,CH_CH1021,official,TRUE
CH_CH1022,8.251188015247374,47.2412303769314,CH,CH06,CH061,CH1022,Altwis,437,2.9492156,2020,CH_CH1022,official,TRUE
CH_CH1023,8.321512188205759,47.15296297931976,CH,CH06,CH061,CH1023,Ballwil,2764,8.74607021,2020,CH_CH1023,official,TRUE
CH_CH1024,8.27608871046619,47.079626334729106,CH,CH06,CH061,CH1024,Emmen,30929,20.12057565,2020,CH_CH1024,official,TRUE
CH_CH1025,8.240668500399696,47.224760664156975,CH,CH06,CH061,CH1025,Ermensee,990,5.66055449,2020,CH_CH1025,official,TRUE
CH_CH1026,8.32054645239516,47.132871744363094,CH,CH06,CH061,CH1026,Eschenbach (LU),3583,13.17827648,2020,CH_CH1026,official,TRUE
CH_CH1030,8.265522901497786,47.22377874614963,CH,CH06,CH061,CH1030,Hitzkirch,5316,24.79816562,2020,CH_CH1030,official,TRUE
CH_CH1031,8.292997482690346,47.16767202053553,CH,CH06,CH061,CH1031,Hochdorf,9846,9.5679203,2020,CH_CH1031,official,TRUE
CH_CH1032,8.311659692840877,47.17626815168632,CH,CH06,CH061,CH1032,Hohenrain,2415,23.32189372,2020,CH_CH1032,official,TRUE
CH_CH1033,8.349643411676588,47.12622048728876,CH,CH06,CH061,CH1033,Inwil,2620,10.15742601,2020,CH_CH1033,official,TRUE
CH_CH1037,8.25365091480584,47.125319369643094,CH,CH06,CH061,CH1037,Rain,2807,9.44020464,2020,CH_CH1037,official,TRUE
CH_CH1039,8.246267487975944,47.17003672555699,CH,CH06,CH061,CH1039,Römerswil,1789,16.60449378,2020,CH_CH1039,official,TRUE
CH_CH1040,8.269844498144161,47.097719155071836,CH,CH06,CH061,CH1040,Rothenburg,7617,15.52494816,2020,CH_CH1040,official,TRUE
CH_CH1041,8.265095134354915,47.26973608730075,CH,CH06,CH061,CH1041,Schongau,1039,12.44068524,2020,CH_CH1041,official,TRUE
CH_CH1051,8.363462114321889,47.071351061661026,CH,CH06,CH061,CH1051,Adligenswil,5391,6.95082453,2020,CH_CH1051,official,TRUE
CH_CH1052,8.348867054083728,47.095592246887506,CH,CH06,CH061,CH1052,Buchrain,6242,4.85563868,2020,CH_CH1052,official,TRUE
CH_CH1053,8.36440024329722,47.09347935102419,CH,CH06,CH061,CH1053,Dierikon,1475,2.74699773,2020,CH_CH1053,official,TRUE
CH_CH1054,8.339685886356904,47.079551481378715,CH,CH06,CH061,CH1054,Ebikon,13617,9.78460266,2020,CH_CH1054,official,TRUE
CH_CH1055,8.399882736942228,47.12705862742271,CH,CH06,CH061,CH1055,Gisikon,1387,1.0151396,2020,CH_CH1055,official,TRUE
CH_CH1056,8.428366617146217,47.055640066308335,CH,CH06,CH061,CH1056,Greppen,1118,3.307916,2020,CH_CH1056,official,TRUE
CH_CH1057,8.404261970644024,47.13052114565772,CH,CH06,CH061,CH1057,Honau,395,1.30715128,2020,CH_CH1057,official,TRUE
CH_CH1058,8.311284913300687,47.019650366708916,CH,CH06,CH061,CH1058,Horw,14109,13.15602955,2020,CH_CH1058,official,TRUE
CH_CH1059,8.2767512470695,47.03425320806993,CH,CH06,CH061,CH1059,Kriens,27444,27.30837547,2020,CH_CH1059,official,TRUE
CH_CH1061,8.304053668422618,47.050048610707385,CH,CH06,CH061,CH1061,Luzern,81691,29.47058602,2020,CH_CH1061,official,TRUE
CH_CH1062,8.180602966708792,47.036664604507266,CH,CH06,CH061,CH1062,Malters,7318,28.81069551,2020,CH_CH1062,official,TRUE
CH_CH1063,8.36925922744806,47.048025579698276,CH,CH06,CH061,CH1063,Meggen,7238,7.39708767,2020,CH_CH1063,official,TRUE
CH_CH1064,8.439525859905274,47.12134313550117,CH,CH06,CH061,CH1064,Meierskappel,1460,6.66538659,2020,CH_CH1064,official,TRUE
CH_CH1065,8.387756485684637,47.1123427528764,CH,CH06,CH061,CH1065,Root,5041,8.91866829,2020,CH_CH1065,official,TRUE
CH_CH1066,8.179741129253744,47.01541208073396,CH,CH06,CH061,CH1066,Schwarzenberg,1709,39.26982415,2020,CH_CH1066,official,TRUE
CH_CH1067,8.400865881012068,47.09097176770421,CH,CH06,CH061,CH1067,Udligenswil,2280,6.2730107,2020,CH_CH1067,official,TRUE
CH_CH1068,8.48224728426127,47.012038522102216,CH,CH06,CH061,CH1068,Vitznau,1379,9.03064762,2020,CH_CH1068,official,TRUE
CH_CH1069,8.432754408447272,47.035538502874,CH,CH06,CH061,CH1069,Weggis,4369,12.05233291,2020,CH_CH1069,official,TRUE
CH_CH1081,8.196801324889982,47.20122424440288,CH,CH06,CH061,CH1081,Beromünster,6580,42.08416785,2020,CH_CH1081,official,TRUE
CH_CH1082,8.094140046676738,47.212305547812164,CH,CH06,CH061,CH1082,Büron,2541,5.44154146,2020,CH_CH1082,official,TRUE
CH_CH1083,8.09627290632,47.11341970870072,CH,CH06,CH061,CH1083,Buttisholz,3294,16.62644815,2020,CH_CH1083,official,TRUE
CH_CH1084,8.165920374173627,47.158080004843995,CH,CH06,CH061,CH1084,Eich,1626,6.1125528,2020,CH_CH1084,official,TRUE
CH_CH1085,8.107543822659876,47.19761782589558,CH,CH06,CH061,CH1085,Geuensee,2942,6.49165982,2020,CH_CH1085,official,TRUE
CH_CH1086,8.046324100466052,47.13128411049253,CH,CH06,CH061,CH1086,Grosswangen,3241,19.71440358,2020,CH_CH1086,official,TRUE
CH_CH1088,8.227606723355006,47.15148196520794,CH,CH06,CH061,CH1088,Hildisrieden,2334,7.03864674,2020,CH_CH1088,official,TRUE
CH_CH1089,8.072001137961674,47.189123473052675,CH,CH06,CH061,CH1089,Knutwil,2229,9.75450998,2020,CH_CH1089,official,TRUE
CH_CH1091,8.068617306310813,47.17301643834769,CH,CH06,CH061,CH1091,Mauensee,1458,7.17345237,2020,CH_CH1091,official,TRUE
CH_CH1093,8.202468400744904,47.102469784923386,CH,CH06,CH061,CH1093,Neuenkirch,7065,25.39012341,2020,CH_CH1093,official,TRUE
CH_CH1094,8.135670196828062,47.13313280482779,CH,CH06,CH061,CH1094,Nottwil,3858,10.32447731,2020,CH_CH1094,official,TRUE
CH_CH1095,8.105360134925553,47.16273734687405,CH,CH06,CH061,CH1095,Oberkirch,4707,8.94685079,2020,CH_CH1095,official,TRUE
CH_CH1097,8.154608921036084,47.2291586193058,CH,CH06,CH061,CH1097,Rickenbach (LU),3366,11.92463043,2020,CH_CH1097,official,TRUE
CH_CH1098,8.122079801216241,47.084499316271355,CH,CH06,CH061,CH1098,Ruswil,6969,45.4367072,2020,CH_CH1098,official,TRUE
CH_CH1099,8.131792489859677,47.17818737315277,CH,CH06,CH061,CH1099,Schenkon,2939,6.86566643,2020,CH_CH1099,official,TRUE
CH_CH1100,8.10814121000615,47.222449046611594,CH,CH06,CH061,CH1100,Schlierbach,892,7.1216684,2020,CH_CH1100,official,TRUE
CH_CH1102,8.19689231933768,47.1331149669969,CH,CH06,CH061,CH1102,Sempach,4169,8.90927318,2020,CH_CH1102,official,TRUE
CH_CH1103,8.107232929273467,47.16994260821565,CH,CH06,CH061,CH1103,Sursee,9955,5.94588986,2020,CH_CH1103,official,TRUE
CH_CH1104,8.077630441977885,47.23638345915622,CH,CH06,CH061,CH1104,Triengen,4652,22.17807661,2020,CH_CH1104,official,TRUE
CH_CH1107,8.072906157447063,47.06260673835245,CH,CH06,CH061,CH1107,Wolhusen,4340,14.09415299,2020,CH_CH1107,official,TRUE
CH_CH1121,8.003388870297275,47.14824810336339,CH,CH06,CH061,CH1121,Alberswil,662,3.5250364,2020,CH_CH1121,official,TRUE
CH_CH1122,7.883874109300745,47.18153074508653,CH,CH06,CH061,CH1122,Altbüron,1005,6.85198542,2020,CH_CH1122,official,TRUE
CH_CH1123,7.962947047265385,47.20056189182445,CH,CH06,CH061,CH1123,Altishofen,1577,5.68743796,2020,CH_CH1123,official,TRUE
CH_CH1125,7.989737219875543,47.21285422179168,CH,CH06,CH061,CH1125,Dagmersellen,5504,23.91100165,2020,CH_CH1125,official,TRUE
CH_CH1126,7.939874730458017,47.18049303252372,CH,CH06,CH061,CH1126,Ebersecken,378,8.53868957,2020,CH_CH1126,official,TRUE
CH_CH1127,8.007032738425591,47.18377563347106,CH,CH06,CH061,CH1127,Egolzwil,1457,4.19230633,2020,CH_CH1127,official,TRUE
CH_CH1128,8.017727544422895,47.14842539595464,CH,CH06,CH061,CH1128,Ettiswil,2747,12.54970443,2020,CH_CH1128,official,TRUE
CH_CH1129,7.9112031724452345,47.152642341753605,CH,CH06,CH061,CH1129,Fischbach,711,7.96977817,2020,CH_CH1129,official,TRUE
CH_CH1130,7.969127541125939,47.13818863517742,CH,CH06,CH061,CH1130,Gettnau,1170,6.06656724,2020,CH_CH1130,official,TRUE
CH_CH1131,7.885069534437928,47.172308585197236,CH,CH06,CH061,CH1131,Grossdietwil,858,10.2983831,2020,CH_CH1131,official,TRUE
CH_CH1132,7.954056131343446,47.082709031359,CH,CH06,CH061,CH1132,Hergiswil bei Willisau,1913,31.200933590000002,2020,CH_CH1132,official,TRUE
CH_CH1135,7.914511864388746,47.06154193428966,CH,CH06,CH061,CH1135,Luthern,1275,37.84303445,2020,CH_CH1135,official,TRUE
CH_CH1136,8.041300205988462,47.08424603191034,CH,CH06,CH061,CH1136,Menznau,2879,30.38417765,2020,CH_CH1136,official,TRUE
CH_CH1137,7.976146461777975,47.192093301956874,CH,CH06,CH061,CH1137,Nebikon,2635,3.75185137,2020,CH_CH1137,official,TRUE
CH_CH1139,7.890475550100111,47.22697499549095,CH,CH06,CH061,CH1139,Pfaffnau,2678,17.63286232,2020,CH_CH1139,official,TRUE
CH_CH1140,7.972694700792435,47.244566527704556,CH,CH06,CH061,CH1140,Reiden,7132,26.95663883,2020,CH_CH1140,official,TRUE
CH_CH1142,7.882795125980183,47.21238506544966,CH,CH06,CH061,CH1142,Roggliswil,707,6.25018892,2020,CH_CH1142,official,TRUE
CH_CH1143,7.988991986974616,47.170812882878636,CH,CH06,CH061,CH1143,Schötz,4434,15.31656301,2020,CH_CH1143,official,TRUE
CH_CH1145,7.89710599628633,47.118214064480945,CH,CH06,CH061,CH1145,Ufhusen,902,12.07970541,2020,CH_CH1145,official,TRUE
CH_CH1146,8.026526849852944,47.1841374364174,CH,CH06,CH061,CH1146,Wauwil,2247,2.90948818,2020,CH_CH1146,official,TRUE
CH_CH1147,7.963885228168079,47.26637166065741,CH,CH06,CH061,CH1147,Wikon,1529,8.29746214,2020,CH_CH1147,official,TRUE
CH_CH1150,7.925233945060106,47.13714335047512,CH,CH06,CH061,CH1150,Zell (LU),2038,13.95251184,2020,CH_CH1150,official,TRUE
CH_CH1151,7.988170519292893,47.12004886458114,CH,CH06,CH061,CH1151,Willisau,7781,41.1718707,2020,CH_CH1151,official,TRUE
CH_CH1201,8.639167300158242,46.878567195804045,CH,CH06,CH062,CH1201,Altdorf (UR),9401,10.14586929,2020,CH_CH1201,official,TRUE
CH_CH1202,8.597136269522798,46.63473583811537,CH,CH06,CH062,CH1202,Andermatt,1390,62.1853463,2020,CH_CH1202,official,TRUE
CH_CH1203,8.628029940532942,46.86779972063567,CH,CH06,CH062,CH1203,Attinghausen,1725,46.67826353,2020,CH_CH1203,official,TRUE
CH_CH1204,8.576408585623938,46.93174764957758,CH,CH06,CH062,CH1204,Bauen,165,3.98234514,2020,CH_CH1204,official,TRUE
CH_CH1205,8.662099716986406,46.87622119924421,CH,CH06,CH062,CH1205,Bürglen (UR),3977,53.09761351,2020,CH_CH1205,official,TRUE
CH_CH1206,8.645596432705625,46.82369520023599,CH,CH06,CH062,CH1206,Erstfeld,3788,59.04386773,2020,CH_CH1206,official,TRUE
CH_CH1207,8.629452748575854,46.90898596524008,CH,CH06,CH062,CH1207,Flüelen,1972,12.43709406,2020,CH_CH1207,official,TRUE
CH_CH1208,8.583169338627295,46.67033597801278,CH,CH06,CH062,CH1208,Göschenen,448,104.0691319,2020,CH_CH1208,official,TRUE
CH_CH1209,8.632049090524145,46.73992288338107,CH,CH06,CH062,CH1209,Gurtnellen,540,83.52127885,2020,CH_CH1209,official,TRUE
CH_CH1210,8.571781131276685,46.616386109982386,CH,CH06,CH062,CH1210,Hospental,186,35.23279607,2020,CH_CH1210,official,TRUE
CH_CH1211,8.561781052074256,46.9130627913546,CH,CH06,CH062,CH1211,Isenthal,483,60.90732223,2020,CH_CH1211,official,TRUE
CH_CH1212,8.506564041857738,46.59745348114791,CH,CH06,CH062,CH1212,Realp,153,77.98958651,2020,CH_CH1212,official,TRUE
CH_CH1213,8.650920758291498,46.86209972247981,CH,CH06,CH062,CH1213,Schattdorf,5424,16.3795155,2020,CH_CH1213,official,TRUE
CH_CH1214,8.615804753508442,46.879437513861404,CH,CH06,CH062,CH1214,Seedorf (UR),1858,15.85957226,2020,CH_CH1214,official,TRUE
CH_CH1215,8.582634192039576,46.97028235935737,CH,CH06,CH062,CH1215,Seelisberg,661,13.45347819,2020,CH_CH1215,official,TRUE
CH_CH1216,8.674273099457324,46.786299465423824,CH,CH06,CH062,CH1216,Silenen,1949,144.67943306,2020,CH_CH1216,official,TRUE
CH_CH1217,8.624185417504247,46.949410800901006,CH,CH06,CH062,CH1217,Sisikon,369,16.76680816,2020,CH_CH1217,official,TRUE
CH_CH1218,8.72821658192323,46.875178002789866,CH,CH06,CH062,CH1218,Spiringen,849,64.606692,2020,CH_CH1218,official,TRUE
CH_CH1219,8.772258581299203,46.86307412063249,CH,CH06,CH062,CH1219,Unterschächen,697,80.10285495,2020,CH_CH1219,official,TRUE
CH_CH1220,8.594661047366701,46.707227787205696,CH,CH06,CH062,CH1220,Wassen,398,96.79150714,2020,CH_CH1220,official,TRUE
CH_CH1301,8.745056682471382,47.1280944061372,CH,CH06,CH063,CH1301,Einsiedeln,15870,99.36238154,2020,CH_CH1301,official,TRUE
CH_CH1311,8.522818963869511,46.99403941524747,CH,CH06,CH063,CH1311,Gersau,2319,14.46604387,2020,CH_CH1311,official,TRUE
CH_CH1321,8.721056859671117,47.17927592818243,CH,CH06,CH063,CH1321,Feusisberg,5263,17.65876738,2020,CH_CH1321,official,TRUE
CH_CH1322,8.755186723024481,47.199115940107596,CH,CH06,CH063,CH1322,Freienbach,16391,13.96753791,2020,CH_CH1322,official,TRUE
CH_CH1323,8.714565118171993,47.19471433529123,CH,CH06,CH063,CH1323,Wollerau,7255,6.41111222,2020,CH_CH1323,official,TRUE
CH_CH1331,8.441269703812289,47.08169675346819,CH,CH06,CH063,CH1331,Küssnacht (SZ),13087,30.08429889,2020,CH_CH1331,official,TRUE
CH_CH1341,8.836004919260999,47.18789424439328,CH,CH06,CH063,CH1341,Altendorf,7083,20.55598698,2020,CH_CH1341,official,TRUE
CH_CH1342,8.875164461112389,47.17843226256585,CH,CH06,CH063,CH1342,Galgenen,5211,13.41475312,2020,CH_CH1342,official,TRUE
CH_CH1343,8.91707604909548,47.10468302889278,CH,CH06,CH063,CH1343,Innerthal,173,49.88626497,2020,CH_CH1343,official,TRUE
CH_CH1344,8.858423604191298,47.194174617036005,CH,CH06,CH063,CH1344,Lachen,8752,2.57764429,2020,CH_CH1344,official,TRUE
CH_CH1345,8.97873494819554,47.170239362109825,CH,CH06,CH063,CH1345,Reichenburg,3750,11.54658012,2020,CH_CH1345,official,TRUE
CH_CH1346,8.91950556138521,47.17540806522563,CH,CH06,CH063,CH1346,Schübelbach,9250,28.46268795,2020,CH_CH1346,official,TRUE
CH_CH1347,8.942399626400661,47.20370180321338,CH,CH06,CH063,CH1347,Tuggen,3310,14.00718913,2020,CH_CH1347,official,TRUE
CH_CH1348,8.899838494237194,47.124759062565005,CH,CH06,CH063,CH1348,Vorderthal,1015,27.86801129,2020,CH_CH1348,official,TRUE
CH_CH1349,8.897480329199423,47.184222125750885,CH,CH06,CH063,CH1349,Wangen (SZ),5054,8.47871311,2020,CH_CH1349,official,TRUE
CH_CH1361,8.711826520952304,47.0573325769639,CH,CH06,CH063,CH1361,Alpthal,616,22.8250784,2020,CH_CH1361,official,TRUE
CH_CH1362,8.543906366508931,47.05145385543515,CH,CH06,CH063,CH1362,Arth,11985,43.096147,2020,CH_CH1362,official,TRUE
CH_CH1363,8.730091838340979,46.98817010671206,CH,CH06,CH063,CH1363,Illgau,802,10.63254214,2020,CH_CH1363,official,TRUE
CH_CH1364,8.605648754557613,46.998822096694234,CH,CH06,CH063,CH1364,Ingenbohl,8913,13.54810648,2020,CH_CH1364,official,TRUE
CH_CH1365,8.586240076789034,47.0308653579523,CH,CH06,CH063,CH1365,Lauerz,1100,9.41981245,2020,CH_CH1365,official,TRUE
CH_CH1366,8.621490569937828,46.980196925144746,CH,CH06,CH063,CH1366,Morschach,1159,21.05339898,2020,CH_CH1366,official,TRUE
CH_CH1367,8.752904425673224,46.97727703516926,CH,CH06,CH063,CH1367,Muotathal,3527,171.81118351,2020,CH_CH1367,official,TRUE
CH_CH1368,8.782915356419299,47.041850720119314,CH,CH06,CH063,CH1368,Oberiberg,902,32.95416228,2020,CH_CH1368,official,TRUE
CH_CH1369,8.665757015188046,46.950770002758965,CH,CH06,CH063,CH1369,Riemenstalden,90,11.11068689,2020,CH_CH1369,official,TRUE
CH_CH1370,8.676906736480174,47.10436785729959,CH,CH06,CH063,CH1370,Rothenthurm,2411,22.88986651,2020,CH_CH1370,official,TRUE
CH_CH1371,8.634232250601126,47.08197641356419,CH,CH06,CH063,CH1371,Sattel,1938,17.28981626,2020,CH_CH1371,official,TRUE
CH_CH1372,8.648477711165627,47.01974712524024,CH,CH06,CH063,CH1372,Schwyz,15181,53.39735505,2020,CH_CH1372,official,TRUE
CH_CH1373,8.612313452233787,47.049145605843215,CH,CH06,CH063,CH1373,Steinen,3417,11.6488315,2020,CH_CH1373,official,TRUE
CH_CH1374,8.586021848404021,47.05758690455667,CH,CH06,CH063,CH1374,Steinerberg,946,6.94944775,2020,CH_CH1374,official,TRUE
CH_CH1375,8.801626551313136,47.06102649906062,CH,CH06,CH063,CH1375,Unteriberg,2395,46.76959865,2020,CH_CH1375,official,TRUE
CH_CH1401,8.270369270573296,46.938362264350566,CH,CH06,CH064,CH1401,Alpnach,6031,54.2833761,2020,CH_CH1401,official,TRUE
CH_CH1402,8.406103124074175,46.8201645245795,CH,CH06,CH064,CH1402,Engelberg,4181,74.9214362,2020,CH_CH1402,official,TRUE
CH_CH1403,8.177994035772551,46.83848977456615,CH,CH06,CH064,CH1403,Giswil,3658,86.0120388,2020,CH_CH1403,official,TRUE
CH_CH1404,8.27646454678799,46.90057056116927,CH,CH06,CH064,CH1404,Kerns,6337,92.31665485,2020,CH_CH1404,official,TRUE
CH_CH1405,8.158382771888286,46.785689658177134,CH,CH06,CH064,CH1405,Lungern,2120,46.6824406,2020,CH_CH1405,official,TRUE
CH_CH1406,8.238186234904632,46.864970610528346,CH,CH06,CH064,CH1406,Sachseln,5146,54.30310084,2020,CH_CH1406,official,TRUE
CH_CH1407,8.247107708312678,46.89730882203814,CH,CH06,CH064,CH1407,Sarnen,10368,73.34220404,2020,CH_CH1407,official,TRUE
CH_CH1501,8.46799430723665,46.966053418842094,CH,CH06,CH065,CH1501,Beckenried,3672,24.68564293,2020,CH_CH1501,official,TRUE
CH_CH1502,8.41782832342114,46.97445239427927,CH,CH06,CH065,CH1502,Buochs,5311,10.07121868,2020,CH_CH1502,official,TRUE
CH_CH1503,8.391747098398596,46.9265435504219,CH,CH06,CH065,CH1503,Dallenwil,1846,15.41150774,2020,CH_CH1503,official,TRUE
CH_CH1504,8.511567798498897,46.957765059893035,CH,CH06,CH065,CH1504,Emmetten,1429,25.09249275,2020,CH_CH1504,official,TRUE
CH_CH1505,8.407653497821604,46.98360788531124,CH,CH06,CH065,CH1505,Ennetbürgen,4801,9.46220966,2020,CH_CH1505,official,TRUE
CH_CH1506,8.331397712176672,46.95134284961398,CH,CH06,CH065,CH1506,Ennetmoos,2193,14.05238272,2020,CH_CH1506,official,TRUE
CH_CH1507,8.311512827918962,46.9895136033936,CH,CH06,CH065,CH1507,Hergiswil (NW),5777,14.96038639,2020,CH_CH1507,official,TRUE
CH_CH1508,8.3872089702768875,46.948547259571825,CH,CH06,CH065,CH1508,Oberdorf (NW),3124,16.03932809,2020,CH_CH1508,official,TRUE
CH_CH1509,8.363394445485886,46.963393892150926,CH,CH06,CH065,CH1509,Stans,8393,11.23147881,2020,CH_CH1509,official,TRUE
CH_CH1510,8.339365366949961,46.97365470674213,CH,CH06,CH065,CH1510,Stansstad,4580,9.34331579,2020,CH_CH1510,official,TRUE
CH_CH1511,8.396070289148641,46.90891914612962,CH,CH06,CH065,CH1511,Wolfenschiessen,2097,92.93770345,2020,CH_CH1511,official,TRUE
CH_CH1630,9.062681678695457,47.10854780012115,CH,CH05,CH051,CH1630,Glarus Nord,18483,147.43788801,2020,CH_CH1630,official,TRUE
CH_CH1631,9.067484097023065,46.98277147940011,CH,CH05,CH051,CH1631,Glarus Süd,9494,430.69865961,2020,CH_CH1631,official,TRUE
CH_CH1632,9.066244643771704,47.04443351651994,CH,CH05,CH051,CH1632,Glarus,12426,103.66904246,2020,CH_CH1632,official,TRUE
CH_CH1701,8.52626698288326,47.19234003452585,CH,CH06,CH066,CH1701,Baar,24468,24.90519284,2020,CH_CH1701,official,TRUE
CH_CH1702,8.457092506535462,47.18354673100016,CH,CH06,CH066,CH1702,Cham,16723,17.83110435,2020,CH_CH1702,official,TRUE
CH_CH1703,8.433226328363135,47.17608013976614,CH,CH06,CH066,CH1703,Hünenberg,8808,18.48511023,2020,CH_CH1703,official,TRUE
CH_CH1704,8.591326529519243,47.176233014547186,CH,CH06,CH066,CH1704,Menzingen,4539,27.55480911,2020,CH_CH1704,official,TRUE
CH_CH1705,8.573957151739412,47.202116240066616,CH,CH06,CH066,CH1705,Neuheim,2257,7.92986299,2020,CH_CH1705,official,TRUE
CH_CH1706,8.613789459504204,47.13828335544797,CH,CH06,CH066,CH1706,Oberägeri,6081,30.58312618,2020,CH_CH1706,official,TRUE
CH_CH1707,8.427868829315305,47.14017120167713,CH,CH06,CH066,CH1707,Risch,10862,15.18944249,2020,CH_CH1707,official,TRUE
CH_CH1708,8.488757447557326,47.193218966373934,CH,CH06,CH066,CH1708,Steinhausen,10026,4.97144012,2020,CH_CH1708,official,TRUE
CH_CH1709,8.579681031719883,47.138096886585785,CH,CH06,CH066,CH1709,Unterägeri,8868,25.84110133,2020,CH_CH1709,official,TRUE
CH_CH1710,8.518754271402903,47.10208860804848,CH,CH06,CH066,CH1710,Walchwil,3663,13.78737223,2020,CH_CH1710,official,TRUE
CH_CH1711,8.514033927581076,47.172761952938494,CH,CH06,CH066,CH1711,Zug,30542,22.30957219,2020,CH_CH1711,official,TRUE
CH_CH2008,6.828368197247696,46.831350199456516,CH,CH02,CH022,CH2008,Châtillon (FR),466,1.24426707,2020,CH_CH2008,official,TRUE
CH_CH2009,6.839834553117703,46.7513015917476,CH,CH02,CH022,CH2009,Cheiry,416,6.51593323,2020,CH_CH2009,official,TRUE
CH_CH2011,6.889134175793072,46.8147450148391,CH,CH02,CH022,CH2011,Cugy (FR),1752,9.82628329,2020,CH_CH2011,official,TRUE
CH_CH2016,6.916794346255935,46.79792594060791,CH,CH02,CH022,CH2016,Fétigny,1060,4.0939866,2020,CH_CH2016,official,TRUE
CH_CH2022,6.937421725864047,46.898777689227536,CH,CH02,CH022,CH2022,Gletterens,1071,3.02194417,2020,CH_CH2022,official,TRUE
CH_CH2025,6.845631057650112,46.83295207368546,CH,CH02,CH022,CH2025,Lully (FR),1141,5.51584989,2020,CH_CH2025,official,TRUE
CH_CH2027,6.878655562068154,46.7832981476629,CH,CH02,CH022,CH2027,Ménières,439,4.37331175,2020,CH_CH2027,official,TRUE
CH_CH2029,6.982337754054837,46.81470369020502,CH,CH02,CH022,CH2029,Montagny (FR),2634,17.47100315,2020,CH_CH2029,official,TRUE
CH_CH2035,6.835834658196829,46.78625404727555,CH,CH02,CH022,CH2035,Nuvilly,426,3.99543414,2020,CH_CH2035,official,TRUE
CH_CH2038,6.7937700303343025,46.73124111771134,CH,CH02,CH022,CH2038,Prévondavaux,65,1.82553887,2020,CH_CH2038,official,TRUE
CH_CH2041,6.980149278641323,46.88993714945934,CH,CH02,CH022,CH2041,Saint-Aubin (FR),1801,7.85685243,2020,CH_CH2041,official,TRUE
CH_CH2043,6.8702018054954905,46.84145013570742,CH,CH02,CH022,CH2043,Sévaz,289,2.39566037,2020,CH_CH2043,official,TRUE
CH_CH2044,6.864440674124001,46.746478108515426,CH,CH02,CH022,CH2044,Surpierre,708,8.35334054,2020,CH_CH2044,official,TRUE
CH_CH2045,6.951924605456679,46.880276670341175,CH,CH02,CH022,CH2045,Vallon,447,3.51641052,2020,CH_CH2045,official,TRUE
CH_CH2050,6.855568990736099,46.805422479296006,CH,CH02,CH022,CH2050,Les Montets,1474,10.28742115,2020,CH_CH2050,official,TRUE
CH_CH2051,6.9570573728508815,46.9145277002624,CH,CH02,CH022,CH2051,Delley-Portalban,1148,7.30085223,2020,CH_CH2051,official,TRUE
CH_CH2053,7.013089962226826,46.86097231771236,CH,CH02,CH022,CH2053,Belmont-Broye,5521,25.82341595,2020,CH_CH2053,official,TRUE
CH_CH2054,6.853613216138223,46.8482878795317,CH,CH02,CH022,CH2054,Estavayer,9716,40.60631368,2020,CH_CH2054,official,TRUE
CH_CH2055,6.793887018672143,46.817435080576246,CH,CH02,CH022,CH2055,Cheyres-Châbles,2320,9.85396013,2020,CH_CH2055,official,TRUE
CH_CH2061,6.802123520371357,46.58098100720687,CH,CH02,CH022,CH2061,Auboranges,289,1.90238752,2020,CH_CH2061,official,TRUE
CH_CH2063,6.897597428610622,46.68950597176711,CH,CH02,CH022,CH2063,Billens-Hennens,772,4.85456726,2020,CH_CH2063,official,TRUE
CH_CH2066,6.83800263488027,46.58623500703577,CH,CH02,CH022,CH2066,Chapelle (Glâne),291,2.08332221,2020,CH_CH2066,official,TRUE
CH_CH2067,6.984243608704099,46.67819481265457,CH,CH02,CH022,CH2067,Le Châtelard,372,7.5295511,2020,CH_CH2067,official,TRUE
CH_CH2068,6.935738137575982,46.75346742766741,CH,CH02,CH022,CH2068,Châtonnaye,846,6.38685718,2020,CH_CH2068,official,TRUE
CH_CH2072,6.810139978242347,46.609446010026645,CH,CH02,CH022,CH2072,Ecublens (FR),339,4.92174726,2020,CH_CH2072,official,TRUE
CH_CH2079,6.965045473129187,46.679919133145034,CH,CH02,CH022,CH2079,Grangettes,212,3.25030489,2020,CH_CH2079,official,TRUE
CH_CH2086,6.975055640617641,46.70016743361946,CH,CH02,CH022,CH2086,Massonnens,527,4.24524366,2020,CH_CH2086,official,TRUE
CH_CH2087,6.926299803922296,46.67979690629543,CH,CH02,CH022,CH2087,Mézières (FR),1045,8.94567823,2020,CH_CH2087,official,TRUE
CH_CH2089,6.819115091628855,46.641890407966244,CH,CH02,CH022,CH2089,Montet (Glâne),385,2.19706141,2020,CH_CH2089,official,TRUE
CH_CH2096,6.912359042818011,46.69122072877884,CH,CH02,CH022,CH2096,Romont (FR),5280,10.78702363,2020,CH_CH2096,official,TRUE
CH_CH2097,6.823629342905951,46.61250421243652,CH,CH02,CH022,CH2097,Rue,1526,11.18091967,2020,CH_CH2097,official,TRUE
CH_CH2099,6.8865737646594845,46.65454799092346,CH,CH02,CH022,CH2099,Siviriez,2239,20.30419821,2020,CH_CH2099,official,TRUE
CH_CH2102,6.838787578998982,46.63211811055194,CH,CH02,CH022,CH2102,Ursy,3198,14.90643186,2020,CH_CH2102,official,TRUE
CH_CH2111,6.960460548311264,46.719246901606226,CH,CH02,CH022,CH2111,Villaz-Saint-Pierre,1305,5.61600091,2020,CH_CH2111,official,TRUE
CH_CH2113,6.929285591691989,46.65043613612153,CH,CH02,CH022,CH2113,Vuisternens-devant-Romont,2324,24.05012653,2020,CH_CH2113,official,TRUE
CH_CH2114,7.0009330793406255,46.70752010987594,CH,CH02,CH022,CH2114,Villorsonnens,1441,15.45740472,2020,CH_CH2114,official,TRUE
CH_CH2115,6.961217202742548,46.77225208213457,CH,CH02,CH022,CH2115,Torny,964,10.1514122,2020,CH_CH2115,official,TRUE
CH_CH2116,6.960574411720475,46.73697244439709,CH,CH02,CH022,CH2116,La Folliaz,982,9.8729103,2020,CH_CH2116,official,TRUE
CH_CH2121,7.0546981873627015,46.5110866581306,CH,CH02,CH022,CH2121,Haut-Intyamon,1542,60.18851044,2020,CH_CH2121,official,TRUE
CH_CH2122,7.079703645523022,46.68210070020695,CH,CH02,CH022,CH2122,Pont-en-Ogoz,1824,10.00711933,2020,CH_CH2122,official,TRUE
CH_CH2123,7.1103544075932845,46.618856345657456,CH,CH02,CH022,CH2123,Botterens,577,4.25069895,2020,CH_CH2123,official,TRUE
CH_CH2124,7.099081354409989,46.60472695060879,CH,CH02,CH022,CH2124,Broc,2651,9.9507472,2020,CH_CH2124,official,TRUE
CH_CH2125,7.058375442024435,46.61826878168021,CH,CH02,CH022,CH2125,Bulle,23439,23.85480657,2020,CH_CH2125,official,TRUE
CH_CH2128,7.124978587032831,46.614507886431305,CH,CH02,CH022,CH2128,Châtel-sur-Montsalvens,286,1.98736354,2020,CH_CH2128,official,TRUE
CH_CH2129,7.108007221289982,46.65624313628718,CH,CH02,CH022,CH2129,Corbières,898,9.62496211,2020,CH_CH2129,official,TRUE
CH_CH2130,7.14389571502368,46.621064871916495,CH,CH02,CH022,CH2130,Crésuz,382,1.77540343,2020,CH_CH2130,official,TRUE
CH_CH2131,7.0734028972917,46.64763229668082,CH,CH02,CH022,CH2131,Echarlens,840,4.63503108,2020,CH_CH2131,official,TRUE
CH_CH2134,7.087908964765027,46.54129912038219,CH,CH02,CH022,CH2134,Grandvillard,844,24.32810796,2020,CH_CH2134,official,TRUE
CH_CH2135,7.0772979715519195,46.58339798133903,CH,CH02,CH022,CH2135,Gruyères,2200,28.41022533,2020,CH_CH2135,official,TRUE
CH_CH2137,7.109169441468046,46.66943672874662,CH,CH02,CH022,CH2137,Hauteville,672,10.52726729,2020,CH_CH2137,official,TRUE
CH_CH2138,7.271419962426255,46.60782883017037,CH,CH02,CH022,CH2138,Jaun,644,55.23424086,2020,CH_CH2138,official,TRUE
CH_CH2140,7.0616157190045366,46.65752456411172,CH,CH02,CH022,CH2140,Marsens,1909,7.72570009,2020,CH_CH2140,official,TRUE
CH_CH2143,7.083982972464567,46.62265292800799,CH,CH02,CH022,CH2143,Morlon,615,2.46121998,2020,CH_CH2143,official,TRUE
CH_CH2145,7.058784040028516,46.59472923400875,CH,CH02,CH022,CH2145,Le Pâquier (FR),1344,4.47270894,2020,CH_CH2145,official,TRUE
CH_CH2147,7.115305002610234,46.70212936820344,CH,CH02,CH022,CH2147,Pont-la-Ville,601,4.4471342,2020,CH_CH2147,official,TRUE
CH_CH2148,7.0585139141764035,46.63998415171466,CH,CH02,CH022,CH2148,Riaz,2781,7.69118307,2020,CH_CH2148,official,TRUE
CH_CH2149,7.1375261502839615,46.69657682127874,CH,CH02,CH022,CH2149,La Roche,1711,24.05936433,2020,CH_CH2149,official,TRUE
CH_CH2152,6.981720282910682,46.63922830261485,CH,CH02,CH022,CH2152,Sâles,1463,18.74931122,2020,CH_CH2152,official,TRUE
CH_CH2153,7.054917346940383,46.667655509187895,CH,CH02,CH022,CH2153,Sorens,1098,8.71365861,2020,CH_CH2153,official,TRUE
CH_CH2155,6.99088274421904,46.61984831588821,CH,CH02,CH022,CH2155,Vaulruz,1063,10.18023607,2020,CH_CH2155,official,TRUE
CH_CH2160,7.018433626263698,46.61720991852436,CH,CH02,CH022,CH2160,Vuadens,2405,10.43266874,2020,CH_CH2160,official,TRUE
CH_CH2162,7.088843686942379,46.566308702739775,CH,CH02,CH022,CH2162,Bas-Intyamon,1454,33.15543948,2020,CH_CH2162,official,TRUE
CH_CH2163,7.1630159853371556,46.62300315130375,CH,CH02,CH022,CH2163,Val-de-Charmey,2483,112.14393781,2020,CH_CH2163,official,TRUE
CH_CH2171,7.1201559024459105,46.74845118333482,CH,CH02,CH022,CH2171,Arconciel,949,6.17075813,2020,CH_CH2171,official,TRUE
CH_CH2173,7.025173751899106,46.73817530593095,CH,CH02,CH022,CH2173,Autigny,796,6.14996036,2020,CH_CH2173,official,TRUE
CH_CH2174,7.066162156514107,46.78633644936657,CH,CH02,CH022,CH2174,Avry,1921,5.92158274,2020,CH_CH2174,official,TRUE
CH_CH2175,7.103360398458525,46.82099003857091,CH,CH02,CH022,CH2175,Belfaux,3283,8.89605016,2020,CH_CH2175,official,TRUE
CH_CH2177,6.998887404529153,46.745406969071645,CH,CH02,CH022,CH2177,Chénens,856,4.01014919,2020,CH_CH2177,official,TRUE
CH_CH2183,7.1032784289672115,46.80980385460419,CH,CH02,CH022,CH2183,Corminboeuf,2696,7.17284001,2020,CH_CH2183,official,TRUE
CH_CH2185,6.996356130568941,46.77317471661292,CH,CH02,CH022,CH2185,Corserey,419,3.33532038,2020,CH_CH2185,official,TRUE
CH_CH2186,7.0368792246238066,46.75569221047973,CH,CH02,CH022,CH2186,Cottens (FR),1509,4.92563922,2020,CH_CH2186,official,TRUE
CH_CH2189,7.150145923379119,46.75573698366341,CH,CH02,CH022,CH2189,Ependes (FR),1089,5.57426108,2020,CH_CH2189,official,TRUE
CH_CH2194,7.168127099035306,46.748843682267804,CH,CH02,CH022,CH2194,Ferpicloz,273,1.02935109,2020,CH_CH2194,official,TRUE
CH_CH2196,7.156077752687311,46.80360085586608,CH,CH02,CH022,CH2196,Fribourg,38365,9.29976847,2020,CH_CH2196,official,TRUE
CH_CH2197,7.132679027292658,46.81309286013579,CH,CH02,CH022,CH2197,Givisiez,3166,3.40417394,2020,CH_CH2197,official,TRUE
CH_CH2198,7.145307782139434,46.82042471382135,CH,CH02,CH022,CH2198,Granges-Paccot,3750,4.03423818,2020,CH_CH2198,official,TRUE
CH_CH2200,7.061596043086432,46.83036384281264,CH,CH02,CH022,CH2200,Grolley,1921,5.37593388,2020,CH_CH2200,official,TRUE
CH_CH2206,7.155581737339583,46.78120408677036,CH,CH02,CH022,CH2206,Marly,8193,7.80928606,2020,CH_CH2206,official,TRUE
CH_CH2208,7.098933950191703,46.78486089486514,CH,CH02,CH022,CH2208,Matran,1521,2.91237328,2020,CH_CH2208,official,TRUE
CH_CH2211,7.065191656560399,46.76745806390526,CH,CH02,CH022,CH2211,Neyruz (FR),2567,5.53408733,2020,CH_CH2211,official,TRUE
CH_CH2213,7.027119109360477,46.80115588103158,CH,CH02,CH022,CH2213,Noréaz,717,6.83514516,2020,CH_CH2213,official,TRUE
CH_CH2216,7.171379795303088,46.77976900051406,CH,CH02,CH022,CH2216,Pierrafortscha,156,4.98416528,2020,CH_CH2216,official,TRUE
CH_CH2217,7.051155564324383,46.82052489881796,CH,CH02,CH022,CH2217,Ponthaux,745,5.91247348,2020,CH_CH2217,official,TRUE
CH_CH2220,7.181565314559083,46.74589855708583,CH,CH02,CH022,CH2220,Le Mouret,3154,18.3774037,2020,CH_CH2220,official,TRUE
CH_CH2221,7.013328849479257,46.78259279072475,CH,CH02,CH022,CH2221,Prez-vers-Noréaz,1100,5.7466401,2020,CH_CH2221,official,TRUE
CH_CH2225,7.14259187477008,46.74105956006121,CH,CH02,CH022,CH2225,Senèdes,160,0.52022414,2020,CH_CH2225,official,TRUE
CH_CH2226,7.137402286942183,46.72708431152162,CH,CH02,CH022,CH2226,Treyvaux,1470,11.42989847,2020,CH_CH2226,official,TRUE
CH_CH2228,7.12719110839199,46.79610630985092,CH,CH02,CH022,CH2228,Villars-sur-Glâne,12094,5.63198134,2020,CH_CH2228,official,TRUE
CH_CH2230,7.1678755744966,46.76532094863983,CH,CH02,CH022,CH2230,Villarsel-sur-Marly,84,1.42229456,2020,CH_CH2230,official,TRUE
CH_CH2233,7.092064643646189,46.76128188791932,CH,CH02,CH022,CH2233,Hauterive (FR),2498,11.95850529,2020,CH_CH2233,official,TRUE
CH_CH2234,7.023640836400372,46.769237317873305,CH,CH02,CH022,CH2234,La Brillaz,2046,10.34813496,2020,CH_CH2234,official,TRUE
CH_CH2235,7.119113784626478,46.83193499577146,CH,CH02,CH022,CH2235,La Sonnaz,1190,6.98252456,2020,CH_CH2235,official,TRUE
CH_CH2236,7.075612447652838,46.72172702494961,CH,CH02,CH022,CH2236,Gibloux,7448,36.04465534,2020,CH_CH2236,official,TRUE
CH_CH2250,7.107304386249576,46.911601469033016,CH,CH02,CH022,CH2250,Courgevaux,1420,3.35495302,2020,CH_CH2250,official,TRUE
CH_CH2254,7.123261463252219,46.86578354617201,CH,CH02,CH022,CH2254,Courtepin,5454,21.91789445,2020,CH_CH2254,official,TRUE
CH_CH2257,7.144833071145953,46.90234598504133,CH,CH02,CH022,CH2257,Cressier (FR),1002,4.20075561,2020,CH_CH2257,official,TRUE
CH_CH2258,7.207901844636059,46.995035831137756,CH,CH02,CH022,CH2258,Fräschels,464,3.22940066,2020,CH_CH2258,official,TRUE
CH_CH2259,7.1577589303457305,46.948684369522994,CH,CH02,CH022,CH2259,Galmiz,679,9.14207343,2020,CH_CH2259,official,TRUE
CH_CH2260,7.198278151135898,46.94111587979821,CH,CH02,CH022,CH2260,Gempenach,289,1.64820486,2020,CH_CH2260,official,TRUE
CH_CH2261,7.092014702409733,46.911182630448785,CH,CH02,CH022,CH2261,Greng,174,0.98058275,2020,CH_CH2261,official,TRUE
CH_CH2262,7.168046669720702,46.889975213922504,CH,CH02,CH022,CH2262,Gurmels,4352,17.29493266,2020,CH_CH2262,official,TRUE
CH_CH2265,7.1984168052846025,46.97540722017071,CH,CH02,CH022,CH2265,Kerzers,4970,12.12193941,2020,CH_CH2265,official,TRUE
CH_CH2266,7.200284043213738,46.88920558490579,CH,CH02,CH022,CH2266,Kleinbösingen,693,2.93750291,2020,CH_CH2266,official,TRUE
CH_CH2271,7.105730916327459,46.92256093028454,CH,CH02,CH022,CH2271,Meyriez,565,0.3450179,2020,CH_CH2271,official,TRUE
CH_CH2272,7.076430091992212,46.857018138143566,CH,CH02,CH022,CH2272,Misery-Courtion,2044,11.35997019,2020,CH_CH2272,official,TRUE
CH_CH2274,7.1320743260268085,46.93899027131241,CH,CH02,CH022,CH2274,Muntelier,972,1.24907548,2020,CH_CH2274,official,TRUE
CH_CH2275,7.1203964604261145,46.92444705290576,CH,CH02,CH022,CH2275,Murten,8279,24.76421452,2020,CH_CH2275,official,TRUE
CH_CH2276,7.185025953316174,46.95855248599925,CH,CH02,CH022,CH2276,Ried bei Kerzers,1183,7.54842324,2020,CH_CH2276,official,TRUE
CH_CH2278,7.19814425310373,46.9318384287312,CH,CH02,CH022,CH2278,Ulmiz,441,2.8066642,2020,CH_CH2278,official,TRUE
CH_CH2284,7.112109076812916,46.96351104206383,CH,CH02,CH022,CH2284,Mont-Vully,3819,17.4787553,2020,CH_CH2284,official,TRUE
CH_CH2291,7.257868414007762,46.797758732627955,CH,CH02,CH022,CH2291,Alterswil,2028,16.04038788,2020,CH_CH2291,official,TRUE
CH_CH2292,7.278596240717718,46.757547216384395,CH,CH02,CH022,CH2292,Brünisried,645,3.22473971,2020,CH_CH2292,official,TRUE
CH_CH2293,7.190319653736602,46.84124960375734,CH,CH02,CH022,CH2293,Düdingen,7964,30.66176438,2020,CH_CH2293,official,TRUE
CH_CH2294,7.209743102890522,46.76077536378425,CH,CH02,CH022,CH2294,Giffers,1634,5.25930939,2020,CH_CH2294,official,TRUE
CH_CH2295,7.233932928201307,46.895538250625435,CH,CH02,CH022,CH2295,Bösingen,3408,14.36562157,2020,CH_CH2295,official,TRUE
CH_CH2296,7.305037352164407,46.827190410742254,CH,CH02,CH022,CH2296,Heitenried,1403,9.15576079,2020,CH_CH2296,official,TRUE
CH_CH2299,7.285310668579598,46.7368977936145,CH,CH02,CH022,CH2299,Plaffeien,3594,66.4572596,2020,CH_CH2299,official,TRUE
CH_CH2300,7.248304432076825,46.73441461581501,CH,CH02,CH022,CH2300,Plasselb,1048,18.11870622,2020,CH_CH2300,official,TRUE
CH_CH2301,7.242135699976507,46.76927857312932,CH,CH02,CH022,CH2301,Rechthalten,1103,7.32025793,2020,CH_CH2301,official,TRUE
CH_CH2302,7.265259912006387,46.82222940084758,CH,CH02,CH022,CH2302,St. Antoni,2076,16.70749565,2020,CH_CH2302,official,TRUE
CH_CH2303,7.220009819253678,46.74371693303935,CH,CH02,CH022,CH2303,St. Silvester,958,7.12403494,2020,CH_CH2303,official,TRUE
CH_CH2304,7.212360053046392,46.790952647524236,CH,CH02,CH022,CH2304,St. Ursen,1345,15.88606083,2020,CH_CH2304,official,TRUE
CH_CH2305,7.247743509415587,46.85489707473224,CH,CH02,CH022,CH2305,Schmitten (FR),4035,13.53036476,2020,CH_CH2305,official,TRUE
CH_CH2306,7.209157824333476,46.812949921334,CH,CH02,CH022,CH2306,Tafers,3450,8.42333296,2020,CH_CH2306,official,TRUE
CH_CH2307,7.194430637173732,46.76927402472966,CH,CH02,CH022,CH2307,Tentlingen,1345,3.71622451,2020,CH_CH2307,official,TRUE
CH_CH2308,7.322102912359451,46.87073460453714,CH,CH02,CH022,CH2308,Ueberstorf,2375,15.97282714,2020,CH_CH2308,official,TRUE
CH_CH2309,7.297162784975868,46.88040209416731,CH,CH02,CH022,CH2309,Wünnewil-Flamatt,5579,13.45581254,2020,CH_CH2309,official,TRUE
CH_CH2321,6.854431305515524,46.5106111633165,CH,CH02,CH022,CH2321,Attalens,3521,9.81266546,2020,CH_CH2321,official,TRUE
CH_CH2323,6.854107621095875,46.52581164331557,CH,CH02,CH022,CH2323,Bossonnens,1505,4.08656259,2020,CH_CH2323,official,TRUE
CH_CH2325,6.904205038941306,46.526540844160614,CH,CH02,CH022,CH2325,Châtel-Saint-Denis,6971,47.92239135,2020,CH_CH2325,official,TRUE
CH_CH2328,6.828827536422328,46.52490499810569,CH,CH02,CH022,CH2328,Granges (Veveyse),880,4.48013022,2020,CH_CH2328,official,TRUE
CH_CH2333,6.883069132747698,46.52774665186125,CH,CH02,CH022,CH2333,Remaufens,1140,5.93677033,2020,CH_CH2333,official,TRUE
CH_CH2335,6.876006686985021,46.58241212642491,CH,CH02,CH022,CH2335,Saint-Martin (FR),1005,9.89289711,2020,CH_CH2335,official,TRUE
CH_CH2336,6.930050830749678,46.57301258507889,CH,CH02,CH022,CH2336,Semsales,1413,29.5212302,2020,CH_CH2336,official,TRUE
CH_CH2337,6.866006620276817,46.5999218049155,CH,CH02,CH022,CH2337,Le Flon,1208,9.50903444,2020,CH_CH2337,official,TRUE
CH_CH2338,6.916120722769873,46.59539397396345,CH,CH02,CH022,CH2338,La Verrerie,1188,13.40657062,2020,CH_CH2338,official,TRUE
CH_CH2391,7.178377631491956,46.908283129621246,CH,CH02,CH022,CH2391,Staatswald Galm,NA,2.54226361,2020,CH_CH2391,geo,TRUE
CH_CH2401,7.797270144812813,47.323437641651104,CH,CH02,CH023,CH2401,Egerkingen,3683,6.83437916,2020,CH_CH2401,official,TRUE
CH_CH2402,7.817105862590398,47.307609554540505,CH,CH02,CH023,CH2402,Härkingen,1644,5.66441559,2020,CH_CH2402,official,TRUE
