gisco_id,longitude,latitude,country,nuts_2,nuts_3,lau_id,lau_name,population,area_km2,year,fid,concordance,pop_weighted
ES_01001,-2.5108399244118056,42.84130393185476,ES,ES21,ES211,01001,Alegría-Dulantzi,2887,19.94546181,2018,ES_01001,official,TRUE
ES_01002,-3.0020909842752954,43.0507698634837,ES,ES21,ES211,01002,Amurrio,10286,96.33036406,2018,ES_01002,official,TRUE
ES_01003,-2.567791517662571,43.04947783498552,ES,ES21,ES211,01003,Aramaio,1483,73.2719743,2018,ES_01003,official,TRUE
ES_01004,-3.132044563632339,43.123889643387066,ES,ES21,ES211,01004,Artziniega,1831,27.3062746,2018,ES_01004,official,TRUE
ES_01006,-2.8627145063063044,42.72617958486544,ES,ES21,ES211,01006,Armiñón,219,12.93877578,2018,ES_01006,official,TRUE
ES_01008,-2.6215796965598437,42.88338787553426,ES,ES21,ES211,01008,Arratzua-Ubarrundia,982,57.40206105,2018,ES_01008,official,TRUE
ES_01009,-2.311391921114053,42.88929247515633,ES,ES21,ES211,01009,Asparrena,1643,65.34921686,2018,ES_01009,official,TRUE
ES_01010,-3.008697416498367,43.09231036571336,ES,ES21,ES211,01010,Ayala,2967,140.74912502,2018,ES_01010,official,TRUE
ES_01011,-2.6799092120083943,42.53338937762844,ES,ES21,ES211,01011,Baños de Ebro,286,9.45333041,2018,ES_01011,official,TRUE
ES_01013,-2.496400682421585,42.90720054007352,ES,ES21,ES211,01013,Barrundia,883,97.38054358,2018,ES_01013,official,TRUE
ES_01014,-2.860387950733428,42.68436708923138,ES,ES21,ES211,01014,Berantevilla,443,35.69752926,2018,ES_01014,official,TRUE
ES_01016,-2.5170542975693437,42.6469141547482,ES,ES21,ES211,01016,Bernedo,511,130.44503127,2018,ES_01016,official,TRUE
ES_01017,-2.350787880616502,42.668259990416836,ES,ES21,ES211,01017,Campezo,1040,85.39469653,2018,ES_01017,official,TRUE
ES_01018,-2.727952533659105,42.94899373942961,ES,ES21,ES211,01018,Zigoitia,1753,102.06735815,2018,ES_01018,official,TRUE
ES_01019,-2.5193431366411896,42.59031571775127,ES,ES21,ES211,01019,Kripan,181,12.5279563,2018,ES_01019,official,TRUE
ES_01020,-2.9124945530722464,42.87779555975594,ES,ES21,ES211,01020,Kuartango,381,84.09053207,2018,ES_01020,official,TRUE
ES_01021,-2.5476652682656535,42.86063901292931,ES,ES21,ES211,01021,Elburgo,603,32.10097358,2018,ES_01021,official,TRUE
ES_01022,-2.6274504028761063,42.50381128163846,ES,ES21,ES211,01022,Elciego,1025,16.32074417,2018,ES_01022,official,TRUE
ES_01023,-2.539638721434056,42.569537759021784,ES,ES21,ES211,01023,Elvillar,348,17.50948111,2018,ES_01023,official,TRUE
ES_01027,-2.442047473120286,42.83543914937522,ES,ES21,ES211,01027,Iruraiz-Gauna,517,47.15452441,2018,ES_01027,official,TRUE
ES_01028,-2.8009195999244563,42.58982673010564,ES,ES21,ES211,01028,Labastida,1445,38.20961461,2018,ES_01028,official,TRUE
ES_01030,-2.5886887630192876,42.62577221059024,ES,ES21,ES211,01030,Lagrán,158,45.60557762,2018,ES_01030,official,TRUE
ES_01031,-2.585788036789016,42.554635747828065,ES,ES21,ES211,01031,Laguardia,1505,81.01488691,2018,ES_01031,official,TRUE
ES_01032,-2.513526412016916,42.56361173888482,ES,ES21,ES211,01032,Lanciego,667,24.18833685,2018,ES_01032,official,TRUE
ES_01033,-2.5726969339333947,42.49240805462528,ES,ES21,ES211,01033,Lapuebla de Labarca,857,5.99835085,2018,ES_01033,official,TRUE
ES_01034,-2.6376352114763533,42.566414975814304,ES,ES21,ES211,01034,Leza,196,9.93131726,2018,ES_01034,official,TRUE
ES_01036,-2.962360163094059,43.144122177946,ES,ES21,ES211,01036,Laudio,18205,37.55367425,2018,ES_01036,official,TRUE
ES_01037,-2.44430893144188,42.739136554720105,ES,ES21,ES211,01037,Arraia-Maeztu,717,123.06559838,2018,ES_01037,official,TRUE
ES_01039,-2.406470774507906,42.52254607994779,ES,ES21,ES211,01039,Moreda de Álava,229,8.65117287,2018,ES_01039,official,TRUE
ES_01041,-2.621108301178234,42.54668565151451,ES,ES21,ES211,01041,Navaridas,209,8.91428124,2018,ES_01041,official,TRUE
ES_01042,-3.0267961677275412,43.15589810300575,ES,ES21,ES211,01042,Okondo,1162,29.87712387,2018,ES_01042,official,TRUE
ES_01043,-2.4393548420359243,42.503881844987305,ES,ES21,ES211,01043,Oyón-Oion,3368,45.19420662,2018,ES_01043,official,TRUE
ES_01044,-2.7156867996256966,42.64964746640359,ES,ES21,ES211,01044,Peñacerrada-Urizaharra,257,62.14103512,2018,ES_01044,official,TRUE
ES_01046,-2.9038706621470514,42.79918888113573,ES,ES21,ES211,01046,Erriberagoitia,780,119.79977094,2018,ES_01046,official,TRUE
ES_01047,-2.9163386782226337,42.713665108053085,ES,ES21,ES211,01047,Ribera Baja,1374,25.38871898,2018,ES_01047,official,TRUE
ES_01049,-2.9867475211502397,42.80551588359429,ES,ES21,ES211,01049,Añana,151,21.9287099,2018,ES_01049,official,TRUE
ES_01051,-2.3888818902598437,42.850401296007355,ES,ES21,ES211,01051,Agurain,5018,37.77444723,2018,ES_01051,official,TRUE
ES_01052,-2.675543244235638,42.57057117211717,ES,ES21,ES211,01052,Samaniego,319,10.64732346,2018,ES_01052,official,TRUE
ES_01053,-2.334541272720985,42.86117509387736,ES,ES21,ES211,01053,San Millán,709,85.39521748,2018,ES_01053,official,TRUE
ES_01054,-2.8952364238329,42.95356432253901,ES,ES21,ES211,01054,Urkabustaiz,1336,60.79466288,2018,ES_01054,official,TRUE
ES_01055,-3.0830568187323637,42.83303277616543,ES,ES21,ES211,01055,Valdegovía,991,238.31486312,2018,ES_01055,official,TRUE
ES_01056,-2.327984432699501,42.757604617964795,ES,ES21,ES211,01056,Harana,229,39.12729677,2018,ES_01056,official,TRUE
ES_01057,-2.6694487085912026,42.54419432551642,ES,ES21,ES211,01057,Villabuena de Álava,299,8.47437755,2018,ES_01057,official,TRUE
ES_01058,-2.6393049236129364,42.97667369591866,ES,ES21,ES211,01058,Legutio,1869,45.84910399,2018,ES_01058,official,TRUE
ES_01059,-2.675703714659421,42.85133347746592,ES,ES21,ES211,01059,Vitoria-Gasteiz,249176,276.80328878,2018,ES_01059,official,TRUE
ES_01060,-2.466098044605404,42.569574638248604,ES,ES21,ES211,01060,Yécora,269,18.81663959,2018,ES_01060,official,TRUE
ES_01061,-2.346658070888428,42.88526989345542,ES,ES21,ES211,01061,Zalduondo,186,11.8805698,2018,ES_01061,official,TRUE
ES_01062,-2.876646596337449,42.66268194680879,ES,ES21,ES211,01062,Zambrana,400,39.55094116,2018,ES_01062,official,TRUE
ES_01063,-2.8232492941421174,42.95572808631495,ES,ES21,ES211,01063,Zuia,2313,122.50984232,2018,ES_01063,official,TRUE
ES_01901,-2.8118593375938796,42.8193875672677,ES,ES21,ES211,01901,Iruña Oka,3333,53.24723366,2018,ES_01901,official,TRUE
ES_01902,-2.9854324567561843,42.74824757249011,ES,ES21,ES211,01902,Lantarón,872,67.46265927,2018,ES_01902,official,TRUE
ES_02001,-1.541692652207043,39.212066707227144,ES,ES42,ES421,02001,Abengibre,757,30.79913476,2018,ES_02001,official,TRUE
ES_02002,-1.3588378487490929,39.09863676507934,ES,ES42,ES421,02002,Alatoz,529,63.83683045,2018,ES_02002,official,TRUE
ES_02003,-1.8614249367643525,38.99331158538058,ES,ES42,ES421,02003,Albacete,173050,1125.93805191,2018,ES_02003,official,TRUE
ES_02004,-1.5218610347819925,38.5682381805196,ES,ES42,ES421,02004,Albatana,693,30.53234924,2018,ES_02004,official,TRUE
ES_02005,-1.3927401481395945,39.277337859049624,ES,ES42,ES421,02005,Alborea,650,72.07522701,2018,ES_02005,official,TRUE
ES_02006,-1.9768072606729248,38.648740749024604,ES,ES42,ES421,02006,Alcadozo,655,99.60421547,2018,ES_02006,official,TRUE
ES_02007,-1.4313574925912653,39.19054336583921,ES,ES42,ES421,02007,Alcalá del Júcar,1199,146.78546688,2018,ES_02007,official,TRUE
ES_02008,-2.4880529006392367,38.665653909254395,ES,ES42,ES421,02008,Alcaraz,1405,370.58294021,2018,ES_02008,official,TRUE
ES_02009,-1.0955732805365566,38.86744747578037,ES,ES42,ES421,02009,Almansa,24537,531.90956759,2018,ES_02009,official,TRUE
ES_02010,-1.2300924025233857,38.95852573681378,ES,ES42,ES421,02010,Alpera,2275,178.47420604,2018,ES_02010,official,TRUE
ES_02011,-2.0747062457559022,38.554811247133294,ES,ES42,ES421,02011,Ayna,638,146.64514726,2018,ES_02011,official,TRUE
ES_02012,-2.1516412841108705,38.88297271042302,ES,ES42,ES421,02012,Balazote,2360,65.13628578,2018,ES_02012,official,TRUE
ES_02013,-1.2009013531371937,39.26270073157424,ES,ES42,ES421,02013,Balsa de Ves,150,76.35582641,2018,ES_02013,official,TRUE
ES_02014,-2.452435708962702,38.8441057120141,ES,ES42,ES421,02014,"Ballestero, El",409,138.70147527,2018,ES_02014,official,TRUE
ES_02015,-2.198998682485511,39.044920488109476,ES,ES42,ES421,02015,Barrax,1864,189.89523361,2018,ES_02015,official,TRUE
ES_02016,-2.6110907623497903,38.52049079026616,ES,ES42,ES421,02016,Bienservida,610,90.74218633,2018,ES_02016,official,TRUE
ES_02017,-2.2175269984276267,38.58166522058302,ES,ES42,ES421,02017,Bogarra,873,166.04749239,2018,ES_02017,official,TRUE
ES_02018,-1.3498803798798622,38.871365195119026,ES,ES42,ES421,02018,Bonete,1057,125.01393928,2018,ES_02018,official,TRUE
ES_02019,-2.5414274939342425,38.951421148133875,ES,ES42,ES421,02019,"Bonillo, El",2837,502.69931692,2018,ES_02019,official,TRUE
ES_02020,-1.3130045212408832,39.103875539220994,ES,ES42,ES421,02020,Carcelén,508,75.39820814,2018,ES_02020,official,TRUE
ES_02021,-1.5573422078154506,39.102375251652866,ES,ES42,ES421,02021,Casas de Juan Núñez,1275,88.97613253,2018,ES_02021,official,TRUE
ES_02022,-2.2410034683819515,38.77075540474325,ES,ES42,ES421,02022,Casas de Lázaro,344,112.31535274,2018,ES_02022,official,TRUE
ES_02023,-1.3310382497427733,39.257031580599815,ES,ES42,ES421,02023,Casas de Ves,588,125.11209525,2018,ES_02023,official,TRUE
ES_02024,-1.4730439785010527,39.28601208565337,ES,ES42,ES421,02024,Casas-Ibáñez,4522,103.19385753,2018,ES_02024,official,TRUE
ES_02025,-0.9887316595348851,38.703491222465914,ES,ES42,ES421,02025,Caudete,10003,141.59971484,2018,ES_02025,official,TRUE
ES_02026,-1.6623001829132604,39.30032887945441,ES,ES42,ES421,02026,Cenizate,1182,63.26219955,2018,ES_02026,official,TRUE
ES_02027,-1.4632299184074475,38.83162257743476,ES,ES42,ES421,02027,Corral-Rubio,330,94.78743766,2018,ES_02027,official,TRUE
ES_02028,-2.502947188232008,38.43481253241722,ES,ES42,ES421,02028,Cotillas,128,14.44710007,2018,ES_02028,official,TRUE
ES_02029,-1.7217926228935392,38.912310865935694,ES,ES42,ES421,02029,Chinchilla de Monte-Aragón,4182,679.98620089,2018,ES_02029,official,TRUE
ES_02030,-2.0435319864078076,38.448267860908786,ES,ES42,ES421,02030,Elche de la Sierra,3624,239.45223662,2018,ES_02030,official,TRUE
ES_02031,-2.008563543528267,38.35209021546141,ES,ES42,ES421,02031,Férez,674,126.14497689,2018,ES_02031,official,TRUE
ES_02032,-2.071446953354556,39.241511024233894,ES,ES42,ES421,02032,Fuensanta,297,23.94321416,2018,ES_02032,official,TRUE
ES_02033,-1.4290632852141048,38.69197712530033,ES,ES42,ES421,02033,Fuente-Álamo,2489,133.34050809,2018,ES_02033,official,TRUE
ES_02034,-1.5517968585694302,39.26700740461461,ES,ES42,ES421,02034,Fuentealbilla,1816,108.30900761,2018,ES_02034,official,TRUE
ES_02035,-1.9965629324381273,39.113044901544065,ES,ES42,ES421,02035,"Gineta, La",2448,136.761514,2018,ES_02035,official,TRUE
ES_02036,-1.639479327941366,39.23865367621682,ES,ES42,ES421,02036,Golosalvo,110,28.17949781,2018,ES_02036,official,TRUE
ES_02037,-1.6980888487780659,38.50978372088849,ES,ES42,ES421,02037,Hellín,30268,781.32759382,2018,ES_02037,official,TRUE
ES_02038,-2.1224037941380463,38.95863149120516,ES,ES42,ES421,02038,"Herrera, La",349,63.45589798,2018,ES_02038,official,TRUE
ES_02039,-1.4397414207619121,38.96125153901146,ES,ES42,ES421,02039,Higueruela,1184,205.48746196,2018,ES_02039,official,TRUE
ES_02040,-1.5548508031350703,38.956520414646,ES,ES42,ES421,02040,Hoya-Gonzalo,621,114.58395893,2018,ES_02040,official,TRUE
ES_02041,-1.5233599082981955,39.17093659134159,ES,ES42,ES421,02041,Jorquera,360,67.95373874,2018,ES_02041,official,TRUE
ES_02042,-2.099846363650229,38.36550067528415,ES,ES42,ES421,02042,Letur,928,263.64600831,2018,ES_02042,official,TRUE
ES_02043,-2.339645035663638,38.93915317918082,ES,ES42,ES421,02043,Lezuza,1398,360.8841206,2018,ES_02043,official,TRUE
ES_02044,-1.9560422337888013,38.54161834767461,ES,ES42,ES421,02044,Liétor,1200,311.67961472,2018,ES_02044,official,TRUE
ES_02045,-1.8025728519537936,39.23687677825641,ES,ES42,ES421,02045,Madrigueras,4665,73.37800905,2018,ES_02045,official,TRUE
ES_02046,-1.727195549790814,39.20981516442994,ES,ES42,ES421,02046,Mahora,1359,108.15158272,2018,ES_02046,official,TRUE
ES_02047,-2.311993522417648,38.715904539098254,ES,ES42,ES421,02047,Masegoso,113,103.88345704,2018,ES_02047,official,TRUE
ES_02048,-2.3231205272805857,39.27128275766339,ES,ES42,ES421,02048,Minaya,1537,69.85164988,2018,ES_02048,official,TRUE
ES_02049,-2.242762516411538,38.4686044349608,ES,ES42,ES421,02049,Molinicos,840,143.57106035,2018,ES_02049,official,TRUE
ES_02050,-2.0231271071471566,39.164068688179704,ES,ES42,ES421,02050,Montalvos,96,24.76177611,2018,ES_02050,official,TRUE
ES_02051,-1.3285488013905489,38.78786918173538,ES,ES42,ES421,02051,Montealegre del Castillo,2042,177.86368534,2018,ES_02051,official,TRUE
ES_02052,-1.7921955596909758,39.17835249455608,ES,ES42,ES421,02052,Motilleja,548,23.79264392,2018,ES_02052,official,TRUE
ES_02053,-2.4793271351317574,39.041873682433966,ES,ES42,ES421,02053,Munera,3513,229.40793318,2018,ES_02053,official,TRUE
ES_02054,-1.7175290451271326,39.281971631997436,ES,ES42,ES421,02054,Navas de Jorquera,518,42.2686013,2018,ES_02054,official,TRUE
ES_02055,-2.313629636378406,38.14849098365394,ES,ES42,ES421,02055,Nerpio,1222,435.78953766,2018,ES_02055,official,TRUE
ES_02056,-1.4957412087752657,38.616296550499655,ES,ES42,ES421,02056,Ontur,2028,54.38679226,2018,ES_02056,official,TRUE
ES_02057,-2.7425374775227627,38.96189273483107,ES,ES42,ES421,02057,Ossa de Montiel,2352,243.57668216,2018,ES_02057,official,TRUE
ES_02058,-2.347994646260874,38.599955962453784,ES,ES42,ES421,02058,Paterna del Madera,360,112.35583246,2018,ES_02058,official,TRUE
ES_02059,-2.403311255341101,38.67714089238073,ES,ES42,ES421,02059,Peñascosa,331,189.25754303,2018,ES_02059,official,TRUE
ES_02060,-2.002144209722461,38.72895508248769,ES,ES42,ES421,02060,Peñas de San Pedro,1420,158.73562448,2018,ES_02060,official,TRUE
ES_02061,-1.5550621296390847,38.82669427407328,ES,ES42,ES421,02061,Pétrola,696,74.62663087,2018,ES_02061,official,TRUE
ES_02062,-2.598948972867993,38.69894360327108,ES,ES42,ES421,02062,Povedilla,446,49.44282637,2018,ES_02062,official,TRUE
ES_02063,-1.908742167102344,38.71724138236972,ES,ES42,ES421,02063,Pozohondo,1635,136.44357787,2018,ES_02063,official,TRUE
ES_02064,-1.5064555732833984,39.07813572622458,ES,ES42,ES421,02064,Pozo-Lorente,401,80.98448653,2018,ES_02064,official,TRUE
ES_02065,-2.0963894109512347,38.807737868701835,ES,ES42,ES421,02065,Pozuelo,489,133.78292748,2018,ES_02065,official,TRUE
ES_02066,-1.4884639981720886,39.174586716707395,ES,ES42,ES421,02066,"Recueja, La",254,29.74546015,2018,ES_02066,official,TRUE
ES_02067,-2.4221274620336986,38.50027777581113,ES,ES42,ES421,02067,Riópar,1357,80.92214574,2018,ES_02067,official,TRUE
ES_02068,-2.4309138441949183,38.76465256997489,ES,ES42,ES421,02068,Robledo,363,120.10810096,2018,ES_02068,official,TRUE
ES_02069,-2.1585064947845383,39.20519443931148,ES,ES42,ES421,02069,"Roda, La",15515,398.87310403,2018,ES_02069,official,TRUE
ES_02070,-2.558762569670391,38.59877978928824,ES,ES42,ES421,02070,Salobre,501,49.51199982,2018,ES_02070,official,TRUE
ES_02071,-2.1832003455901994,38.82362782409106,ES,ES42,ES421,02071,San Pedro,1153,83.12376739,2018,ES_02071,official,TRUE
ES_02072,-1.9821909223626715,38.33376064169971,ES,ES42,ES421,02072,Socovos,1790,138.59275724,2018,ES_02072,official,TRUE
ES_02073,-1.9125128101063125,39.26240232935941,ES,ES42,ES421,02073,Tarazona de la Mancha,6255,212.78238806,2018,ES_02073,official,TRUE
ES_02074,-1.6881130764910832,38.59294092165549,ES,ES42,ES421,02074,Tobarra,7738,324.97595055,2018,ES_02074,official,TRUE
ES_02075,-1.6789931892066885,39.13336968056153,ES,ES42,ES421,02075,Valdeganga,1943,70.77971777,2018,ES_02075,official,TRUE
ES_02076,-2.5032923004019647,38.63537374942423,ES,ES42,ES421,02076,Vianos,355,128.02813483,2018,ES_02076,official,TRUE
ES_02077,-1.263198428606898,39.21934687618427,ES,ES42,ES421,02077,Villa de Ves,57,57.54484911,2018,ES_02077,official,TRUE
ES_02078,-2.0590230059084798,39.296683899328166,ES,ES42,ES421,02078,Villalgordo del Júcar,1115,46.66078997,2018,ES_02078,official,TRUE
ES_02079,-1.6018445135044868,39.36174327685237,ES,ES42,ES421,02079,Villamalea,4112,128.02172434,2018,ES_02079,official,TRUE
ES_02080,-2.63271558162628,38.57335357933983,ES,ES42,ES421,02080,Villapalacios,589,87.52138768,2018,ES_02080,official,TRUE
ES_02081,-2.603434354540083,39.268022156325095,ES,ES42,ES421,02081,Villarrobledo,25241,862.47145048,2018,ES_02081,official,TRUE
ES_02082,-1.3378615448000397,39.33193834914751,ES,ES42,ES421,02082,Villatoya,95,18.82390443,2018,ES_02082,official,TRUE
ES_02083,-1.4562349625302473,39.12362801160027,ES,ES42,ES421,02083,Villavaliente,226,34.84148811,2018,ES_02083,official,TRUE
ES_02084,-2.51863931354827,38.4562517528135,ES,ES42,ES421,02084,Villaverde de Guadalimar,340,69.07534889,2018,ES_02084,official,TRUE
ES_02085,-2.577957788769214,38.77278545322815,ES,ES42,ES421,02085,Viveros,340,65.3442575,2018,ES_02085,official,TRUE
ES_02086,-2.3175138679374614,38.36905322851298,ES,ES42,ES421,02086,Yeste,2674,511.25987603,2018,ES_02086,official,TRUE
ES_02901,-1.7361453810375638,38.80258609718657,ES,ES42,ES421,02901,Pozo Cañada,2786,116.99079412,2018,ES_02901,official,TRUE
ES_03001,-0.16203716397333423,38.85858602889972,ES,ES52,ES521,03001,"Atzúbia, l'",661,14.67010413,2018,ES_03001,official,TRUE
ES_03002,-0.6362227558394614,38.440150158565,ES,ES52,ES521,03002,Agost,4713,66.65238211,2018,ES_03002,official,TRUE
ES_03003,-0.5174961590616325,38.78374342711911,ES,ES52,ES521,03003,Agres,551,25.82162571,2018,ES_03003,official,TRUE
ES_03004,-0.36127930322482765,38.5041433110918,ES,ES52,ES521,03004,Aigües,936,18.47723242,2018,ES_03004,official,TRUE
ES_03005,-0.8702137951569588,38.17826215815293,ES,ES52,ES521,03005,Albatera,12042,61.53345425,2018,ES_03005,official,TRUE
ES_03006,-0.03911287784263107,38.75354195111167,ES,ES52,ES521,03006,Alcalalí,1298,14.4022464,2018,ES_03006,official,TRUE
ES_03007,-0.40533336984090823,38.795725135544274,ES,ES52,ES521,03007,Alcocer de Planes,229,4.70876465,2018,ES_03007,official,TRUE
ES_03008,-0.32788220810674773,38.67661287523349,ES,ES52,ES521,03008,Alcoleja,180,14.54140871,2018,ES_03008,official,TRUE
ES_03009,-0.477335267525532,38.700369710311875,ES,ES52,ES521,03009,Alcoy,58977,129.88789966,2018,ES_03009,official,TRUE
ES_03010,-0.5508534943231712,38.77177232594416,ES,ES52,ES521,03010,Alfafara,407,19.77649794,2018,ES_03010,official,TRUE
ES_03011,-0.08995102254245,38.57713453797256,ES,ES52,ES521,03011,"Alfàs del Pi, l'",20053,19.24505828,2018,ES_03011,official,TRUE
ES_03012,-0.795654512693973,38.08362205521019,ES,ES52,ES521,03012,Algorfa,2838,18.35088743,2018,ES_03012,official,TRUE
ES_03013,-1.0019871840587051,38.336674084207985,ES,ES52,ES521,03013,Algueña,1341,18.4353385,2018,ES_03013,official,TRUE
ES_03014,-0.4857890743476905,38.35599536337146,ES,ES52,ES521,03014,Alicante,331577,200.86661331,2018,ES_03014,official,TRUE
ES_03015,-0.79100692331738,38.11069965261569,ES,ES52,ES521,03015,Almoradí,20542,42.74352258,2018,ES_03015,official,TRUE
ES_03016,-0.3527156573511653,38.76061023835405,ES,ES52,ES521,03016,Almudaina,104,8.81613196,2018,ES_03016,official,TRUE
ES_03017,-0.42461525481911216,38.77276103759549,ES,ES52,ES521,03017,"Alqueria d'Asnar, l'",491,0.7596274,2018,ES_03017,official,TRUE
ES_03018,-0.05177730118726727,38.60349473650407,ES,ES52,ES521,03018,Altea,21995,34.44328194,2018,ES_03018,official,TRUE
ES_03019,-0.7682724864155982,38.34456628769245,ES,ES52,ES521,03019,Aspe,20537,70.4612892,2018,ES_03019,official,TRUE
ES_03020,-0.34020478386152764,38.73912226603979,ES,ES52,ES521,03020,Balones,122,11.24176972,2018,ES_03020,official,TRUE
ES_03021,-0.6573418123057,38.7162545483601,ES,ES52,ES521,03021,Banyeres de Mariola,7113,50.28593737,2018,ES_03021,official,TRUE
ES_03022,-0.34187828550596383,38.693224141901446,ES,ES52,ES521,03022,Benasau,156,9.04531674,2018,ES_03022,official,TRUE
ES_03023,-0.7682120580789894,38.701083735698,ES,ES52,ES521,03023,Beneixama,1703,34.91637525,2018,ES_03023,official,TRUE
ES_03024,-0.8416536574979823,38.076239276938274,ES,ES52,ES521,03024,Benejúzar,5361,9.32896991,2018,ES_03024,official,TRUE
ES_03025,-0.9648718611516575,38.140653829642105,ES,ES52,ES521,03025,Benferri,1940,12.36880795,2018,ES_03025,official,TRUE
ES_03026,-0.003584335165460533,38.820460907915,ES,ES52,ES521,03026,Beniarbeig,1983,7.40528405,2018,ES_03026,official,TRUE
ES_03027,-0.21636082094786685,38.681661957314155,ES,ES52,ES521,03027,Beniardá,178,15.72606373,2018,ES_03027,official,TRUE
ES_03028,-0.3737715900306023,38.81761903200331,ES,ES52,ES521,03028,Beniarrés,1118,20.21298608,2018,ES_03028,official,TRUE
ES_03029,-0.1027117625304528,38.75532450459502,ES,ES52,ES521,03029,Benigembla,444,18.45498391,2018,ES_03029,official,TRUE
ES_03030,-0.030208815204048896,38.79030640396922,ES,ES52,ES521,03030,Benidoleig,1110,7.48354489,2018,ES_03030,official,TRUE
ES_03031,-0.13149995593385877,38.5418642164015,ES,ES52,ES521,03031,Benidorm,67558,38.52734378,2018,ES_03031,official,TRUE
ES_03032,-0.4011253808762631,38.66034072396423,ES,ES52,ES521,03032,Benifallim,108,13.67189724,2018,ES_03032,official,TRUE
ES_03033,-0.22708078903789142,38.67172549601131,ES,ES52,ES521,03033,Benifato,149,11.87896841,2018,ES_03033,official,TRUE
ES_03034,-0.7404152088158307,38.079095850863524,ES,ES52,ES521,03034,Benijófar,3357,4.35682976,2018,ES_03034,official,TRUE
ES_03035,-0.38881738747474426,38.69737501117492,ES,ES52,ES521,03035,Benilloba,742,9.5348409,2018,ES_03035,official,TRUE
ES_03036,-0.3745056022399295,38.7536661232254,ES,ES52,ES521,03036,Benillup,94,3.39372916,2018,ES_03036,official,TRUE
ES_03037,-0.21248223889760998,38.67805939976338,ES,ES52,ES521,03037,Benimantell,490,37.88937176,2018,ES_03037,official,TRUE
ES_03038,-0.39011057217350387,38.77889393606407,ES,ES52,ES521,03038,Benimarfull,413,5.56797171,2018,ES_03038,official,TRUE
ES_03039,-0.29358068907200396,38.75301049522017,ES,ES52,ES521,03039,Benimassot,96,9.5181859,2018,ES_03039,official,TRUE
ES_03040,-0.03858138015181021,38.82428165703078,ES,ES52,ES521,03040,Benimeli,410,3.50606755,2018,ES_03040,official,TRUE
ES_03041,0.05110265201945811,38.71390336982041,ES,ES52,ES521,03041,Benissa,10768,69.7418947,2018,ES_03041,official,TRUE
ES_03042,0.14854722503334825,38.73130240125677,ES,ES52,ES521,03042,Benitachell,4130,12.68773374,2018,ES_03042,official,TRUE
ES_03043,-0.7598008223962979,38.62901031925868,ES,ES52,ES521,03043,Biar,3651,98.14489675,2018,ES_03043,official,TRUE
ES_03044,-0.8974826708802464,38.065123628243754,ES,ES52,ES521,03044,Bigastro,6702,4.09881692,2018,ES_03044,official,TRUE
ES_03045,-0.10846096063488811,38.674741719540044,ES,ES52,ES521,03045,Bolulla,418,13.58991592,2018,ES_03045,official,TRUE
ES_03046,-0.4277877566852149,38.47454803554816,ES,ES52,ES521,03046,Busot,2925,33.82468028,2018,ES_03046,official,TRUE
ES_03047,0.047648167993061215,38.64392847580028,ES,ES52,ES521,03047,Calp,21633,23.50728234,2018,ES_03047,official,TRUE
ES_03048,-0.12108070476010249,38.65199813693549,ES,ES52,ES521,03048,Callosa d'en Sarrià,7257,34.62707289,2018,ES_03048,official,TRUE
ES_03049,-0.876801032483933,38.12388720791637,ES,ES52,ES521,03049,Callosa de Segura,18864,24.85137122,2018,ES_03049,official,TRUE
ES_03050,-0.3988535831118371,38.42843714301198,ES,ES52,ES521,03050,"Campello, el",27893,55.30723661,2018,ES_03050,official,TRUE
ES_03051,-0.78021374825715,38.68922032695167,ES,ES52,ES521,03051,Campo de Mirra,428,21.82191333,2018,ES_03051,official,TRUE
ES_03052,-0.8125808743191395,38.6764231408951,ES,ES52,ES521,03052,Cañada,1214,19.30126401,2018,ES_03052,official,TRUE
ES_03053,-0.6719046339978982,38.59294416378203,ES,ES52,ES521,03053,Castalla,9880,114.57306595,2018,ES_03053,official,TRUE
ES_03054,-0.19709309209914364,38.72655106674348,ES,ES52,ES521,03054,Castell de Castells,435,45.93141816,2018,ES_03054,official,TRUE
ES_03055,-0.8007682701523047,38.15944164351782,ES,ES52,ES521,03055,Catral,8631,19.99783722,2018,ES_03055,official,TRUE
ES_03056,-0.4413999561662187,38.73860912772908,ES,ES52,ES521,03056,Cocentaina,11456,52.97077138,2018,ES_03056,official,TRUE
ES_03057,-0.26826552714728935,38.685636245112306,ES,ES52,ES521,03057,Confrides,208,40.02460854,2018,ES_03057,official,TRUE
ES_03058,-0.8869312163857982,38.14080450430728,ES,ES52,ES521,03058,Cox,7226,16.75507316,2018,ES_03058,official,TRUE
ES_03059,-0.8100117577211786,38.24864046855015,ES,ES52,ES521,03059,Crevillent,28957,104.54845029,2018,ES_03059,official,TRUE
ES_03060,-0.31274434369241166,38.723837662039536,ES,ES52,ES521,03060,Quatretondeta,121,16.68997998,2018,ES_03060,official,TRUE
ES_03061,-0.7662568210515207,38.1113794736382,ES,ES52,ES521,03061,Daya Nueva,1718,7.09038106,2018,ES_03061,official,TRUE
ES_03062,-0.7311697183670405,38.10590968201635,ES,ES52,ES521,03062,Daya Vieja,685,3.14427465,2018,ES_03062,official,TRUE
ES_03063,0.1029765526989186,38.83965372406306,ES,ES52,ES521,03063,Dénia,41733,66.19785025,2018,ES_03063,official,TRUE
ES_03064,-0.7716041357157751,38.13929651737035,ES,ES52,ES521,03064,Dolores,7383,18.67049954,2018,ES_03064,official,TRUE
ES_03065,-0.7034678742014815,38.26773593657585,ES,ES52,ES521,03065,Elche,230625,326.58569807,2018,ES_03065,official,TRUE
ES_03066,-0.7929343486698689,38.47582383843542,ES,ES52,ES521,03066,Elda,52404,45.81993851,2018,ES_03066,official,TRUE
ES_03067,-0.2683355775864378,38.73753606706969,ES,ES52,ES521,03067,Facheca,101,10.17128595,2018,ES_03067,official,TRUE
ES_03068,-0.24402307553950384,38.731210373248366,ES,ES52,ES521,03068,Famorca,53,9.71479559,2018,ES_03068,official,TRUE
ES_03069,-0.17677412424225036,38.53941410908985,ES,ES52,ES521,03069,Finestrat,6381,42.24183226,2018,ES_03069,official,TRUE
ES_03070,-0.7324667029986773,38.09217687086399,ES,ES52,ES521,03070,Formentera del Segura,4131,4.33084146,2018,ES_03070,official,TRUE
ES_03071,0.08429388357488955,38.774887461364095,ES,ES52,ES521,03071,Gata de Gorgos,5893,20.32406955,2018,ES_03071,official,TRUE
ES_03072,-0.40722297815138775,38.81385232282602,ES,ES52,ES521,03072,Gaianes,471,9.55806308,2018,ES_03072,official,TRUE
ES_03073,-0.3578101581336088,38.720306792393245,ES,ES52,ES521,03073,Gorga,258,9.09848666,2018,ES_03073,official,TRUE
ES_03074,-0.8889019891000272,38.15429266539786,ES,ES52,ES521,03074,Granja de Rocamora,2489,7.15030901,2018,ES_03074,official,TRUE
ES_03075,-0.1998177671508086,38.67183781668166,ES,ES52,ES521,03075,"Castell de Guadalest, el",209,15.98027059,2018,ES_03075,official,TRUE
ES_03076,-0.6515877085476262,38.087239890815376,ES,ES52,ES521,03076,Guardamar del Segura,15058,34.19162146,2018,ES_03076,official,TRUE
ES_03077,-0.8547800671752847,38.30763728889517,ES,ES52,ES521,03077,"Fondó de les Neus, el",2474,68.85849439,2018,ES_03077,official,TRUE
ES_03078,-0.9302286050634645,38.27143275585812,ES,ES52,ES521,03078,Hondón de los Frailes,1132,12.54624538,2018,ES_03078,official,TRUE
ES_03079,-0.57467486565688,38.62234413064202,ES,ES52,ES521,03079,Ibi,23403,62.50931301,2018,ES_03079,official,TRUE
ES_03080,-0.8655744982181364,38.059578198784756,ES,ES52,ES521,03080,Jacarilla,1986,12.21545758,2018,ES_03080,official,TRUE
ES_03081,-0.014025428955824197,38.73775855028851,ES,ES52,ES521,03081,Xaló,2683,34.56850145,2018,ES_03081,official,TRUE
ES_03082,0.1654849732190215,38.789809895226334,ES,ES52,ES521,03082,Jávea,27224,68.52918513,2018,ES_03082,official,TRUE
ES_03083,-0.502348654556401,38.53858797365237,ES,ES52,ES521,03083,Jijona,6875,163.69521942,2018,ES_03083,official,TRUE
ES_03084,-0.3075810283938729,38.8429962792996,ES,ES52,ES521,03084,Lorcha,596,31.78951742,2018,ES_03084,official,TRUE
ES_03085,0.01246466286704654,38.737580272359494,ES,ES52,ES521,03085,Llíber,1051,21.97367325,2018,ES_03085,official,TRUE
ES_03086,-0.35903079804502297,38.72801893158693,ES,ES52,ES521,03086,Millena,229,9.76561518,2018,ES_03086,official,TRUE
ES_03088,-0.7290120828564642,38.377795313747114,ES,ES52,ES521,03088,Monforte del Cid,7944,79.55784581,2018,ES_03088,official,TRUE
ES_03089,-0.8416591271805832,38.43714001245428,ES,ES52,ES521,03089,Monóvar,12175,152.35070794,2018,ES_03089,official,TRUE
ES_03090,-0.44954847679638354,38.415618233827885,ES,ES52,ES521,03090,Mutxamel,25009,47.64948241,2018,ES_03090,official,TRUE
ES_03091,-0.07733198663787455,38.759584008000644,ES,ES52,ES521,03091,Murla,493,5.82034485,2018,ES_03091,official,TRUE
ES_03092,-0.43724298187674343,38.78302932369506,ES,ES52,ES521,03092,Muro de Alcoy,9328,30.25845008,2018,ES_03092,official,TRUE
ES_03093,-0.765981442208227,38.382679360045756,ES,ES52,ES521,03093,Novelda,25725,75.69766623,2018,ES_03093,official,TRUE
ES_03094,-0.1250523213110506,38.60076535307263,ES,ES52,ES521,03094,"Nucia, la",18242,21.38307333,2018,ES_03094,official,TRUE
ES_03095,0.018636249379474817,38.825196119738195,ES,ES52,ES521,03095,Ondara,6815,10.41697002,2018,ES_03095,official,TRUE
ES_03096,-0.6738208241503119,38.629494985871155,ES,ES52,ES521,03096,Onil,7475,48.44917782,2018,ES_03096,official,TRUE
ES_03097,-0.06316335630221948,38.778729001234815,ES,ES52,ES521,03097,Orba,2111,17.73152868,2018,ES_03097,official,TRUE
ES_03098,-0.26449295110840576,38.564329861593365,ES,ES52,ES521,03098,Orxeta,738,24.05766877,2018,ES_03098,official,TRUE
ES_03099,-0.9314583881691526,38.07344380569359,ES,ES52,ES521,03099,Orihuela,76778,365.40654296,2018,ES_03099,official,TRUE
ES_03100,-0.06210158013662387,38.742849270893146,ES,ES52,ES521,03100,Parcent,908,11.75998821,2018,ES_03100,official,TRUE
ES_03101,0.035077775024919204,38.79596130073191,ES,ES52,ES521,03101,Pedreguer,7490,29.58309807,2018,ES_03101,official,TRUE
ES_03102,-0.11740828598108358,38.84208935261124,ES,ES52,ES521,03102,Pego,10052,52.84948672,2018,ES_03102,official,TRUE
ES_03103,-0.36353021279123604,38.68181870621263,ES,ES52,ES521,03103,Penàguila,301,49.93320542,2018,ES_03103,official,TRUE
ES_03104,-0.7788792100811595,38.48049400104254,ES,ES52,ES521,03104,Petrer,34479,104.09938309,2018,ES_03104,official,TRUE
ES_03105,-1.0438268756719256,38.40194430512455,ES,ES52,ES521,03105,"Pinós, el",7845,126.43531897,2018,ES_03105,official,TRUE
ES_03106,-0.3442939769657201,38.78422991326766,ES,ES52,ES521,03106,Planes,713,38.87596253,2018,ES_03106,official,TRUE
ES_03107,-0.13461860410988116,38.62155659546231,ES,ES52,ES521,03107,Polop,4850,22.59020842,2018,ES_03107,official,TRUE
ES_03109,-0.8471856392489105,38.107498993166224,ES,ES52,ES521,03109,Rafal,4418,1.61619332,2018,ES_03109,official,TRUE
ES_03110,-0.0501893691424289,38.825489235344584,ES,ES52,ES521,03110,"Ràfol d'Almúnia, el",644,4.87107609,2018,ES_03110,official,TRUE
ES_03111,-0.9070023408339871,38.11364289201446,ES,ES52,ES521,03111,Redován,7797,9.43327774,2018,ES_03111,official,TRUE
ES_03112,-0.3129841616822952,38.58660968537635,ES,ES52,ES521,03112,Relleu,1147,76.89830053,2018,ES_03112,official,TRUE
ES_03113,-0.7165013544650942,38.07560631116603,ES,ES52,ES521,03113,Rojales,16560,27.86839235,2018,ES_03113,official,TRUE
ES_03114,-0.8996257118625908,38.3662428175231,ES,ES52,ES521,03114,"Romana, la",2376,43.29724592,2018,ES_03114,official,TRUE
ES_03115,-0.06712364938283566,38.81371580715242,ES,ES52,ES521,03115,Sagra,389,5.62560745,2018,ES_03115,official,TRUE
ES_03116,-0.9139409074345138,38.5201907386709,ES,ES52,ES521,03116,Salinas,1585,61.76271367,2018,ES_03116,official,TRUE
ES_03117,-0.03163401129105843,38.81803148900453,ES,ES52,ES521,03117,Sanet y Negrals,648,3.9467647,2018,ES_03117,official,TRUE
ES_03118,-0.6825493587660174,38.13285013292527,ES,ES52,ES521,03118,San Fulgencio,7943,20.65961371,2018,ES_03118,official,TRUE
ES_03119,-0.434596422486476,38.40015331246114,ES,ES52,ES521,03119,Sant Joan d'Alacant,23518,9.63328886,2018,ES_03119,official,TRUE
ES_03120,-0.7909503269684169,37.97331201719153,ES,ES52,ES521,03120,San Miguel de Salinas,5811,54.89205545,2018,ES_03120,official,TRUE
ES_03121,-0.5545735478123718,38.19818403523823,ES,ES52,ES521,03121,Santa Pola,31745,58.54555918,2018,ES_03121,official,TRUE
ES_03122,-0.5234507327644131,38.39786408126958,ES,ES52,ES521,03122,San Vicente del Raspeig,57785,40.5403927,2018,ES_03122,official,TRUE
ES_03123,-0.8210959984226719,38.536206757409026,ES,ES52,ES521,03123,Sax,9771,63.49711899,2018,ES_03123,official,TRUE
ES_03124,-0.2712018776483068,38.60959299429892,ES,ES52,ES521,03124,Sella,585,38.71450235,2018,ES_03124,official,TRUE
ES_03125,0.04486286183025117,38.72872189669709,ES,ES52,ES521,03125,Senija,581,4.78787716,2018,ES_03125,official,TRUE
ES_03127,-0.09924372023276905,38.69209512432677,ES,ES52,ES521,03127,Tàrbena,627,31.64371172,2018,ES_03127,official,TRUE
ES_03128,0.10494435703688867,38.72647637640466,ES,ES52,ES521,03128,Teulada,10722,32.20713023,2018,ES_03128,official,TRUE
ES_03129,-0.5798326955212321,38.53060009983782,ES,ES52,ES521,03129,Tibi,1564,70.4128864,2018,ES_03129,official,TRUE
ES_03130,-0.27089854379645834,38.75570896601566,ES,ES52,ES521,03130,Tollos,56,15.98993631,2018,ES_03130,official,TRUE
ES_03131,-0.07046499753881087,38.80434228693932,ES,ES52,ES521,03131,Tormos,336,5.35736839,2018,ES_03131,official,TRUE
ES_03132,-0.4210385094669491,38.608157317546215,ES,ES52,ES521,03132,Torremanzanas,654,36.51159351,2018,ES_03132,official,TRUE
ES_03133,-0.6811010468508728,37.98347676069227,ES,ES52,ES521,03133,Torrevieja,82599,71.62525463,2018,ES_03133,official,TRUE
ES_03134,-0.25516187171664845,38.792436810314044,ES,ES52,ES521,03134,"Vall d'Alcalà, la",164,22.84259,2018,ES_03134,official,TRUE
ES_03135,-0.16280805624583936,38.80370966805252,ES,ES52,ES521,03135,"Vall d'Ebo, la",224,32.41608213,2018,ES_03135,official,TRUE
ES_03136,-0.2318965807408086,38.82198194163633,ES,ES52,ES521,03136,Vall de Gallinera,589,53.61833518,2018,ES_03136,official,TRUE
ES_03137,-0.11301749664243047,38.776581199749614,ES,ES52,ES521,03137,"Vall de Laguar, la",820,23.08108187,2018,ES_03137,official,TRUE
ES_03138,0.005364044787150756,38.8464319714283,ES,ES52,ES521,03138,"Verger, el",4520,8.14417432,2018,ES_03138,official,TRUE
ES_03139,-0.2196555829275997,38.51319025816107,ES,ES52,ES521,03139,Villajoyosa,33969,59.26190721,2018,ES_03139,official,TRUE
ES_03140,-0.863811104447923,38.63579564068226,ES,ES52,ES521,03140,Villena,33983,345.32105451,2018,ES_03140,official,TRUE
ES_03901,0.014517390969261919,38.85344207204325,ES,ES52,ES521,03901,"Poblets, els",2864,3.62264624,2018,ES_03901,official,TRUE
ES_03902,-0.7932695505482833,37.86555469923428,ES,ES52,ES521,03902,Pilar de la Horadada,21418,77.85978232,2018,ES_03902,official,TRUE
ES_03903,-0.7428690617449678,38.0284646921302,ES,ES52,ES521,03903,"Montesinos, Los",4844,15.04443216,2018,ES_03903,official,TRUE
ES_03904,-0.8423860132699055,38.17227101664988,ES,ES52,ES521,03904,San Isidro,1933,11.72549043,2018,ES_03904,official,TRUE
ES_04001,-2.776774014894075,37.14318746577198,ES,ES61,ES611,04001,Abla,1235,45.22297304,2018,ES_04001,official,TRUE
ES_04002,-2.7971768238820274,37.131281751784265,ES,ES61,ES611,04002,Abrucena,1150,83.67163973,2018,ES_04002,official,TRUE
ES_04003,-3.0155252245259576,36.75239518278243,ES,ES61,ES611,04003,Adra,24859,90.04409554,2018,ES_04003,official,TRUE
ES_04004,-2.178579331210672,37.28690636118485,ES,ES61,ES611,04004,Albanchez,753,34.88887807,2018,ES_04004,official,TRUE
ES_04005,-2.621076627759433,37.03597007866611,ES,ES61,ES611,04005,Alboloduy,621,69.77094055,2018,ES_04005,official,TRUE
ES_04006,-2.144161119956118,37.38844138467182,ES,ES61,ES611,04006,Albox,11696,168.44982923,2018,ES_04006,official,TRUE
ES_04007,-2.9608494475707627,36.97075793915344,ES,ES61,ES611,04007,Alcolea,814,67.53161494,2018,ES_04007,official,TRUE
ES_04008,-2.5970426248469765,37.381411810727016,ES,ES61,ES611,04008,Alcóntar,528,93.91720641,2018,ES_04008,official,TRUE
ES_04009,-2.259031223511268,37.2303823015044,ES,ES61,ES611,04009,Alcudia de Monteagud,135,15.50942422,2018,ES_04009,official,TRUE
ES_04010,-2.5898222345819883,36.988395967385,ES,ES61,ES611,04010,Alhabia,648,16.38558317,2018,ES_04010,official,TRUE
ES_04011,-2.5718454287170105,36.95954351627488,ES,ES61,ES611,04011,Alhama de Almería,3615,26.2634379,2018,ES_04011,official,TRUE
ES_04012,-2.5983182192423437,36.96565460650692,ES,ES61,ES611,04012,Alicún,212,5.8654316,2018,ES_04012,official,TRUE
ES_04013,-2.4523781552869184,36.842719084089325,ES,ES61,ES611,04013,Almería,196851,296.27855893,2018,ES_04013,official,TRUE
ES_04014,-2.7867547432743893,37.00428193656061,ES,ES61,ES611,04014,Almócita,176,30.81511188,2018,ES_04014,official,TRUE
ES_04015,-2.59214804979899,37.000686545965294,ES,ES61,ES611,04015,Alsodux,133,20.10712329,2018,ES_04015,official,TRUE
ES_04016,-1.9226459138850245,37.24709481445089,ES,ES61,ES611,04016,Antas,3169,99.19293661,2018,ES_04016,official,TRUE
ES_04017,-2.0803572985606276,37.35072701400597,ES,ES61,ES611,04017,Arboleas,4586,66.1438137,2018,ES_04017,official,TRUE
ES_04018,-2.4106869973876073,37.34820332965774,ES,ES61,ES611,04018,Armuña de Almanzora,321,7.84613111,2018,ES_04018,official,TRUE
ES_04019,-2.4569041333503945,37.25951954594162,ES,ES61,ES611,04019,Bacares,232,94.77437846,2018,ES_04019,official,TRUE
ES_04020,-2.993840717442043,37.030793331455406,ES,ES61,ES611,04020,Bayárcal,284,38.03582286,2018,ES_04020,official,TRUE
ES_04021,-2.4357623700703566,37.32660142064801,ES,ES61,ES611,04021,Bayarque,206,26.54339796,2018,ES_04021,official,TRUE
ES_04022,-1.9809711835616854,37.19272240349014,ES,ES61,ES611,04022,Bédar,927,46.71172605,2018,ES_04022,official,TRUE
ES_04023,-2.7864849304884682,37.01180937858619,ES,ES61,ES611,04023,Beires,117,38.82665732,2018,ES_04023,official,TRUE
ES_04024,-2.461343488940484,36.92581173030122,ES,ES61,ES611,04024,Benahadux,4357,16.6067611,2018,ES_04024,official,TRUE
ES_04026,-2.23742491883463,37.23340233020678,ES,ES61,ES611,04026,Benitagla,68,6.46849439,2018,ES_04026,official,TRUE
ES_04027,-2.2231005688297905,37.19480265880268,ES,ES61,ES611,04027,Benizalón,248,31.9762891,2018,ES_04027,official,TRUE
ES_04028,-2.624062436885147,36.98968869944136,ES,ES61,ES611,04028,Bentarique,243,11.3639979,2018,ES_04028,official,TRUE
ES_04029,-2.947572344390917,36.84428654610425,ES,ES61,ES611,04029,Berja,12381,185.76838842,2018,ES_04029,official,TRUE
ES_04030,-2.740963677409925,37.0104982821044,ES,ES61,ES611,04030,Canjáyar,1202,66.91359178,2018,ES_04030,official,TRUE
ES_04031,-2.1862916435774418,37.349514066892034,ES,ES61,ES611,04031,Cantoria,3228,79.03570308,2018,ES_04031,official,TRUE
ES_04032,-1.8938457044706738,37.002096368356575,ES,ES61,ES611,04032,Carboneras,7757,95.46200352,2018,ES_04032,official,TRUE
ES_04033,-2.4447237818988987,37.187802153708574,ES,ES61,ES611,04033,Castro de Filabres,121,29.21087061,2018,ES_04033,official,TRUE
ES_04034,-2.2086585550449698,37.26447067786702,ES,ES61,ES611,04034,Cóbdar,143,31.84756537,2018,ES_04034,official,TRUE
ES_04035,-1.8690976384855822,37.292573015423656,ES,ES61,ES611,04035,Cuevas del Almanzora,13776,264.80318986,2018,ES_04035,official,TRUE
ES_04036,-2.255861625859693,37.267429399411824,ES,ES61,ES611,04036,Chercos,283,13.554699,2018,ES_04036,official,TRUE
ES_04037,-2.270282281728556,37.59572349058735,ES,ES61,ES611,04037,Chirivel,1525,196.58234539,2018,ES_04037,official,TRUE
ES_04038,-2.8735591294972056,36.82102741289004,ES,ES61,ES611,04038,Dalías,4031,141.44500126,2018,ES_04038,official,TRUE
ES_04041,-2.6035510535370827,36.873630269780634,ES,ES61,ES611,04041,Enix,418,66.86329791,2018,ES_04041,official,TRUE
ES_04043,-2.658006968002109,36.86590593942386,ES,ES61,ES611,04043,Felix,642,81.25145864,2018,ES_04043,official,TRUE
ES_04044,-2.260047528196704,37.35869778730416,ES,ES61,ES611,04044,Fines,1992,23.09425382,2018,ES_04044,official,TRUE
ES_04045,-2.838996770707938,37.17132548621955,ES,ES61,ES611,04045,Fiñana,1992,133.97444243,2018,ES_04045,official,TRUE
ES_04046,-2.862001777707741,36.98013131074477,ES,ES61,ES611,04046,Fondón,975,91.11587683,2018,ES_04046,official,TRUE
ES_04047,-2.4925599366884232,36.9522177894643,ES,ES61,ES611,04047,Gádor,3027,87.66888031,2018,ES_04047,official,TRUE
ES_04048,-1.9418414398456958,37.16939033521727,ES,ES61,ES611,04048,"Gallardos, Los",2803,34.90923231,2018,ES_04048,official,TRUE
ES_04049,-1.822261283992181,37.183718061663974,ES,ES61,ES611,04049,Garrucha,8838,7.66778967,2018,ES_04049,official,TRUE
ES_04050,-2.5443738932044644,37.12176527686467,ES,ES61,ES611,04050,Gérgal,1031,229.56395219,2018,ES_04050,official,TRUE
ES_04051,-2.608170565955348,36.964783340123766,ES,ES61,ES611,04051,Huécija,486,19.02521465,2018,ES_04051,official,TRUE
ES_04052,-2.4425371294142875,36.88186253604398,ES,ES61,ES611,04052,Huércal de Almería,17418,20.91128752,2018,ES_04052,official,TRUE
ES_04053,-1.9450928875795586,37.39212998962632,ES,ES61,ES611,04053,Huércal-Overa,18816,317.81167293,2018,ES_04053,official,TRUE
ES_04054,-2.635450940482205,36.98815128093986,ES,ES61,ES611,04054,Íllar,390,19.16997237,2018,ES_04054,official,TRUE
ES_04055,-2.6587636262497396,36.99416577264205,ES,ES61,ES611,04055,Instinción,429,33.5169823,2018,ES_04055,official,TRUE
ES_04056,-2.327867569052808,37.29484040278095,ES,ES61,ES611,04056,Laroya,169,21.69861632,2018,ES_04056,official,TRUE
ES_04057,-2.8945765783605815,36.9920243838177,ES,ES61,ES611,04057,Láujar de Andarax,1538,92.88229815,2018,ES_04057,official,TRUE
ES_04058,-2.213801385250746,37.29183270140052,ES,ES61,ES611,04058,Líjar,390,28.20005769,2018,ES_04058,official,TRUE
ES_04059,-2.064089846463758,37.22047121334951,ES,ES61,ES611,04059,Lubrín,1431,138.26075392,2018,ES_04059,official,TRUE
ES_04060,-2.1952988444970023,37.03654211608392,ES,ES61,ES611,04060,Lucainena de las Torres,546,123.22093791,2018,ES_04060,official,TRUE
ES_04061,-2.429280076204819,37.39620584390421,ES,ES61,ES611,04061,Lúcar,766,100.61781509,2018,ES_04061,official,TRUE
ES_04062,-2.300990143021064,37.33450554352947,ES,ES61,ES611,04062,Macael,5539,43.80465866,2018,ES_04062,official,TRUE
ES_04063,-2.164784451322253,37.71137176045494,ES,ES61,ES611,04063,María,1261,225.57848117,2018,ES_04063,official,TRUE
ES_04064,-1.838775542421635,37.1386442221267,ES,ES61,ES611,04064,Mojácar,6301,71.58096494,2018,ES_04064,official,TRUE
ES_04065,-2.6450977762538717,37.106069933443514,ES,ES61,ES611,04065,Nacimiento,460,80.78260427,2018,ES_04065,official,TRUE
ES_04066,-2.147973432944665,36.91916485794131,ES,ES61,ES611,04066,Níjar,30122,599.83225283,2018,ES_04066,official,TRUE
ES_04067,-2.7459044757168942,37.03736254212951,ES,ES61,ES611,04067,Ohanes,596,32.40843218,2018,ES_04067,official,TRUE
ES_04068,-2.4763628689448076,37.17442893509273,ES,ES61,ES611,04068,Olula de Castro,180,33.56869534,2018,ES_04068,official,TRUE
ES_04069,-2.2962365050688858,37.355616669530846,ES,ES61,ES611,04069,Olula del Río,6212,23.50734746,2018,ES_04069,official,TRUE
ES_04070,-2.2879316185148606,37.48426205075094,ES,ES61,ES611,04070,Oria,2238,234.72748653,2018,ES_04070,official,TRUE
ES_04071,-2.7725680166783264,36.997141456263954,ES,ES61,ES611,04071,Padules,419,26.5279435,2018,ES_04071,official,TRUE
ES_04072,-2.219469979391571,37.40556595670936,ES,ES61,ES611,04072,Partaloa,1055,52.52599686,2018,ES_04072,official,TRUE
ES_04073,-2.956453816066165,37.018613082382245,ES,ES61,ES611,04073,Paterna del Río,362,45.47934555,2018,ES_04073,official,TRUE
ES_04074,-2.4406431075515935,36.91441038207608,ES,ES61,ES611,04074,Pechina,4018,46.02471089,2018,ES_04074,official,TRUE
ES_04075,-1.7446341857688656,37.404960141584006,ES,ES61,ES611,04075,Pulpí,9502,94.7411183,2018,ES_04075,official,TRUE
ES_04076,-2.3596835109987926,37.34568758331095,ES,ES61,ES611,04076,Purchena,1621,56.50603471,2018,ES_04076,official,TRUE
ES_04077,-2.6808445951898765,36.99118344255681,ES,ES61,ES611,04077,Rágol,304,26.92348086,2018,ES_04077,official,TRUE
ES_04078,-2.461565877857698,36.94705337403806,ES,ES61,ES611,04078,Rioja,1364,36.42486786,2018,ES_04078,official,TRUE
ES_04079,-2.6089091665318946,36.77278027698299,ES,ES61,ES611,04079,Roquetas de Mar,94925,59.64799077,2018,ES_04079,official,TRUE
ES_04080,-2.6067998193409885,37.01945249068077,ES,ES61,ES611,04080,Santa Cruz de Marchena,218,19.91259787,2018,ES_04080,official,TRUE
ES_04081,-2.5295740159458906,36.97391160926922,ES,ES61,ES611,04081,Santa Fe de Mondújar,432,34.88761371,2018,ES_04081,official,TRUE
ES_04082,-2.344825713990772,37.200711734241175,ES,ES61,ES611,04082,Senés,300,50.22776298,2018,ES_04082,official,TRUE
ES_04083,-2.507890699907556,37.345576021108485,ES,ES61,ES611,04083,Serón,2035,166.42750279,2018,ES_04083,official,TRUE
ES_04084,-2.400806471307413,37.32192800738713,ES,ES61,ES611,04084,Sierro,393,27.49173409,2018,ES_04084,official,TRUE
ES_04085,-2.3901398571173513,37.38874552497719,ES,ES61,ES611,04085,Somontín,463,16.17658543,2018,ES_04085,official,TRUE
ES_04086,-2.1229018963941058,37.102302295255825,ES,ES61,ES611,04086,Sorbas,2389,249.15519693,2018,ES_04086,official,TRUE
ES_04087,-2.3929445173513724,37.34127339231851,ES,ES61,ES611,04087,Suflí,217,10.11961302,2018,ES_04087,official,TRUE
ES_04088,-2.3891744497578116,37.05099627123251,ES,ES61,ES611,04088,Tabernas,3704,280.33071102,2018,ES_04088,official,TRUE
ES_04089,-2.0707844951360292,37.466564037046,ES,ES61,ES611,04089,Taberno,963,44.06428005,2018,ES_04089,official,TRUE
ES_04090,-2.281681439973209,37.22718291554953,ES,ES61,ES611,04090,Tahal,324,94.69006943,2018,ES_04090,official,TRUE
ES_04091,-2.5984150230046303,36.98398230930998,ES,ES61,ES611,04091,Terque,381,15.6846882,2018,ES_04091,official,TRUE
ES_04092,-2.438727534679934,37.34445762854685,ES,ES61,ES611,04092,Tíjola,3569,67.36241907,2018,ES_04092,official,TRUE
ES_04093,-1.894256054270608,37.149500597930775,ES,ES61,ES611,04093,Turre,3384,107.95544886,2018,ES_04093,official,TRUE
ES_04094,-2.268957259907626,37.02779581891128,ES,ES61,ES611,04094,Turrillas,233,39.18361564,2018,ES_04094,official,TRUE
ES_04095,-2.2057146496625464,37.1825525543428,ES,ES61,ES611,04095,Uleila del Campo,836,38.67303701,2018,ES_04095,official,TRUE
ES_04096,-2.369189251280884,37.398934537376995,ES,ES61,ES611,04096,Urrácal,329,25.47685328,2018,ES_04096,official,TRUE
ES_04097,-2.400431155689598,37.193691253394924,ES,ES61,ES611,04097,Velefique,253,66.39340281,2018,ES_04097,official,TRUE
ES_04098,-2.0939320880669317,37.69267691778578,ES,ES61,ES611,04098,Vélez-Blanco,1938,441.31522056,2018,ES_04098,official,TRUE
ES_04099,-2.0733704750659028,37.64836945018672,ES,ES61,ES611,04099,Vélez-Rubio,6630,281.97428717,2018,ES_04099,official,TRUE
ES_04100,-1.86534098828046,37.24447147791806,ES,ES61,ES611,04100,Vera,15837,58.00163527,2018,ES_04100,official,TRUE
ES_04101,-2.424967233094981,36.887988466709615,ES,ES61,ES611,04101,Viator,5791,20.60646441,2018,ES_04101,official,TRUE
ES_04102,-2.6297730970889495,36.8050290412098,ES,ES61,ES611,04102,Vícar,25405,64.37819622,2018,ES_04102,official,TRUE
ES_04103,-2.0414494542306985,37.350677573553384,ES,ES61,ES611,04103,Zurgena,2893,71.60108268,2018,ES_04103,official,TRUE
ES_04901,-2.7280154108960737,37.151708836871016,ES,ES61,ES611,04901,"Tres Villas, Las",570,85.34931403,2018,ES_04901,official,TRUE
ES_04902,-2.8098922629866023,36.77109357870279,ES,ES61,ES611,04902,"Ejido, El",84710,225.85634779,2018,ES_04902,official,TRUE
ES_04903,-2.6834733323027056,36.75419517640988,ES,ES61,ES611,04903,"Mojonera, La",9003,23.86991744,2018,ES_04903,official,TRUE
ES_04904,-2.9076633284584315,36.749276776955774,ES,ES61,ES611,04904,Balanegra,2933,31.61070933,2018,ES_04904,official,TRUE
ES_05001,-4.6027916942011196,40.94306028307508,ES,ES41,ES411,05001,Adanero,202,31.42199471,2018,ES_05001,official,TRUE
ES_05002,-4.633166359933721,40.300473577423986,ES,ES41,ES411,05002,"Adrada, La",2517,58.68046663,2018,ES_05002,official,TRUE
ES_05005,-4.879372192071228,40.837257615034446,ES,ES41,ES411,05005,Albornos,190,17.0881789,2018,ES_05005,official,TRUE
ES_05007,-5.419203416004465,40.385888044475585,ES,ES41,ES411,05007,Aldeanueva de Santa Cruz,119,8.4718908,2018,ES_05007,official,TRUE
ES_05008,-4.821240065028381,41.047823206028774,ES,ES41,ES411,05008,Aldeaseca,233,24.24579253,2018,ES_05008,official,TRUE
ES_05010,-5.412353718352764,40.40829648735964,ES,ES41,ES411,05010,"Aldehuela, La",168,17.11833452,2018,ES_05010,official,TRUE
ES_05012,-5.06416008908766,40.57039839934208,ES,ES41,ES411,05012,Amavida,135,15.00797565,2018,ES_05012,official,TRUE
ES_05013,-5.089442098304117,40.2635247794785,ES,ES41,ES411,05013,"Arenal, El",972,27.10470709,2018,ES_05013,official,TRUE
ES_05014,-5.086638177071367,40.20897923701789,ES,ES41,ES411,05014,Arenas de San Pedro,6454,194.6356082,2018,ES_05014,official,TRUE
ES_05015,-5.372524989691212,40.58652654468664,ES,ES41,ES411,05015,Arevalillo,75,14.97639982,2018,ES_05015,official,TRUE
ES_05016,-4.715376724273903,41.05603326634352,ES,ES41,ES411,05016,Arévalo,8069,45.69718256,2018,ES_05016,official,TRUE
ES_05017,-4.8409812856066985,40.778879846698395,ES,ES41,ES411,05017,Aveinte,86,12.84807766,2018,ES_05017,official,TRUE
ES_05018,-5.394395359597456,40.39022605649212,ES,ES41,ES411,05018,Avellaneda,26,10.25885162,2018,ES_05018,official,TRUE
ES_05019,-4.6927016311991885,40.653852243717346,ES,ES41,ES411,05019,Ávila,57657,230.68098595,2018,ES_05019,official,TRUE
ES_05021,-5.52135528361176,40.36017405733798,ES,ES41,ES411,05021,"Barco de Ávila, El",2368,12.70324631,2018,ES_05021,official,TRUE
ES_05022,-4.640473244351593,40.47888245786467,ES,ES41,ES411,05022,"Barraco, El",1889,153.85425657,2018,ES_05022,official,TRUE
ES_05023,-4.934917455033912,41.06727731872978,ES,ES41,ES411,05023,Barromán,186,20.03004937,2018,ES_05023,official,TRUE
ES_05024,-5.63971581460958,40.40554565550944,ES,ES41,ES411,05024,Becedas,206,32.17323327,2018,ES_05024,official,TRUE
ES_05025,-5.324834309001819,40.53904347565229,ES,ES41,ES411,05025,Becedillas,90,19.87071979,2018,ES_05025,official,TRUE
ES_05026,-4.965659183451689,41.044250632028444,ES,ES41,ES411,05026,Bercial de Zapardiel,199,17.29378484,2018,ES_05026,official,TRUE
ES_05027,-4.761809966355192,40.79984426651465,ES,ES41,ES411,05027,"Berlanas, Las",323,16.69670544,2018,ES_05027,official,TRUE
ES_05029,-4.934030843564744,40.97569047729696,ES,ES41,ES411,05029,Bernuy-Zapardiel,108,19.77489408,2018,ES_05029,official,TRUE
ES_05030,-4.5929952101399625,40.69699553841491,ES,ES41,ES411,05030,Berrocalejo de Aragona,43,9.00976057,2018,ES_05030,official,TRUE
ES_05033,-5.0903291997629685,40.80360803917208,ES,ES41,ES411,05033,Blascomillán,193,39.59060911,2018,ES_05033,official,TRUE
ES_05034,-4.985066807755105,41.12384189191234,ES,ES41,ES411,05034,Blasconuño de Matacabras,16,12.97764105,2018,ES_05034,official,TRUE
ES_05035,-4.626041500730592,40.879313405638115,ES,ES41,ES411,05035,Blascosancho,114,22.94447661,2018,ES_05035,official,TRUE
ES_05036,-4.7289827784621865,40.915156266959634,ES,ES41,ES411,05036,"Bohodón, El",126,22.05366424,2018,ES_05036,official,TRUE
ES_05037,-5.437434983328747,40.31829064980993,ES,ES41,ES411,05037,Bohoyo,248,73.86544972,2018,ES_05037,official,TRUE
ES_05038,-5.258807306659959,40.53540959298141,ES,ES41,ES411,05038,Bonilla de la Sierra,120,55.03416913,2018,ES_05038,official,TRUE
ES_05039,-4.914238525779304,40.77436505171621,ES,ES41,ES411,05039,Brabos,44,18.33296191,2018,ES_05039,official,TRUE
ES_05040,-4.8460176234178265,40.73989155425731,ES,ES41,ES411,05040,Bularros,65,30.74505134,2018,ES_05040,official,TRUE
ES_05041,-4.784749203297745,40.411577763989186,ES,ES41,ES411,05041,Burgohondo,1196,55.33323094,2018,ES_05041,official,TRUE
ES_05042,-4.842587256759141,40.943720968776894,ES,ES41,ES411,05042,Cabezas de Alambre,157,11.78808278,2018,ES_05042,official,TRUE
ES_05043,-4.95500197554413,41.000013387748155,ES,ES41,ES411,05043,Cabezas del Pozo,84,17.97282471,2018,ES_05043,official,TRUE
ES_05044,-5.210902087908103,40.71286593699229,ES,ES41,ES411,05044,Cabezas del Villar,275,110.05946735,2018,ES_05044,official,TRUE
ES_05045,-4.798602137659521,40.9043208285406,ES,ES41,ES411,05045,Cabizuela,82,19.18359236,2018,ES_05045,official,TRUE
ES_05046,-4.894771623268988,41.00009181681246,ES,ES41,ES411,05046,Canales,48,6.66981342,2018,ES_05046,official,TRUE
ES_05047,-5.245147517555809,40.15700426625872,ES,ES41,ES411,05047,Candeleda,4998,213.93337281,2018,ES_05047,official,TRUE
ES_05048,-4.955834289962289,40.954023202811044,ES,ES41,ES411,05048,Cantiveros,112,14.38457088,2018,ES_05048,official,TRUE
ES_05049,-4.747157977145712,40.7384842505825,ES,ES41,ES411,05049,Cardeñosa,452,40.48916927,2018,ES_05049,official,TRUE
ES_05051,-5.553641566566078,40.34709786039129,ES,ES41,ES411,05051,"Carrera, La",181,14.16921943,2018,ES_05051,official,TRUE
ES_05052,-5.202441501432516,40.53056919813638,ES,ES41,ES411,05052,Casas del Puerto,92,22.16942971,2018,ES_05052,official,TRUE
ES_05053,-4.824450551861945,40.66852545380544,ES,ES41,ES411,05053,Casasola,84,18.35334876,2018,ES_05053,official,TRUE
ES_05054,-4.770391754073637,40.28477860426919,ES,ES41,ES411,05054,Casavieja,1429,39.25778931,2018,ES_05054,official,TRUE
ES_05055,-4.573491647404674,40.32398571149142,ES,ES41,ES411,05055,Casillas,637,11.96050316,2018,ES_05055,official,TRUE
ES_05056,-4.9137694485804015,41.08068290832842,ES,ES41,ES411,05056,Castellanos de Zapardiel,95,12.70011834,2018,ES_05056,official,TRUE
ES_05057,-4.4654854237584924,40.45874325448346,ES,ES41,ES411,05057,Cebreros,3056,137.94430265,2018,ES_05057,official,TRUE
ES_05058,-5.052628798474072,40.458183401164405,ES,ES41,ES411,05058,Cepeda la Mora,76,31.42113115,2018,ES_05058,official,TRUE
ES_05059,-4.979523422284108,40.702698927781135,ES,ES41,ES411,05059,Cillán,100,14.17893905,2018,ES_05059,official,TRUE
ES_05060,-5.017474550454056,40.96296606872713,ES,ES41,ES411,05060,Cisla,109,20.31119494,2018,ES_05060,official,TRUE
ES_05061,-4.760983982095935,40.64441156372985,ES,ES41,ES411,05061,"Colilla, La",329,10.81740637,2018,ES_05061,official,TRUE
ES_05062,-4.929271299071885,40.88489001103431,ES,ES41,ES411,05062,Collado de Contreras,179,18.44096425,2018,ES_05062,official,TRUE
ES_05063,-5.352220595057904,40.552997672754,ES,ES41,ES411,05063,Collado del Mirón,32,4.83472903,2018,ES_05063,official,TRUE
ES_05064,-4.880233391155753,40.938367858471345,ES,ES41,ES411,05064,Constanzana,106,26.85988979,2018,ES_05064,official,TRUE
ES_05065,-4.971292941430585,40.86843240363931,ES,ES41,ES411,05065,Crespos,496,31.91657353,2018,ES_05065,official,TRUE
ES_05066,-5.013312209592504,40.29372545302601,ES,ES41,ES411,05066,Cuevas del Valle,491,19.17438435,2018,ES_05066,official,TRUE
ES_05067,-4.9556031425383535,40.70346750616918,ES,ES41,ES411,05067,Chamartín,79,15.44448151,2018,ES_05067,official,TRUE
ES_05069,-4.848741673015309,40.96113085977143,ES,ES41,ES411,05069,Donjimeno,79,14.76765599,2018,ES_05069,official,TRUE
ES_05070,-4.8064023010419925,41.08674048915476,ES,ES41,ES411,05070,Donvidas,33,11.46806806,2018,ES_05070,official,TRUE
ES_05072,-4.677473237703483,41.00539330666352,ES,ES41,ES411,05072,Espinosa de los Caballeros,106,19.40557753,2018,ES_05072,official,TRUE
ES_05073,-5.082743526933081,40.9365228571047,ES,ES41,ES411,05073,Flores de Ávila,307,43.02738914,2018,ES_05073,official,TRUE
ES_05074,-4.961548371334438,40.92750511662067,ES,ES41,ES411,05074,Fontiveros,751,36.39823128,2018,ES_05074,official,TRUE
ES_05075,-4.623753322781297,40.233891422193956,ES,ES41,ES411,05075,Fresnedilla,121,24.55831669,2018,ES_05075,official,TRUE
ES_05076,-4.754626411720026,40.617677685616464,ES,ES41,ES411,05076,"Fresno, El",601,13.09069738,2018,ES_05076,official,TRUE
ES_05077,-4.910540872377217,40.979602030343685,ES,ES41,ES411,05077,Fuente el Saúz,165,9.81120731,2018,ES_05077,official,TRUE
ES_05078,-4.898720213222944,41.01772748593458,ES,ES41,ES411,05078,Fuentes de Año,105,20.00935802,2018,ES_05078,official,TRUE
ES_05079,-4.9079063861117955,40.712333863552296,ES,ES41,ES411,05079,Gallegos de Altamiros,63,20.47710703,2018,ES_05079,official,TRUE
ES_05080,-5.119001084108595,40.702428586182485,ES,ES41,ES411,05080,Gallegos de Sobrinos,43,43.23419762,2018,ES_05080,official,TRUE
ES_05081,-5.1001688301643355,40.454232672438266,ES,ES41,ES411,05081,Garganta del Villar,40,18.18085345,2018,ES_05081,official,TRUE
ES_05082,-4.854524985014308,40.27976437080899,ES,ES41,ES411,05082,Gavilanes,587,29.14436819,2018,ES_05082,official,TRUE
ES_05083,-4.7826786750338535,40.593843680089854,ES,ES41,ES411,05083,Gemuño,155,17.18269372,2018,ES_05083,official,TRUE
ES_05084,-5.605406250273056,40.41075505327078,ES,ES41,ES411,05084,Gilbuena,68,15.12285917,2018,ES_05084,official,TRUE
ES_05085,-5.591093185316337,40.296572535689826,ES,ES41,ES411,05085,Gil García,36,15.46158915,2018,ES_05085,official,TRUE
ES_05086,-5.117690547643975,40.87420014612192,ES,ES41,ES411,05086,Gimialcón,77,19.05198562,2018,ES_05086,official,TRUE
ES_05087,-4.74396384786337,40.826119868439314,ES,ES41,ES411,05087,Gotarrendura,161,10.63675881,2018,ES_05087,official,TRUE
ES_05088,-4.964794065760493,40.761770577708816,ES,ES41,ES411,05088,Grandes y San Martín,31,11.59077866,2018,ES_05088,official,TRUE
ES_05089,-5.139064357345625,40.21923906477062,ES,ES41,ES411,05089,Guisando,511,38.30095187,2018,ES_05089,official,TRUE
ES_05090,-4.636604947002387,40.98385065781549,ES,ES41,ES411,05090,Gutierre-Muñoz,78,22.17773756,2018,ES_05090,official,TRUE
ES_05092,-4.7279399405973646,40.860133074481375,ES,ES41,ES411,05092,Hernansancho,169,19.37582632,2018,ES_05092,official,TRUE
ES_05093,-4.505617070239897,40.594756732686996,ES,ES41,ES411,05093,Herradón de Pinares,405,48.36632155,2018,ES_05093,official,TRUE
ES_05094,-5.040074430550876,40.80351077802516,ES,ES41,ES411,05094,Herreros de Suso,135,21.52763812,2018,ES_05094,official,TRUE
ES_05095,-4.606994567730386,40.23628194511138,ES,ES41,ES411,05095,Higuera de las Dueñas,267,35.02005735,2018,ES_05095,official,TRUE
ES_05096,-4.964584995677945,40.53067356012133,ES,ES41,ES411,05096,"Hija de Dios, La",78,12.51325459,2018,ES_05096,official,TRUE
ES_05097,-5.467760294105164,40.43352611767066,ES,ES41,ES411,05097,"Horcajada, La",518,46.53834826,2018,ES_05097,official,TRUE
ES_05099,-5.091129335719891,41.06198977922192,ES,ES41,ES411,05099,Horcajo de las Torres,512,47.31809157,2018,ES_05099,official,TRUE
ES_05100,-5.099684343580435,40.25282303451379,ES,ES41,ES411,05100,"Hornillo, El",295,23.25053786,2018,ES_05100,official,TRUE
ES_05101,-4.978830222756184,40.4000194242368,ES,ES41,ES411,05101,Hoyocasero,290,52.26937881,2018,ES_05101,official,TRUE
ES_05102,-4.426796449005421,40.50167969329211,ES,ES41,ES411,05102,"Hoyo de Pinares, El",2164,80.84635772,2018,ES_05102,official,TRUE
ES_05103,-5.414651281077026,40.45819935070352,ES,ES41,ES411,05103,Hoyorredondo,67,17.22882453,2018,ES_05103,official,TRUE
ES_05104,-5.196271507010388,40.35711401392247,ES,ES41,ES411,05104,Hoyos del Collado,34,9.90533573,2018,ES_05104,official,TRUE
ES_05105,-5.17217996527598,40.356244055511944,ES,ES41,ES411,05105,Hoyos del Espino,363,52.93530317,2018,ES_05105,official,TRUE
ES_05106,-5.0644252160279635,40.395983131755905,ES,ES41,ES411,05106,Hoyos de Miguel Muñoz,29,11.86650215,2018,ES_05106,official,TRUE
ES_05107,-5.1048195076419836,40.691026771165035,ES,ES41,ES411,05107,Hurtumpascual,54,18.61486722,2018,ES_05107,official,TRUE
ES_05108,-5.557217826931994,40.41015495658545,ES,ES41,ES411,05108,Junciana,40,14.99780089,2018,ES_05108,official,TRUE
ES_05109,-4.859413091080607,41.00536594160203,ES,ES41,ES411,05109,Langa,487,24.43593382,2018,ES_05109,official,TRUE
ES_05110,-4.932516026136073,40.20525520959557,ES,ES41,ES411,05110,Lanzahíta,844,33.6744947,2018,ES_05110,official,TRUE
ES_05112,-5.539472925478379,40.392227619162725,ES,ES41,ES411,05112,"Losar del Barco, El",110,19.53701805,2018,ES_05112,official,TRUE
ES_05113,-5.493094921178048,40.32835026845572,ES,ES41,ES411,05113,"Llanos de Tormes, Los",64,17.45585858,2018,ES_05113,official,TRUE
ES_05114,-5.000670766496434,41.08924661230813,ES,ES41,ES411,05114,Madrigal de las Altas Torres,1440,106.81555824,2018,ES_05114,official,TRUE
ES_05115,-4.519993030806914,40.8144438176675,ES,ES41,ES411,05115,Maello,596,65.33500873,2018,ES_05115,official,TRUE
ES_05116,-5.346800819552784,40.52492530778443,ES,ES41,ES411,05116,Malpartida de Corneja,102,19.04296578,2018,ES_05116,official,TRUE
ES_05117,-5.0083071236967625,41.01938796863937,ES,ES41,ES411,05117,Mamblas,208,24.04280641,2018,ES_05117,official,TRUE
ES_05118,-5.144838663442581,40.78781728801057,ES,ES41,ES411,05118,Mancera de Arriba,74,17.59574067,2018,ES_05118,official,TRUE
ES_05119,-5.057760349625792,40.67016518595453,ES,ES41,ES411,05119,Manjabálago y Ortigosa de Rioalmar,27,17.02682959,2018,ES_05119,official,TRUE
ES_05120,-4.824260883013734,40.708084550368795,ES,ES41,ES411,05120,Marlín,31,6.39125712,2018,ES_05120,official,TRUE
ES_05121,-4.7806538933890534,40.67661678585893,ES,ES41,ES411,05121,Martiherrero,317,22.79791423,2018,ES_05121,official,TRUE
ES_05122,-5.346496834575128,40.6273592942837,ES,ES41,ES411,05122,Martínez,122,18.06473519,2018,ES_05122,official,TRUE
ES_05123,-4.55828600631865,40.70217116242836,ES,ES41,ES411,05123,Mediana de Voltoya,105,18.38258937,2018,ES_05123,official,TRUE
ES_05124,-5.615288571521156,40.43768345127124,ES,ES41,ES411,05124,Medinilla,99,22.88442572,2018,ES_05124,official,TRUE
ES_05125,-5.0043639633957335,40.49854666844681,ES,ES41,ES411,05125,Mengamuñoz,61,11.76019867,2018,ES_05125,official,TRUE
ES_05126,-5.304390981701888,40.505163707669276,ES,ES41,ES411,05126,Mesegar de Corneja,60,10.30812302,2018,ES_05126,official,TRUE
ES_05127,-4.833985015336618,40.29398496264841,ES,ES41,ES411,05127,Mijares,704,46.98906165,2018,ES_05127,official,TRUE
ES_05128,-4.6657223160037615,40.75030975744741,ES,ES41,ES411,05128,Mingorría,395,30.72019057,2018,ES_05128,official,TRUE
ES_05129,-5.4077587351551575,40.53546571524899,ES,ES41,ES411,05129,"Mirón, El",124,31.08246087,2018,ES_05129,official,TRUE
ES_05130,-4.823286605361721,40.552249421162756,ES,ES41,ES411,05130,Mironcillo,95,15.23649538,2018,ES_05130,official,TRUE
ES_05131,-5.095269874098762,40.73993319262448,ES,ES41,ES411,05131,Mirueña de los Infanzones,92,31.21783211,2018,ES_05131,official,TRUE
ES_05132,-5.0168156711085095,40.258103425126414,ES,ES41,ES411,05132,Mombeltrán,1006,49.90484347,2018,ES_05132,official,TRUE
ES_05133,-4.779675339339541,40.76981988027011,ES,ES41,ES411,05133,Monsalupe,73,17.71311205,2018,ES_05133,official,TRUE
ES_05134,-4.957373224667322,41.1097185300364,ES,ES41,ES411,05134,Moraleja de Matacabras,50,14.90692216,2018,ES_05134,official,TRUE
ES_05135,-5.0118772403275065,40.58776958054499,ES,ES41,ES411,05135,Muñana,394,33.60828553,2018,ES_05135,official,TRUE
ES_05136,-5.028125625725996,40.70453364869963,ES,ES41,ES411,05136,Muñico,94,13.27694408,2018,ES_05136,official,TRUE
ES_05138,-4.89713906603559,40.60458910529571,ES,ES41,ES411,05138,Muñogalindo,334,18.79259686,2018,ES_05138,official,TRUE
ES_05139,-4.942107431198439,40.8133726241569,ES,ES41,ES411,05139,Muñogrande,67,16.17850806,2018,ES_05139,official,TRUE
ES_05140,-4.8797164929132695,40.855554114586624,ES,ES41,ES411,05140,Muñomer del Peco,128,10.08341973,2018,ES_05140,official,TRUE
ES_05141,-4.818770527720373,40.635458864888086,ES,ES41,ES411,05141,Muñopepe,103,6.03819594,2018,ES_05141,official,TRUE
ES_05142,-5.033097726538191,40.923881558299314,ES,ES41,ES411,05142,Muñosancho,96,19.73146466,2018,ES_05142,official,TRUE
ES_05143,-5.0383525612555475,40.54362429722222,ES,ES41,ES411,05143,Muñotello,62,19.94461839,2018,ES_05143,official,TRUE
ES_05144,-5.452639140018862,40.568024710850246,ES,ES41,ES411,05144,Narrillos del Álamo,77,29.34106521,2018,ES_05144,official,TRUE
ES_05145,-4.969524423066305,40.668145620555165,ES,ES41,ES411,05145,Narrillos del Rebollar,50,17.40262961,2018,ES_05145,official,TRUE
ES_05147,-5.063227307142281,40.85504824598769,ES,ES41,ES411,05147,Narros del Castillo,161,33.59718133,2018,ES_05147,official,TRUE
ES_05148,-4.990231293209678,40.54508491357153,ES,ES41,ES411,05148,Narros del Puerto,22,10.38188096,2018,ES_05148,official,TRUE
ES_05149,-4.86469026801341,40.87599425968438,ES,ES41,ES411,05149,Narros de Saldueña,101,9.42229075,2018,ES_05149,official,TRUE
ES_05151,-5.18014595320643,40.48815239546788,ES,ES41,ES411,05151,Navacepedilla de Corneja,98,29.4895271,2018,ES_05151,official,TRUE
ES_05152,-4.779515449761086,40.983452273352015,ES,ES41,ES411,05152,Nava de Arévalo,753,58.25993064,2018,ES_05152,official,TRUE
ES_05153,-5.540257657477348,40.293525762270846,ES,ES41,ES411,05153,Nava del Barco,93,29.39241097,2018,ES_05153,official,TRUE
ES_05154,-5.079978669325209,40.42167780059643,ES,ES41,ES411,05154,Navadijos,34,19.86083419,2018,ES_05154,official,TRUE
ES_05155,-5.277157707036662,40.473169966048886,ES,ES41,ES411,05155,Navaescurial,46,35.3175108,2018,ES_05155,official,TRUE
ES_05156,-4.487428832324099,40.326212762270515,ES,ES41,ES411,05156,Navahondilla,310,22.09702271,2018,ES_05156,official,TRUE
ES_05157,-4.92945645332507,40.44403545243028,ES,ES41,ES411,05157,Navalacruz,247,50.03607674,2018,ES_05157,official,TRUE
ES_05158,-4.76671380916297,40.45994361205851,ES,ES41,ES411,05158,Navalmoral,336,43.34486778,2018,ES_05158,official,TRUE
ES_05159,-5.501871552291676,40.280722426515105,ES,ES41,ES411,05159,Navalonguilla,236,90.73321588,2018,ES_05159,official,TRUE
ES_05160,-4.9305273642661245,40.3982786383777,ES,ES41,ES411,05160,Navalosa,321,30.01037034,2018,ES_05160,official,TRUE
ES_05161,-4.412723700035338,40.59364260310412,ES,ES41,ES411,05161,Navalperal de Pinares,777,49.88631784,2018,ES_05161,official,TRUE
ES_05162,-5.3025338468210705,40.35044894603915,ES,ES41,ES411,05162,Navalperal de Tormes,90,60.93938781,2018,ES_05162,official,TRUE
ES_05163,-4.706538751340868,40.41326763708855,ES,ES41,ES411,05163,Navaluenga,1878,73.50522435,2018,ES_05163,official,TRUE
ES_05164,-4.916078069764888,40.42939939059104,ES,ES41,ES411,05164,Navaquesera,16,9.19498782,2018,ES_05164,official,TRUE
ES_05165,-5.13533274644589,40.36157760363197,ES,ES41,ES411,05165,Navarredonda de Gredos,434,78.79902102,2018,ES_05165,official,TRUE
ES_05166,-4.823276912750159,40.45135810696275,ES,ES41,ES411,05166,Navarredondilla,168,20.26998617,2018,ES_05166,official,TRUE
ES_05167,-4.898781698404947,40.36637485279461,ES,ES41,ES411,05167,Navarrevisca,279,40.03196185,2018,ES_05167,official,TRUE
ES_05168,-4.331833536409448,40.60159861045943,ES,ES41,ES411,05168,"Navas del Marqués, Las",5139,98.3201881,2018,ES_05168,official,TRUE
ES_05169,-4.874677178680604,40.415989953427484,ES,ES41,ES411,05169,Navatalgordo,251,20.05446288,2018,ES_05169,official,TRUE
ES_05170,-5.52618012840007,40.3331819392204,ES,ES41,ES411,05170,Navatejares,55,11.05884908,2018,ES_05170,official,TRUE
ES_05171,-5.653294177956232,40.42238630929875,ES,ES41,ES411,05171,Neila de San Miguel,69,7.90151033,2018,ES_05171,official,TRUE
ES_05172,-4.8443051628480465,40.58960961836883,ES,ES41,ES411,05172,Niharra,184,11.28138116,2018,ES_05172,official,TRUE
ES_05173,-4.5107404754578,40.712406983725785,ES,ES41,ES411,05173,Ojos-Albos,63,43.13277779,2018,ES_05173,official,TRUE
ES_05174,-4.672347928207863,40.988267495535155,ES,ES41,ES411,05174,Orbita,75,14.36636426,2018,ES_05174,official,TRUE
ES_05175,-4.771049950858309,40.838673770234024,ES,ES41,ES411,05175,"Oso, El",172,18.50036941,2018,ES_05175,official,TRUE
ES_05176,-4.8461118158790075,40.620769953436024,ES,ES41,ES411,05176,Padiernos,272,36.9706988,2018,ES_05176,official,TRUE
ES_05177,-4.641663255532875,40.92470143230818,ES,ES41,ES411,05177,Pajares de Adaja,154,23.24613184,2018,ES_05177,official,TRUE
ES_05178,-4.7805567610543465,41.11235136016951,ES,ES41,ES411,05178,Palacios de Goda,402,52.99900078,2018,ES_05178,official,TRUE
ES_05179,-4.839226289755892,40.869518545496156,ES,ES41,ES411,05179,Papatrigo,232,21.01434073,2018,ES_05179,official,TRUE
ES_05180,-4.991386192835315,40.80173055672279,ES,ES41,ES411,05180,"Parral, El",72,10.87307084,2018,ES_05180,official,TRUE
ES_05181,-5.280483952098573,40.65608287901249,ES,ES41,ES411,05181,Pascualcobo,43,16.14509181,2018,ES_05181,official,TRUE
ES_05182,-4.913204373574335,40.24446205128342,ES,ES41,ES411,05182,Pedro Bernardo,844,69.05279609,2018,ES_05182,official,TRUE
ES_05183,-4.782322753762602,40.934487074784784,ES,ES41,ES411,05183,Pedro-Rodríguez,140,14.07366868,2018,ES_05183,official,TRUE
ES_05184,-4.231414622692142,40.63021630314223,ES,ES41,ES411,05184,Peguerinos,272,86.0497174,2018,ES_05184,official,TRUE
ES_05185,-4.7431870211079135,40.775761025390295,ES,ES41,ES411,05185,Peñalba de Ávila,113,23.50363262,2018,ES_05185,official,TRUE
ES_05186,-5.327570210137103,40.46502316752155,ES,ES41,ES411,05186,Piedrahíta,1811,28.68012447,2018,ES_05186,official,TRUE
ES_05187,-4.697394716764194,40.316447951018475,ES,ES41,ES411,05187,Piedralaves,2057,55.24613824,2018,ES_05187,official,TRUE
ES_05188,-5.077142122665741,40.56839073766494,ES,ES41,ES411,05188,Poveda,45,6.5277269,2018,ES_05188,official,TRUE
ES_05189,-5.162952283129341,40.169610082181485,ES,ES41,ES411,05189,Poyales del Hoyo,482,3.36215482,2018,ES_05189,official,TRUE
ES_05190,-4.666500265357138,40.80425133674896,ES,ES41,ES411,05190,Pozanco,49,11.06339746,2018,ES_05190,official,TRUE
ES_05191,-5.075157900532655,40.550235441619876,ES,ES41,ES411,05191,Pradosegar,126,11.29385874,2018,ES_05191,official,TRUE
ES_05192,-5.628423387662868,40.29015319945359,ES,ES41,ES411,05192,Puerto Castilla,107,43.28336455,2018,ES_05192,official,TRUE
ES_05193,-5.071549431389609,41.02479141971841,ES,ES41,ES411,05193,Rasueros,181,40.65713303,2018,ES_05193,official,TRUE
ES_05194,-4.805324428274454,40.830556046164176,ES,ES41,ES411,05194,Riocabado,146,19.76562681,2018,ES_05194,official,TRUE
ES_05195,-4.774329018075002,40.5514497545357,ES,ES41,ES411,05195,Riofrío,227,65.52398613,2018,ES_05195,official,TRUE
ES_05196,-4.99178993647233,40.90261942486291,ES,ES41,ES411,05196,Rivilla de Barajas,65,24.37357731,2018,ES_05196,official,TRUE
ES_05197,-4.812660242013925,40.608908524323795,ES,ES41,ES411,05197,Salobral,116,7.54680976,2018,ES_05197,official,TRUE
ES_05198,-5.094380076352825,40.87772816892443,ES,ES41,ES411,05198,Salvadiós,75,20.3891197,2018,ES_05198,official,TRUE
ES_05199,-5.665654795996433,40.411017035874025,ES,ES41,ES411,05199,San Bartolomé de Béjar,42,16.50093657,2018,ES_05199,official,TRUE
ES_05200,-5.3833475825208446,40.484170822463,ES,ES41,ES411,05200,San Bartolomé de Corneja,43,7.35681617,2018,ES_05200,official,TRUE
ES_05201,-4.540553477061849,40.539801739091985,ES,ES41,ES411,05201,San Bartolomé de Pinares,553,74.70451231,2018,ES_05201,official,TRUE
ES_05204,-4.584363649623956,40.89079413986091,ES,ES41,ES411,05204,Sanchidrián,726,26.61018541,2018,ES_05204,official,TRUE
ES_05205,-4.912740948257873,40.667420047539274,ES,ES41,ES411,05205,Sanchorreja,86,35.33044184,2018,ES_05205,official,TRUE
ES_05206,-4.628745917741456,40.746662691055505,ES,ES41,ES411,05206,San Esteban de los Patos,30,10.34673978,2018,ES_05206,official,TRUE
ES_05207,-4.983806104188859,40.27155424856737,ES,ES41,ES411,05207,San Esteban del Valle,747,39.40971315,2018,ES_05207,official,TRUE
ES_05208,-4.904185290669138,41.09028996509253,ES,ES41,ES411,05208,San Esteban de Zapardiel,36,12.98917337,2018,ES_05208,official,TRUE
ES_05209,-5.115663183037961,40.76715141755709,ES,ES41,ES411,05209,San García de Ingelmos,80,38.06857702,2018,ES_05209,official,TRUE
ES_05210,-4.839067685845849,40.83021511910907,ES,ES41,ES411,05210,San Juan de la Encinilla,86,17.37826895,2018,ES_05210,official,TRUE
ES_05211,-4.682550700078483,40.48082954612022,ES,ES41,ES411,05211,San Juan de la Nava,473,60.76840823,2018,ES_05211,official,TRUE
ES_05212,-4.8472986235056865,40.46523174111768,ES,ES41,ES411,05212,San Juan del Molinillo,199,35.8102493,2018,ES_05212,official,TRUE
ES_05213,-5.052265257747697,40.65469847698894,ES,ES41,ES411,05213,San Juan del Olmo,105,30.4979898,2018,ES_05213,official,TRUE
ES_05214,-5.4940799009834915,40.37038413761313,ES,ES41,ES411,05214,San Lorenzo de Tormes,37,14.48827584,2018,ES_05214,official,TRUE
ES_05215,-5.153552604376017,40.42806775141516,ES,ES41,ES411,05215,San Martín de la Vega del Alberche,174,50.4752722,2018,ES_05215,official,TRUE
ES_05216,-5.055228165207319,40.37026572309836,ES,ES41,ES411,05216,San Martín del Pimpollar,189,45.64687092,2018,ES_05216,official,TRUE
ES_05217,-5.288686247858294,40.489537023943065,ES,ES41,ES411,05217,San Miguel de Corneja,55,6.82018089,2018,ES_05217,official,TRUE
ES_05218,-5.285612826425493,40.67358862437372,ES,ES41,ES411,05218,San Miguel de Serrezuela,125,34.76836727,2018,ES_05218,official,TRUE
ES_05219,-4.750780272010467,40.88622901077323,ES,ES41,ES411,05219,San Pascual,44,18.65427488,2018,ES_05219,official,TRUE
ES_05220,-4.870826388138355,40.801776888190034,ES,ES41,ES411,05220,San Pedro del Arroyo,428,18.54136065,2018,ES_05220,official,TRUE
ES_05221,-5.0027969385073705,40.2494941089522,ES,ES41,ES411,05221,Santa Cruz del Valle,365,29.62487719,2018,ES_05221,official,TRUE
ES_05222,-4.580949854348345,40.54293018153005,ES,ES41,ES411,05222,Santa Cruz de Pinares,141,41.39226144,2018,ES_05222,official,TRUE
ES_05224,-4.919163588443113,40.60185663215717,ES,ES41,ES411,05224,Santa María del Arroyo,111,11.15812317,2018,ES_05224,official,TRUE
ES_05225,-5.401469891839804,40.508492654272025,ES,ES41,ES411,05225,Santa María del Berrocal,403,28.39292806,2018,ES_05225,official,TRUE
ES_05226,-5.4545527093904465,40.39047035550124,ES,ES41,ES411,05226,Santa María de los Caballeros,73,22.39721754,2018,ES_05226,official,TRUE
ES_05227,-4.549135190949432,40.302492002684836,ES,ES41,ES411,05227,Santa María del Tiétar,436,11.89942109,2018,ES_05227,official,TRUE
ES_05228,-5.35030906773485,40.42975163890491,ES,ES41,ES411,05228,Santiago del Collado,176,42.70212654,2018,ES_05228,official,TRUE
ES_05229,-4.632280548062707,40.809740206320356,ES,ES41,ES411,05229,Santo Domingo de las Posadas,75,13.35074792,2018,ES_05229,official,TRUE
ES_05230,-4.908613101339108,40.786662470227256,ES,ES41,ES411,05230,Santo Tomé de Zabarcos,65,8.41519195,2018,ES_05230,official,TRUE
ES_05231,-4.802083482502883,40.96818551391311,ES,ES41,ES411,05231,San Vicente de Arévalo,171,16.12291194,2018,ES_05231,official,TRUE
ES_05232,-4.793670088386873,40.6301609790723,ES,ES41,ES411,05232,"Serrada, La",111,7.2444887,2018,ES_05232,official,TRUE
ES_05233,-4.91578086428116,40.336297401806355,ES,ES41,ES411,05233,Serranillos,250,18.28460163,2018,ES_05233,official,TRUE
ES_05234,-4.9311852045238345,40.801552265785766,ES,ES41,ES411,05234,Sigeres,43,13.70930486,2018,ES_05234,official,TRUE
ES_05235,-4.828176506565221,41.07438054712624,ES,ES41,ES411,05235,Sinlabajos,124,20.08433401,2018,ES_05235,official,TRUE
ES_05236,-5.609714636040362,40.32968391667029,ES,ES41,ES411,05236,Solana de Ávila,113,68.37990066,2018,ES_05236,official,TRUE
ES_05237,-5.011400768603873,40.7349817529442,ES,ES41,ES411,05237,Solana de Rioalmar,165,37.14341783,2018,ES_05237,official,TRUE
ES_05238,-4.911953243264652,40.54935271816592,ES,ES41,ES411,05238,Solosancho,837,51.98210891,2018,ES_05238,official,TRUE
ES_05239,-4.869665363122615,40.53736470497741,ES,ES41,ES411,05239,Sotalbo,251,90.43653384,2018,ES_05239,official,TRUE
ES_05240,-4.583271738124376,40.294904806720226,ES,ES41,ES411,05240,Sotillo de la Adrada,4542,43.26408302,2018,ES_05240,official,TRUE
ES_05241,-4.503109883656748,40.41446361942183,ES,ES41,ES411,05241,"Tiemblo, El",4097,75.55086882,2018,ES_05241,official,TRUE
ES_05242,-4.726643814550494,40.93370459488198,ES,ES41,ES411,05242,Tiñosillos,796,27.2472574,2018,ES_05242,official,TRUE
ES_05243,-4.588886020078742,40.745147771667284,ES,ES41,ES411,05243,Tolbaños,85,51.99031436,2018,ES_05243,official,TRUE
ES_05244,-5.507145537907204,40.309335935013976,ES,ES41,ES411,05244,Tormellas,41,9.23564287,2018,ES_05244,official,TRUE
ES_05245,-4.6129013349822845,40.62813538073495,ES,ES41,ES411,05245,Tornadizos de Ávila,435,95.46575042,2018,ES_05245,official,TRUE
ES_05246,-5.257358238140971,40.558522135786774,ES,ES41,ES411,05246,Tórtoles,60,20.77087205,2018,ES_05246,official,TRUE
ES_05247,-4.973225217551546,40.579785943298084,ES,ES41,ES411,05247,"Torre, La",239,58.33573111,2018,ES_05247,official,TRUE
ES_05249,-5.581982222463079,40.31310724739161,ES,ES41,ES411,05249,Umbrías,105,11.68087655,2018,ES_05249,official,TRUE
ES_05251,-5.12482831836749,40.60691544742335,ES,ES41,ES411,05251,Vadillo de la Sierra,67,46.15325771,2018,ES_05251,official,TRUE
ES_05252,-5.015717591871572,40.664983463251815,ES,ES41,ES411,05252,Valdecasa,62,21.80486778,2018,ES_05252,official,TRUE
ES_05253,-4.637120266484657,40.83708278066043,ES,ES41,ES411,05253,Vega de Santa María,85,18.18557136,2018,ES_05253,official,TRUE
ES_05254,-4.626258981095736,40.83871770568061,ES,ES41,ES411,05254,Velayos,213,20.43631113,2018,ES_05254,official,TRUE
ES_05256,-4.871836080539065,40.755909633627226,ES,ES41,ES411,05256,Villaflor,117,18.493226,2018,ES_05256,official,TRUE
ES_05257,-5.230677350815382,40.49861438458663,ES,ES41,ES411,05257,Villafranca de la Sierra,132,39.33561346,2018,ES_05257,official,TRUE
ES_05258,-4.728826755995881,40.88407612454041,ES,ES41,ES411,05258,Villanueva de Gómez,132,21.09674278,2018,ES_05258,official,TRUE
ES_05259,-4.856276773056609,41.04252642930801,ES,ES41,ES411,05259,Villanueva del Aceral,122,17.56621619,2018,ES_05259,official,TRUE
ES_05260,-5.178434915385817,40.580054154172146,ES,ES41,ES411,05260,Villanueva del Campillo,103,46.00771302,2018,ES_05260,official,TRUE
ES_05261,-5.43329121707971,40.475903920123486,ES,ES41,ES411,05261,Villar de Corneja,39,6.86013261,2018,ES_05261,official,TRUE
ES_05262,-4.999674334201936,40.28669629125259,ES,ES41,ES411,05262,Villarejo del Valle,363,41.5769158,2018,ES_05262,official,TRUE
ES_05263,-5.111941288432978,40.55382450103601,ES,ES41,ES411,05263,Villatoro,166,56.02137154,2018,ES_05263,official,TRUE
ES_05264,-4.918501665630172,40.84964265776471,ES,ES41,ES411,05264,Viñegra de Moraña,58,10.25181115,2018,ES_05264,official,TRUE
ES_05265,-5.0051749614554675,40.80887135129159,ES,ES41,ES411,05265,Vita,87,16.60960819,2018,ES_05265,official,TRUE
ES_05266,-5.341324979644483,40.6064220778454,ES,ES41,ES411,05266,Zapardiel de la Cañada,97,40.31823045,2018,ES_05266,official,TRUE
ES_05267,-5.336480031641318,40.34475685115285,ES,ES41,ES411,05267,Zapardiel de la Ribera,115,43.86086595,2018,ES_05267,official,TRUE
ES_05901,-5.249131106710253,40.36518957522716,ES,ES41,ES411,05901,San Juan de Gredos,251,95.85410132,2018,ES_05901,official,TRUE
ES_05902,-4.481974901128168,40.74808708445554,ES,ES41,ES411,05902,Santa María del Cubillo,314,65.81409134,2018,ES_05902,official,TRUE
ES_05903,-5.324284119811949,40.6675151140809,ES,ES41,ES411,05903,Diego del Carpio,147,33.80790744,2018,ES_05903,official,TRUE
ES_05904,-5.386946433381444,40.346450150474574,ES,ES41,ES411,05904,Santiago del Tormes,122,68.46190974,2018,ES_05904,official,TRUE
ES_05905,-4.818396548203085,40.37873339388508,ES,ES41,ES411,05905,Villanueva de Ávila,254,21.20836932,2018,ES_05905,official,TRUE
ES_06001,-5.624051056285692,39.084685708256494,ES,ES43,ES431,06001,Acedera,798,82.48181245,2018,ES_06001,official,TRUE
ES_06002,-6.4898235049149084,38.645086828084004,ES,ES43,ES431,06002,Aceuchal,5461,63.07216397,2018,ES_06002,official,TRUE
ES_06003,-5.864031957968586,38.26193106047047,ES,ES43,ES431,06003,Ahillones,893,21.51430105,2018,ES_06003,official,TRUE
ES_06004,-6.245747821590691,38.78794724773556,ES,ES43,ES431,06004,Alange,1880,160.17895642,2018,ES_06004,official,TRUE
ES_06005,-6.825936465367923,38.71474683693075,ES,ES43,ES431,06005,"Albuera, La",2029,26.36667883,2018,ES_06005,official,TRUE
ES_06006,-7.001177900591565,39.21906712502056,ES,ES43,ES431,06006,Alburquerque,5340,723.25313277,2018,ES_06006,official,TRUE
ES_06007,-7.068348198658702,38.514806728584425,ES,ES43,ES431,06007,Alconchel,1704,295.01573546,2018,ES_06007,official,TRUE
ES_06008,-6.474559163262117,38.39679960430497,ES,ES43,ES431,06008,Alconera,730,32.75634027,2018,ES_06008,official,TRUE
ES_06009,-6.333051385935251,39.04295868034341,ES,ES43,ES431,06009,Aljucén,245,19.06448592,2018,ES_06009,official,TRUE
ES_06010,-6.823472065458062,38.6137440751403,ES,ES43,ES431,06010,Almendral,1240,67.49795126,2018,ES_06010,official,TRUE
ES_06011,-6.406769016800107,38.68018525627661,ES,ES43,ES431,06011,Almendralejo,33468,164.26718037,2018,ES_06011,official,TRUE
ES_06012,-6.451187900422779,38.85411919153523,ES,ES43,ES431,06012,Arroyo de San Serván,4126,50.09528267,2018,ES_06012,official,TRUE
ES_06013,-6.472870754793518,38.33715109202992,ES,ES43,ES431,06013,Atalaya,293,22.70049516,2018,ES_06013,official,TRUE
ES_06014,-5.675967406506521,38.2588522230588,ES,ES43,ES431,06014,Azuaga,7891,497.93534406,2018,ES_06014,official,TRUE
ES_06015,-6.9735082703710765,38.874295592442486,ES,ES43,ES431,06015,Badajoz,150530,1440.28186229,2018,ES_06015,official,TRUE
ES_06016,-6.847283335693423,38.51738953781541,ES,ES43,ES431,06016,Barcarrota,3580,136.12061056,2018,ES_06016,official,TRUE
ES_06017,-4.91412156859435,38.957572263249446,ES,ES43,ES431,06017,Baterno,293,62.086497,2018,ES_06017,official,TRUE
ES_06018,-5.486363069757335,38.69705859586631,ES,ES43,ES431,06018,Benquerencia de la Serena,841,102.81540913,2018,ES_06018,official,TRUE
ES_06019,-5.83012356067811,38.280595692862526,ES,ES43,ES431,06019,Berlanga,2360,127.75582112,2018,ES_06019,official,TRUE
ES_06020,-6.206735699524968,38.29757541823981,ES,ES43,ES431,06020,Bienvenida,2128,92.14975833,2018,ES_06020,official,TRUE
ES_06021,-6.557061494911997,38.14638244840879,ES,ES43,ES431,06021,Bodonal de la Sierra,1052,68.3467428,2018,ES_06021,official,TRUE
ES_06022,-6.588336138100228,38.37884414683703,ES,ES43,ES431,06022,Burguillos del Cerro,3085,187.55378139,2018,ES_06022,official,TRUE
ES_06023,-5.221471563559046,38.71988565949434,ES,ES43,ES431,06023,Cabeza del Buey,4929,475.09962602,2018,ES_06023,official,TRUE
ES_06024,-6.422039084515177,38.08500861881802,ES,ES43,ES431,06024,Cabeza la Vaca,1331,64.01698511,2018,ES_06024,official,TRUE
ES_06025,-6.3876079763884075,38.885529454670454,ES,ES43,ES431,06025,Calamonte,6241,7.86437785,2018,ES_06025,official,TRUE
ES_06026,-6.334995065037621,38.10900236001512,ES,ES43,ES431,06026,Calera de León,969,68.39688272,2018,ES_06026,official,TRUE
ES_06027,-6.312578761611002,38.29935347850489,ES,ES43,ES431,06027,Calzadilla de los Barros,769,52.23726826,2018,ES_06027,official,TRUE
ES_06028,-5.618971718692532,38.86433559697589,ES,ES43,ES431,06028,Campanario,4967,257.3601809,2018,ES_06028,official,TRUE
ES_06029,-5.834393478215208,38.49858432448922,ES,ES43,ES431,06029,Campillo de Llerena,1373,234.09088161,2018,ES_06029,official,TRUE
ES_06030,-5.082664391240915,38.822764255974825,ES,ES43,ES431,06030,Capilla,186,146.9991401,2018,ES_06030,official,TRUE
ES_06031,-6.3369129660162855,39.1517531945485,ES,ES43,ES431,06031,Carmonita,551,39.1971949,2018,ES_06031,official,TRUE
ES_06032,-6.3392068543175215,39.02069436855157,ES,ES43,ES431,06032,"Carrascalejo, El",67,12.77636217,2018,ES_06032,official,TRUE
ES_06033,-5.333955619207631,39.10442205576327,ES,ES43,ES431,06033,Casas de Don Pedro,1483,144.55045182,2018,ES_06033,official,TRUE
ES_06034,-5.973395218472773,38.199237839532024,ES,ES43,ES431,06034,Casas de Reina,191,49.79807128,2018,ES_06034,official,TRUE
ES_06035,-5.092775271742271,39.282976442496604,ES,ES43,ES431,06035,Castilblanco,972,132.25626259,2018,ES_06035,official,TRUE
ES_06036,-5.546405223529248,38.722813842290286,ES,ES43,ES431,06036,Castuera,5921,432.05813851,2018,ES_06036,official,TRUE
ES_06037,-7.169028365771555,39.207237370991876,ES,ES43,ES431,06037,"Codosera, La",2119,69.64678525,2018,ES_06037,official,TRUE
ES_06038,-6.438031431326486,39.149698487090276,ES,ES43,ES431,06038,Cordobilla de Lácara,916,36.91617184,2018,ES_06038,official,TRUE
ES_06039,-5.668793982109065,38.91963651609817,ES,ES43,ES431,06039,"Coronada, La",2182,81.14676109,2018,ES_06039,official,TRUE
ES_06040,-6.668886835336641,38.72471953341478,ES,ES43,ES431,06040,Corte de Peleas,1238,42.29680267,2018,ES_06040,official,TRUE
ES_06041,-6.095423575902894,38.841008253516605,ES,ES43,ES431,06041,Cristina,567,15.81925078,2018,ES_06041,official,TRUE
ES_06042,-7.278886735106689,38.51340419528015,ES,ES43,ES431,06042,Cheles,1210,47.93498009,2018,ES_06042,official,TRUE
ES_06043,-6.272525410667585,38.84789574911266,ES,ES43,ES431,06043,Don Álvaro,768,32.07447104,2018,ES_06043,official,TRUE
ES_06044,-5.8630027750890195,38.95728283452104,ES,ES43,ES431,06044,Don Benito,37010,561.78794368,2018,ES_06044,official,TRUE
ES_06045,-6.709092734736253,38.71691379141033,ES,ES43,ES431,06045,Entrín Bajo,569,9.74514502,2018,ES_06045,official,TRUE
ES_06046,-6.436936471512403,38.941693578753146,ES,ES43,ES431,06046,Esparragalejo,1459,16.716207699999998,2018,ES_06046,official,TRUE
ES_06047,-5.602841365725827,38.64816034617562,ES,ES43,ES431,06047,Esparragosa de la Serena,1031,21.68815336,2018,ES_06047,official,TRUE
ES_06048,-5.271524078080213,38.976542280159585,ES,ES43,ES431,06048,Esparragosa de Lares,938,208.59886196,2018,ES_06048,official,TRUE
ES_06049,-6.563330191612044,38.51196635597844,ES,ES43,ES431,06049,Feria,1150,73.69919906,2018,ES_06049,official,TRUE
ES_06050,-6.652468753369909,38.167806338461084,ES,ES43,ES431,06050,Fregenal de la Sierra,4918,236.69153939,2018,ES_06050,official,TRUE
ES_06051,-4.932879398616537,39.131100599200416,ES,ES43,ES431,06051,Fuenlabrada de los Montes,1879,191.89669191,2018,ES_06051,official,TRUE
ES_06052,-6.30878679104207,38.2467580923623,ES,ES43,ES431,06052,Fuente de Cantos,4784,251.73141224,2018,ES_06052,official,TRUE
ES_06053,-5.892687948084041,38.15021700962643,ES,ES43,ES431,06053,Fuente del Arco,697,115.34480919,2018,ES_06053,official,TRUE
ES_06054,-6.449419149677992,38.52637484839274,ES,ES43,ES431,06054,Fuente del Maestre,6774,179.70865996,2018,ES_06054,official,TRUE
ES_06055,-6.538275496189514,38.06546237182501,ES,ES43,ES431,06055,Fuentes de León,2311,109.88366714,2018,ES_06055,official,TRUE
ES_06056,-4.995367494514564,39.0478226854495,ES,ES43,ES431,06056,Garbayuela,522,84.14239973,2018,ES_06056,official,TRUE
ES_06057,-5.0491037377047,38.88260313317901,ES,ES43,ES431,06057,Garlitos,599,129.30626898,2018,ES_06057,official,TRUE
ES_06058,-6.479303293610922,38.922567814920335,ES,ES43,ES431,06058,"Garrovilla, La",2401,33.46810652,2018,ES_06058,official,TRUE
ES_06059,-5.5959348724039755,38.30657111984598,ES,ES43,ES431,06059,Granja de Torrehermosa,2041,151.71102397,2018,ES_06059,official,TRUE
ES_06060,-6.099012785135081,38.8599160494641,ES,ES43,ES431,06060,Guareña,7006,238.34552816,2018,ES_06060,official,TRUE
ES_06061,-5.796906778469494,38.91357185401832,ES,ES43,ES431,06061,"Haba, La",1247,86.60490878,2018,ES_06061,official,TRUE
ES_06062,-4.91091579069437,39.30910862906219,ES,ES43,ES431,06062,Helechosa de los Montes,653,308.73682262,2018,ES_06062,official,TRUE
ES_06063,-5.050349174003374,39.16796787076733,ES,ES43,ES431,06063,Herrera del Duque,3485,277.29243563,2018,ES_06063,official,TRUE
ES_06064,-5.742532368309722,38.642932172361526,ES,ES43,ES431,06064,Higuera de la Serena,941,58.38961194,2018,ES_06064,official,TRUE
ES_06065,-6.003150693691573,38.37788718224754,ES,ES43,ES431,06065,Higuera de Llerena,343,113.37933181,2018,ES_06065,official,TRUE
ES_06066,-6.98004599967204,38.44463630240952,ES,ES43,ES431,06066,Higuera de Vargas,1950,67.58931156,2018,ES_06066,official,TRUE
ES_06067,-6.69145118399773,38.139473558189664,ES,ES43,ES431,06067,Higuera la Real,2264,125.6469811,2018,ES_06067,official,TRUE
ES_06068,-6.182786409872751,38.485571845260935,ES,ES43,ES431,06068,Hinojosa del Valle,489,46.1265191,2018,ES_06068,official,TRUE
ES_06069,-6.07004085070199,38.55244959579337,ES,ES43,ES431,06069,Hornachos,3639,295.92886171,2018,ES_06069,official,TRUE
ES_06070,-6.775333190162889,38.320071541217736,ES,ES43,ES431,06070,Jerez de los Caballeros,9367,739.59673369,2018,ES_06070,official,TRUE
ES_06071,-6.520413331755849,38.454985090231084,ES,ES43,ES431,06071,"Lapa, La",284,8.10148286,2018,ES_06071,official,TRUE
ES_06072,-6.627319848340993,38.85095834062993,ES,ES43,ES431,06072,Lobón,2757,57.6524864,2018,ES_06072,official,TRUE
ES_06073,-6.0562474319472885,38.445482841278256,ES,ES43,ES431,06073,Llera,860,71.49877802,2018,ES_06073,official,TRUE
ES_06074,-6.0174046982756595,38.237364772299436,ES,ES43,ES431,06074,Llerena,5758,162.72781865,2018,ES_06074,official,TRUE
ES_06075,-5.730444819859143,38.894248189849264,ES,ES43,ES431,06075,Magacela,526,75.7400861,2018,ES_06075,official,TRUE
ES_06076,-5.839359889962872,38.36801434127145,ES,ES43,ES431,06076,Maguilla,970,97.84283951,2018,ES_06076,official,TRUE
ES_06077,-5.689191675389316,38.12666986720849,ES,ES43,ES431,06077,Malcocinado,374,26.24278098,2018,ES_06077,official,TRUE
ES_06078,-5.644649861379158,38.67700332566236,ES,ES43,ES431,06078,Malpartida de la Serena,569,26.34118557,2018,ES_06078,official,TRUE
ES_06079,-6.018382290955996,38.81724012560748,ES,ES43,ES431,06079,Manchita,763,38.21892743,2018,ES_06079,official,TRUE
ES_06080,-5.961315877155658,38.96452569900742,ES,ES43,ES431,06080,Medellín,2276,64.94437477,2018,ES_06080,official,TRUE
ES_06081,-6.416190413065033,38.344001094827654,ES,ES43,ES431,06081,Medina de las Torres,1207,87.37465458,2018,ES_06081,official,TRUE
ES_06082,-5.929390467978434,38.933663677196435,ES,ES43,ES431,06082,Mengabril,472,43.82894761,2018,ES_06082,official,TRUE
ES_06083,-6.344695718155924,38.91806987718575,ES,ES43,ES431,06083,Mérida,59352,865.43735233,2018,ES_06083,official,TRUE
ES_06084,-6.2873121951473525,39.001950777878434,ES,ES43,ES431,06084,Mirandilla,1300,41.61077677,2018,ES_06084,official,TRUE
ES_06085,-6.2719005258642975,38.08857876232274,ES,ES43,ES431,06085,Monesterio,4254,322.41237776,2018,ES_06085,official,TRUE
ES_06086,-6.197363122541751,38.14406847736731,ES,ES43,ES431,06086,Montemolín,1367,202.61529393,2018,ES_06086,official,TRUE
ES_06087,-5.4479813922262545,38.589533025271166,ES,ES43,ES431,06087,Monterrubio de la Serena,2415,314.96059137,2018,ES_06087,official,TRUE
ES_06088,-6.616399805114534,38.9081917875984,ES,ES43,ES431,06088,Montijo,15614,119.7009273,2018,ES_06088,official,TRUE
ES_06089,-6.653955783260779,38.54619580273784,ES,ES43,ES431,06089,"Morera, La",719,43.42437963,2018,ES_06089,official,TRUE
ES_06090,-6.503941582707433,39.06596026881544,ES,ES43,ES431,06090,"Nava de Santiago, La",949,45.00978747,2018,ES_06090,official,TRUE
ES_06091,-5.471412207007488,39.092106032209436,ES,ES43,ES431,06091,Navalvillar de Pela,4444,251.11804212,2018,ES_06091,official,TRUE
ES_06092,-6.741093388461472,38.59290581191261,ES,ES43,ES431,06092,Nogales,666,80.66098347,2018,ES_06092,official,TRUE
ES_06093,-6.917682766223444,38.275704936342386,ES,ES43,ES431,06093,Oliva de la Frontera,5195,149.32332956,2018,ES_06093,official,TRUE
ES_06094,-6.122803276399742,38.79045113673641,ES,ES43,ES431,06094,Oliva de Mérida,1734,254.49587447,2018,ES_06094,official,TRUE
ES_06095,-7.099713628020973,38.68374850384456,ES,ES43,ES431,06095,Olivenza,11986,430.09871441,2018,ES_06095,official,TRUE
ES_06096,-5.496775174199184,39.031238312283485,ES,ES43,ES431,06096,Orellana de la Sierra,235,16.70514642,2018,ES_06096,official,TRUE
ES_06097,-5.536229894053013,39.00723840743929,ES,ES43,ES431,06097,Orellana la Vieja,2729,37.0222015,2018,ES_06097,official,TRUE
ES_06098,-6.136895420893416,38.6953927358814,ES,ES43,ES431,06098,Palomas,686,40.47665116,2018,ES_06098,official,TRUE
ES_06099,-6.622841378004247,38.52003829276713,ES,ES43,ES431,06099,"Parra, La",1360,78.20223991,2018,ES_06099,official,TRUE
ES_06100,-5.116540283060289,38.817624517092945,ES,ES43,ES431,06100,Peñalsordo,949,47.32745121,2018,ES_06100,official,TRUE
ES_06101,-5.56119142408855,38.47182124350837,ES,ES43,ES431,06101,Peraleda del Zaucejo,512,163.61571034,2018,ES_06101,official,TRUE
ES_06102,-5.258253154635738,38.987851444907406,ES,ES43,ES431,06102,Puebla de Alcocer,1188,296.28394102,2018,ES_06102,official,TRUE
ES_06103,-6.625272852293927,38.89319976399218,ES,ES43,ES431,06103,Puebla de la Calzada,5876,14.25600199,2018,ES_06103,official,TRUE
ES_06104,-6.0983761958514755,38.665680835582386,ES,ES43,ES431,06104,Puebla de la Reina,745,131.71432809,2018,ES_06104,official,TRUE
ES_06105,-6.079997669040513,38.08714943102681,ES,ES43,ES431,06105,Puebla del Maestre,698,79.19033283,2018,ES_06105,official,TRUE
ES_06106,-6.192088165401073,38.56726163446995,ES,ES43,ES431,06106,Puebla del Prior,500,35.88226203,2018,ES_06106,official,TRUE
ES_06107,-6.6260413214849025,39.173878084782444,ES,ES43,ES431,06107,Puebla de Obando,1868,23.62657522,2018,ES_06107,official,TRUE
ES_06108,-6.401111263146789,38.39282769846408,ES,ES43,ES431,06108,Puebla de Sancho Pérez,2731,56.71103581,2018,ES_06108,official,TRUE
ES_06109,-5.671208808343356,38.73977731420072,ES,ES43,ES431,06109,Quintana de la Serena,4650,141.54063426,2018,ES_06109,official,TRUE
ES_06110,-5.946736876130647,38.184882368757066,ES,ES43,ES431,06110,Reina,159,72.47203235,2018,ES_06110,official,TRUE
ES_06111,-5.806181025976678,39.05512035525813,ES,ES43,ES431,06111,Rena,622,10.7687184,2018,ES_06111,official,TRUE
ES_06112,-5.843438083959897,38.579215426978514,ES,ES43,ES431,06112,Retamal de Llerena,443,96.12809765,2018,ES_06112,official,TRUE
ES_06113,-6.2343057998139555,38.55079831453096,ES,ES43,ES431,06113,Ribera del Fresno,3357,185.6171059,2018,ES_06113,official,TRUE
ES_06114,-5.125435699925194,38.907886551620294,ES,ES43,ES431,06114,Risco,141,39.50672854,2018,ES_06114,official,TRUE
ES_06115,-6.690661192054507,39.10730418625774,ES,ES43,ES431,06115,"Roca de la Sierra, La",1473,109.66528429,2018,ES_06115,official,TRUE
ES_06116,-6.785181404739191,38.50986769063831,ES,ES43,ES431,06116,Salvaleón,1800,71.83579755,2018,ES_06116,official,TRUE
ES_06117,-6.686605533823179,38.4904085107213,ES,ES43,ES431,06117,Salvatierra de los Barros,1664,74.93958677,2018,ES_06117,official,TRUE
ES_06118,-5.143032007473167,38.923476250549975,ES,ES43,ES431,06118,Sancti-Spíritus,175,33.56332427,2018,ES_06118,official,TRUE
ES_06119,-6.188698871251964,38.948334577408104,ES,ES43,ES431,06119,San Pedro de Mérida,837,22.73232944,2018,ES_06119,official,TRUE
ES_06120,-6.0081838256169275,39.01242025810175,ES,ES43,ES431,06120,Santa Amalia,4059,73.58212268,2018,ES_06120,official,TRUE
ES_06121,-6.624107133793512,38.61305667090696,ES,ES43,ES431,06121,Santa Marta,4176,119.72934851,2018,ES_06121,official,TRUE
ES_06122,-6.3818641663683104,38.44974754789309,ES,ES43,ES431,06122,"Santos de Maimona, Los",8126,108.61481604,2018,ES_06122,official,TRUE
ES_06123,-7.136991978000532,39.36018477593307,ES,ES43,ES431,06123,San Vicente de Alcántara,5475,275.2986603,2018,ES_06123,official,TRUE
ES_06124,-6.530381822865249,38.12134738456171,ES,ES43,ES431,06124,Segura de León,1921,104.36416127,2018,ES_06124,official,TRUE
ES_06125,-5.047552221050575,38.975380927797985,ES,ES43,ES431,06125,Siruela,1912,202.46513288,2018,ES_06125,official,TRUE
ES_06126,-6.537124587607015,38.727998535557916,ES,ES43,ES431,06126,Solana de los Barros,2645,65.07062382,2018,ES_06126,official,TRUE
ES_06127,-5.237342898997164,39.037805416515745,ES,ES43,ES431,06127,Talarrubias,3420,337.86497877,2018,ES_06127,official,TRUE
ES_06128,-6.77112561299075,38.876833617371055,ES,ES43,ES431,06128,Talavera la Real,5376,61.51210687,2018,ES_06128,official,TRUE
ES_06129,-7.011617868294728,38.524990815656714,ES,ES43,ES431,06129,Táliga,681,31.30815037,2018,ES_06129,official,TRUE
ES_06130,-4.945393454897125,38.991315109079174,ES,ES43,ES431,06130,Tamurejo,215,29.71687461,2018,ES_06130,official,TRUE
ES_06131,-6.799288872849465,38.61804235388187,ES,ES43,ES431,06131,Torre de Miguel Sesmero,1265,58.02075996,2018,ES_06131,official,TRUE
ES_06132,-6.537718345055424,38.90497124255254,ES,ES43,ES431,06132,Torremayor,973,21.00835759,2018,ES_06132,official,TRUE
ES_06133,-6.376036024915963,38.79266094245183,ES,ES43,ES431,06133,Torremejía,2264,23.44321421,2018,ES_06133,official,TRUE
ES_06134,-5.9952423128021595,38.192082898977525,ES,ES43,ES431,06134,Trasierra,633,58.13452915,2018,ES_06134,official,TRUE
ES_06135,-6.25455248336145,38.95223264954485,ES,ES43,ES431,06135,Trujillanos,1401,20.27100374,2018,ES_06135,official,TRUE
ES_06136,-6.16403784194917,38.35791785514442,ES,ES43,ES431,06136,Usagre,1777,240.6868396,2018,ES_06136,official,TRUE
ES_06137,-5.192651555061642,39.24579760312193,ES,ES43,ES431,06137,Valdecaballeros,1074,90.12846981,2018,ES_06137,official,TRUE
ES_06138,-6.066466303731717,38.91592561302972,ES,ES43,ES431,06138,Valdetorres,1179,39.66814339,2018,ES_06138,official,TRUE
ES_06139,-6.000904703200086,38.40589269863758,ES,ES43,ES431,06139,Valencia de las Torres,578,210.23879567,2018,ES_06139,official,TRUE
ES_06140,-7.1214149234508195,38.24485776199863,ES,ES43,ES431,06140,Valencia del Mombuey,731,74.95293645,2018,ES_06140,official,TRUE
ES_06141,-6.4757923758085525,38.265910016525304,ES,ES43,ES431,06141,Valencia del Ventoso,2008,99.19848268,2018,ES_06141,official,TRUE
ES_06142,-6.539642072477375,38.32499518820584,ES,ES43,ES431,06142,Valverde de Burguillos,281,19.40346977,2018,ES_06142,official,TRUE
ES_06143,-6.978710501140425,38.669191901201714,ES,ES43,ES431,06143,Valverde de Leganés,4176,72.97116836,2018,ES_06143,official,TRUE
ES_06144,-5.825804111538021,38.21437608952177,ES,ES43,ES431,06144,Valverde de Llerena,603,41.22245185,2018,ES_06144,official,TRUE
ES_06145,-6.21798586614224,38.91241213691444,ES,ES43,ES431,06145,Valverde de Mérida,1060,51.65015565,2018,ES_06145,official,TRUE
ES_06146,-5.800594663876001,38.700021083198884,ES,ES43,ES431,06146,Valle de la Serena,1224,125.34481199,2018,ES_06146,official,TRUE
ES_06147,-6.798796842258075,38.378361092007616,ES,ES43,ES431,06147,Valle de Matamoros,367,4.90029455,2018,ES_06147,official,TRUE
ES_06148,-6.783958470872398,38.36315064099078,ES,ES43,ES431,06148,Valle de Santa Ana,1152,3.74557647,2018,ES_06148,official,TRUE
ES_06149,-6.338958337828334,38.560219275615225,ES,ES43,ES431,06149,Villafranca de los Barros,12926,104.40247543,2018,ES_06149,official,TRUE
ES_06150,-6.0772653454757934,38.2918103483634,ES,ES43,ES431,06150,Villagarcía de la Torre,913,67.49399331,2018,ES_06150,official,TRUE
ES_06151,-6.193791645292865,38.86168166650836,ES,ES43,ES431,06151,Villagonzalo,1243,40.81919688,2018,ES_06151,official,TRUE
ES_06152,-6.5077666816780715,38.613858474413284,ES,ES43,ES431,06152,Villalba de los Barros,1504,90.81971016,2018,ES_06152,official,TRUE
ES_06153,-5.7957391971795715,38.975685084016916,ES,ES43,ES431,06153,Villanueva de la Serena,25759,152.74956419,2018,ES_06153,official,TRUE
ES_06154,-7.165869755227382,38.37697668276261,ES,ES43,ES431,06154,Villanueva del Fresno,3401,360.19020779,2018,ES_06154,official,TRUE
ES_06155,-6.850980998736593,39.13404589594529,ES,ES43,ES431,06155,Villar del Rey,2168,98.85588121,2018,ES_06155,official,TRUE
ES_06156,-5.7674893289914175,39.09970571808411,ES,ES43,ES431,06156,Villar de Rena,1383,82.37272112,2018,ES_06156,official,TRUE
ES_06157,-4.795750945414673,39.2166123394721,ES,ES43,ES431,06157,Villarta de los Montes,444,123.32810569,2018,ES_06157,official,TRUE
ES_06158,-6.413919729310346,38.42431132958386,ES,ES43,ES431,06158,Zafra,16776,62.58668449,2018,ES_06158,official,TRUE
ES_06159,-6.950621053109376,38.33260456400092,ES,ES43,ES431,06159,Zahínos,2805,46.18470749,2018,ES_06159,official,TRUE
ES_06160,-5.6614975403135315,38.65031156613209,ES,ES43,ES431,06160,Zalamea de la Serena,3606,245.67509141,2018,ES_06160,official,TRUE
ES_06161,-5.16811970154908,38.80458044911043,ES,ES43,ES431,06161,Zarza-Capilla,310,92.00078573,2018,ES_06161,official,TRUE
ES_06162,-6.218472622620567,38.81994580148101,ES,ES43,ES431,06162,"Zarza, La",3508,63.17341175,2018,ES_06162,official,TRUE
ES_06901,-6.700200559922103,38.89096164054088,ES,ES43,ES431,06901,Valdelacalzada,2734,31.77536554,2018,ES_06901,official,TRUE
ES_06902,-6.755538520122147,38.92310593401833,ES,ES43,ES431,06902,Pueblonuevo del Guadiana,2033,28.57031431,2018,ES_06902,official,TRUE
ES_06903,-6.6930911814245375,38.929903423825415,ES,ES43,ES431,06903,Guadiana del Caudillo,2518,30.05268859,2018,ES_06903,official,TRUE
ES_07001,2.79204305981217,39.70672703765491,ES,ES53,ES532,07001,Alaró,5494,45.69194061,2018,ES_07001,official,TRUE
ES_07002,4.137799266446873,39.931745942964014,ES,ES53,ES533,07002,Alaior,9012,109.98204376,2018,ES_07002,official,TRUE
ES_07003,3.1231153979804627,39.84441496931393,ES,ES53,ES532,07003,Alcúdia,19793,59.95613807,2018,ES_07003,official,TRUE
ES_07004,2.8928060227550585,39.561056472338194,ES,ES53,ES532,07004,Algaida,5529,89.77917228,2018,ES_07004,official,TRUE
ES_07005,2.4111713447969967,39.566386033934926,ES,ES53,ES532,07005,Andratx,11004,81.41137555,2018,ES_07005,official,TRUE
ES_07006,3.351474769949814,39.692226838242625,ES,ES53,ES532,07006,Artà,7671,139.77312749,2018,ES_07006,official,TRUE
ES_07007,2.515060209214392,39.68580494287032,ES,ES53,ES532,07007,Banyalbufar,503,18.07644266,2018,ES_07007,official,TRUE
ES_07008,2.8416797609868882,39.68948255409213,ES,ES53,ES532,07008,Binissalem,8316,29.78995298,2018,ES_07008,official,TRUE
ES_07009,2.984903203219142,39.757161929834794,ES,ES53,ES532,07009,Búger,1054,8.28896775,2018,ES_07009,official,TRUE
ES_07010,2.6837838846141593,39.67712394446537,ES,ES53,ES532,07010,Bunyola,6714,84.73916383,2018,ES_07010,official,TRUE
