gisco_id,longitude,latitude,country,nuts_2,nuts_3,lau_id,lau_name,population,area_km2,year,fid,concordance,pop_weighted
IE_01001,-6.9279992374211865,52.83649081621318,IE,IE05,IE052,01001,Carlow Urban,4076,1.8448356,2011,IE_01001,official,TRUE
IE_01002,-6.939508701643875,52.836340300416424,IE,IE05,IE052,01002,Graigue Urban,1275,0.520745,2011,IE_01002,official,TRUE
IE_01003,-6.570280113357718,52.831294669304626,IE,IE05,IE052,01003,Clonmore,555,28.11700531,2011,IE_01003,official,TRUE
IE_01004,-6.556767311343004,52.86337872252737,IE,IE05,IE052,01004,Hacketstown,1107,22.0676482,2011,IE_01004,official,TRUE
IE_01005,-6.632601789705842,52.84854505935982,IE,IE05,IE052,01005,Haroldstown,276,11.5355681,2011,IE_01005,official,TRUE
IE_01006,-6.745861905517802,52.86281859682187,IE,IE05,IE052,01006,Kineagh,352,18.02426691,2011,IE_01006,official,TRUE
IE_01007,-6.702398578807671,52.887944648691274,IE,IE05,IE052,01007,Rahill,675,16.42503128,2011,IE_01007,official,TRUE
IE_01008,-6.69301787124029,52.878949498681216,IE,IE05,IE052,01008,Rathvilly,856,12.71623164,2011,IE_01008,official,TRUE
IE_01009,-6.616228955073691,52.88916544316827,IE,IE05,IE052,01009,Tiknock,344,10.75398343,2011,IE_01009,official,TRUE
IE_01010,-6.697442928069577,52.85086292500897,IE,IE05,IE052,01010,Williamstown,298,15.53161958,2011,IE_01010,official,TRUE
IE_01011,-6.906269618062153,52.733251572661345,IE,IE05,IE052,01011,Agha,386,12.32346012,2011,IE_01011,official,TRUE
IE_01012,-6.915945785742192,52.82022838112308,IE,IE05,IE052,01012,Ballinacarrig,1020,16.2596848,2011,IE_01012,official,TRUE
IE_01013,-6.7019652700103025,52.75405938960725,IE,IE05,IE052,01013,Ballintemple,568,28.33517901,2011,IE_01013,official,TRUE
IE_01014,-6.775908692001826,52.738514825638134,IE,IE05,IE052,01014,Ballon,715,9.79060533,2011,IE_01014,official,TRUE
IE_01015,-6.943499727481273,52.6312245821005,IE,IE05,IE052,01015,Ballyellin,437,15.7942565,2011,IE_01015,official,TRUE
IE_01016,-6.89608068194318,52.69538973751736,IE,IE05,IE052,01016,Ballymoon,329,14.08393064,2011,IE_01016,official,TRUE
IE_01017,-6.928831457579186,52.60343157979259,IE,IE05,IE052,01017,Borris,1028,16.04862234,2011,IE_01017,official,TRUE
IE_01018,-6.860567900523109,52.863412629825625,IE,IE05,IE052,01018,Burton Hall,476,6.10719967,2011,IE_01018,official,TRUE
IE_01019,-6.911389547471488,52.83336124453477,IE,IE05,IE052,01019,Carlow Rural,13850,22.10948948,2011,IE_01019,official,TRUE
IE_01020,-6.980344115261294,52.78630928824327,IE,IE05,IE052,01020,Clogrenan,1014,17.78431788,2011,IE_01020,official,TRUE
IE_01021,-6.669710032266946,52.69161243407931,IE,IE05,IE052,01021,Clonegall,977,23.36216399,2011,IE_01021,official,TRUE
IE_01022,-6.895963702732125,52.66155060484058,IE,IE05,IE052,01022,Corries,532,17.63847419,2011,IE_01022,official,TRUE
IE_01023,-6.676255979716145,52.66411265070607,IE,IE05,IE052,01023,Cranemore,1080,36.54760052,2011,IE_01023,official,TRUE
IE_01024,-6.845882032141805,52.71588649800648,IE,IE05,IE052,01024,Fennagh,747,18.9585959,2011,IE_01024,official,TRUE
IE_01025,-6.840201530640468,52.67051369582127,IE,IE05,IE052,01025,Garryhill,600,23.85151785,2011,IE_01025,official,TRUE
IE_01026,-6.791139246451605,52.8263865521195,IE,IE05,IE052,01026,Grangeford,416,14.17350036,2011,IE_01026,official,TRUE
IE_01027,-6.866678146367603,52.82944683809968,IE,IE05,IE052,01027,Johnstown,576,15.59535537,2011,IE_01027,official,TRUE
IE_01028,-6.883517183162002,52.79567674612054,IE,IE05,IE052,01028,Kellistown,1019,20.00197286,2011,IE_01028,official,TRUE
IE_01029,-6.727713843736924,52.7371884148811,IE,IE05,IE052,01029,Kilbride,446,14.67531443,2011,IE_01029,official,TRUE
IE_01030,-6.860139267993062,52.61760993751182,IE,IE05,IE052,01030,Killedmond,436,18.81280754,2011,IE_01030,official,TRUE
IE_01031,-6.795133058401362,52.84704971126524,IE,IE05,IE052,01031,Killerrig,358,11.11244757,2011,IE_01031,official,TRUE
IE_01032,-6.974911576498723,52.719787175915016,IE,IE05,IE052,01032,Leighlinbridge,1565,24.80708861,2011,IE_01032,official,TRUE
IE_01033,-6.950306917702927,52.69865048304066,IE,IE05,IE052,01033,Muinebeag Rural,647,14.84221479,2011,IE_01033,official,TRUE
IE_01034,-6.963694019151151,52.70246236611679,IE,IE05,IE052,01034,Muinebeag Urban,2822,3.09984053,2011,IE_01034,official,TRUE
IE_01035,-6.782780785157688,52.68228457737529,IE,IE05,IE052,01035,Myshall,619,17.27735911,2011,IE_01035,official,TRUE
IE_01036,-6.910490576881462,52.77172642235041,IE,IE05,IE052,01036,Nurney,883,23.96885325,2011,IE_01036,official,TRUE
IE_01037,-7.00324191558267,52.736406796298304,IE,IE05,IE052,01037,Oldleighlin,569,19.35756619,2011,IE_01037,official,TRUE
IE_01038,-6.830818169357366,52.62036365691507,IE,IE05,IE052,01038,Rathanna,112,23.40233714,2011,IE_01038,official,TRUE
IE_01039,-7.003956485160376,52.761029368577816,IE,IE05,IE052,01039,Rathornan,435,19.92374991,2011,IE_01039,official,TRUE
IE_01040,-6.79112882424155,52.76687173787167,IE,IE05,IE052,01040,Rathrush,1116,23.45086888,2011,IE_01040,official,TRUE
IE_01041,-7.061883555467216,52.75185151005012,IE,IE05,IE052,01041,Ridge,277,17.23640667,2011,IE_01041,official,TRUE
IE_01042,-6.78135198731877,52.70214921441841,IE,IE05,IE052,01042,Shangarry,536,20.03863868,2011,IE_01042,official,TRUE
IE_01043,-6.935305853271826,52.6537311178586,IE,IE05,IE052,01043,Sliguff,524,15.05431751,2011,IE_01043,official,TRUE
IE_01044,-6.732316353782044,52.834857606597495,IE,IE05,IE052,01044,Tankardstown,439,16.83693037,2011,IE_01044,official,TRUE
IE_01045,-6.849676486145781,52.760188905045275,IE,IE05,IE052,01045,Templepeter,444,15.07903195,2011,IE_01045,official,TRUE
IE_01046,-6.756879510253704,52.80276941583592,IE,IE05,IE052,01046,Tullowbeg,581,12.05353693,2011,IE_01046,official,TRUE
IE_01047,-6.726441229174106,52.81161464266831,IE,IE05,IE052,01047,Tullow Rural,665,13.9163234,2011,IE_01047,official,TRUE
IE_01048,-6.73686772565845,52.80079762077999,IE,IE05,IE052,01048,Tullow Urban,3447,3.39505233,2011,IE_01048,official,TRUE
IE_01049,-6.8594463183872545,52.55721340931794,IE,IE05,IE052,01049,Ballymurphy,279,17.99818585,2011,IE_01049,official,TRUE
IE_01050,-6.814816815702126,52.58138670714221,IE,IE05,IE052,01050,Coonogue,210,15.21990989,2011,IE_01050,official,TRUE
IE_01051,-6.904878848508431,52.48586354601572,IE,IE05,IE052,01051,Glynn,364,22.59494199,2011,IE_01051,official,TRUE
IE_01052,-6.878408660975074,52.57407659825662,IE,IE05,IE052,01052,Kyle,337,16.83378395,2011,IE_01052,official,TRUE
IE_01053,-6.897925276597025,52.537119630627956,IE,IE05,IE052,01053,Marley,368,15.35773898,2011,IE_01053,official,TRUE
IE_01054,-6.9530453085027775,52.536194716691,IE,IE05,IE052,01054,Tinnahinch,660,13.80849735,2011,IE_01054,official,TRUE
IE_02001,-6.274429569953434,53.35868776063835,IE,IE06,IE061,02001,Arran Quay A,1519,0.15137711,2011,IE_02001,official,TRUE
IE_02002,-6.278219886714029,53.35309730012308,IE,IE06,IE061,02002,Arran Quay B,3831,0.75791897,2011,IE_02002,official,TRUE
IE_02003,-6.279296443158977,53.348313395210205,IE,IE06,IE061,02003,Arran Quay C,3930,0.38285258,2011,IE_02003,official,TRUE
IE_02004,-6.292096044869068,53.34900511009539,IE,IE06,IE061,02004,Arran Quay D,2948,0.34787282,2011,IE_02004,official,TRUE
IE_02005,-6.289027304956763,53.353746958033504,IE,IE06,IE061,02005,Arran Quay E,3059,0.26319079,2011,IE_02005,official,TRUE
IE_02006,-6.316841790236173,53.37268812458686,IE,IE06,IE061,02006,Ashtown A,10343,1.99864355,2011,IE_02006,official,TRUE
IE_02007,-6.3161292787215,53.36518034081143,IE,IE06,IE061,02007,Ashtown B,2604,0.60172144,2011,IE_02007,official,TRUE
IE_02008,-6.184442726347826,53.39301350528896,IE,IE06,IE061,02008,Ayrfield,5425,0.89431182,2011,IE_02008,official,TRUE
IE_02009,-6.248200729941813,53.35614403234363,IE,IE06,IE061,02009,Ballybough A,3505,0.34876028,2011,IE_02009,official,TRUE
IE_02010,-6.25376451372879,53.36073916151781,IE,IE06,IE061,02010,Ballybough B,3035,0.35509644,2011,IE_02010,official,TRUE
IE_02011,-6.290732613048296,53.38532032901902,IE,IE06,IE061,02011,Ballygall A,3480,0.48531478,2011,IE_02011,official,TRUE
IE_02012,-6.283567466352835,53.386331583220546,IE,IE06,IE061,02012,Ballygall B,1804,0.55441799,2011,IE_02012,official,TRUE
IE_02013,-6.274692362130369,53.38652768964699,IE,IE06,IE061,02013,Ballygall C,3408,0.98864705,2011,IE_02013,official,TRUE
IE_02014,-6.28382627745005,53.380888413732364,IE,IE06,IE061,02014,Ballygall D,2516,0.43469176,2011,IE_02014,official,TRUE
IE_02015,-6.281510691394632,53.40101580093305,IE,IE06,IE061,02015,Ballymun A,3749,0.94454068,2011,IE_02015,official,TRUE
IE_02016,-6.267200432250321,53.398810802095134,IE,IE06,IE061,02016,Ballymun B,4042,0.66164821,2011,IE_02016,official,TRUE
IE_02017,-6.263053988504526,53.39681386000974,IE,IE06,IE061,02017,Ballymun C,5510,0.77143076,2011,IE_02017,official,TRUE
IE_02018,-6.266922664124415,53.396900351079,IE,IE06,IE061,02018,Ballymun D,3006,0.47625825,2011,IE_02018,official,TRUE
IE_02019,-6.276493555131066,53.39199006634484,IE,IE06,IE061,02019,Ballymun E,1591,0.35379087,2011,IE_02019,official,TRUE
IE_02020,-6.280277725340286,53.39590740795949,IE,IE06,IE061,02020,Ballymun F,2362,0.43750436,2011,IE_02020,official,TRUE
IE_02021,-6.233565863898643,53.39081916678109,IE,IE06,IE061,02021,Beaumont A,2507,0.51435152,2011,IE_02021,official,TRUE
IE_02022,-6.221881259036218,53.386390405660926,IE,IE06,IE061,02022,Beaumont B,4341,0.85160648,2011,IE_02022,official,TRUE
IE_02023,-6.213466171250609,53.38643002097415,IE,IE06,IE061,02023,Beaumont C,3128,0.59577914,2011,IE_02023,official,TRUE
IE_02024,-6.21291423710305,53.38046214304063,IE,IE06,IE061,02024,Beaumont D,2203,0.46689432,2011,IE_02024,official,TRUE
IE_02025,-6.223204869492258,53.378296493574,IE,IE06,IE061,02025,Beaumont E,2011,0.31479993,2011,IE_02025,official,TRUE
IE_02026,-6.2286631364615666,53.38458038091691,IE,IE06,IE061,02026,Beaumont F,3440,0.53907505,2011,IE_02026,official,TRUE
IE_02027,-6.271442856103952,53.37260700240359,IE,IE06,IE061,02027,Botanic A,3025,1.31282392,2011,IE_02027,official,TRUE
IE_02028,-6.265706164901312,53.36932256269141,IE,IE06,IE061,02028,Botanic B,3215,0.49702806,2011,IE_02028,official,TRUE
IE_02029,-6.264285355544046,53.363997697254355,IE,IE06,IE061,02029,Botanic C,1947,0.29709936,2011,IE_02029,official,TRUE
IE_02030,-6.282485565914067,53.36722117654886,IE,IE06,IE061,02030,Cabra East A,5188,1.41486056,2011,IE_02030,official,TRUE
IE_02031,-6.282890334791226,53.36428047935048,IE,IE06,IE061,02031,Cabra East B,3562,0.46141548,2011,IE_02031,official,TRUE
IE_02032,-6.290670334730957,53.35780371421945,IE,IE06,IE061,02032,Cabra East C,3673,0.456799,2011,IE_02032,official,TRUE
IE_02033,-6.301786218671525,53.37394085407143,IE,IE06,IE061,02033,Cabra West A,1492,0.44522061,2011,IE_02033,official,TRUE
IE_02034,-6.296181774396961,53.368816720429706,IE,IE06,IE061,02034,Cabra West B,2568,0.4563966,2011,IE_02034,official,TRUE
IE_02035,-6.298627026810279,53.36580789981906,IE,IE06,IE061,02035,Cabra West C,2753,0.57060212,2011,IE_02035,official,TRUE
IE_02036,-6.295498562681724,53.357524804550074,IE,IE06,IE061,02036,Cabra West D,2787,0.5990267,2011,IE_02036,official,TRUE
IE_02037,-6.183730570205617,53.37512587105822,IE,IE06,IE061,02037,Clontarf East A,3362,2.11664506,2011,IE_02037,official,TRUE
IE_02038,-6.188535443468935,53.362658230783516,IE,IE06,IE061,02038,Clontarf East B,6925,3.48076311,2011,IE_02038,official,TRUE
IE_02039,-6.203307134552922,53.362950531441896,IE,IE06,IE061,02039,Clontarf East C,3043,0.82734307,2011,IE_02039,official,TRUE
IE_02040,-6.206924172316198,53.36858228602918,IE,IE06,IE061,02040,Clontarf East D,2614,0.62264588,2011,IE_02040,official,TRUE
IE_02041,-6.19847670262311,53.37067899619814,IE,IE06,IE061,02041,Clontarf East E,1699,0.41124963,2011,IE_02041,official,TRUE
IE_02042,-6.206830849095009,53.37835956834483,IE,IE06,IE061,02042,Clontarf West A,3478,0.70129781,2011,IE_02042,official,TRUE
IE_02043,-6.212881043579684,53.37517563748166,IE,IE06,IE061,02043,Clontarf West B,2357,0.3962681,2011,IE_02043,official,TRUE
IE_02044,-6.220332725593709,53.367444750076594,IE,IE06,IE061,02044,Clontarf West C,3436,1.05100541,2011,IE_02044,official,TRUE
IE_02045,-6.235863330903896,53.36417241237631,IE,IE06,IE061,02045,Clontarf West D,2122,0.82350109,2011,IE_02045,official,TRUE
IE_02046,-6.235153570281378,53.368204763919,IE,IE06,IE061,02046,Clontarf West E,2368,0.32344251,2011,IE_02046,official,TRUE
IE_02047,-6.247694205396291,53.369480153226796,IE,IE06,IE061,02047,Drumcondra South A,4558,1.03895494,2011,IE_02047,official,TRUE
IE_02048,-6.251193833831796,53.36319020233251,IE,IE06,IE061,02048,Drumcondra South B,1552,0.34164121,2011,IE_02048,official,TRUE
IE_02049,-6.254813752878208,53.371995196936,IE,IE06,IE061,02049,Drumcondra South C,2972,0.74668054,2011,IE_02049,official,TRUE
IE_02050,-6.183923767054842,53.389274179474775,IE,IE06,IE061,02050,Edenmore,2741,0.58175737,2011,IE_02050,official,TRUE
IE_02051,-6.314091792098275,53.39320386429612,IE,IE06,IE061,02051,Finglas North A,3278,0.72578088,2011,IE_02051,official,TRUE
IE_02052,-6.308839926872426,53.39206982900342,IE,IE06,IE061,02052,Finglas North B,2909,0.64754089,2011,IE_02052,official,TRUE
IE_02053,-6.29461886301636,53.39460730192995,IE,IE06,IE061,02053,Finglas North C,3294,1.11567193,2011,IE_02053,official,TRUE
IE_02054,-6.308360008737709,53.38514016554131,IE,IE06,IE061,02054,Finglas South A,2828,0.58378704,2011,IE_02054,official,TRUE
IE_02055,-6.302503717767168,53.38309190636537,IE,IE06,IE061,02055,Finglas South B,3888,1.00005925,2011,IE_02055,official,TRUE
IE_02056,-6.3054267939392625,53.383300123239145,IE,IE06,IE061,02056,Finglas South C,2530,0.36747557,2011,IE_02056,official,TRUE
IE_02057,-6.319789615719737,53.381385751706496,IE,IE06,IE061,02057,Finglas South D,2326,0.4409942,2011,IE_02057,official,TRUE
IE_02058,-6.230126191490476,53.37522245951172,IE,IE06,IE061,02058,Grace Park,5659,1.24373235,2011,IE_02058,official,TRUE
IE_02059,-6.172643589046386,53.4003824095326,IE,IE06,IE061,02059,Grange A,9043,1.67290735,2011,IE_02059,official,TRUE
IE_02060,-6.15739190021291,53.40074177059162,IE,IE06,IE061,02060,Grange B,4636,1.15853298,2011,IE_02060,official,TRUE
IE_02061,-6.157684920199697,53.39424345131523,IE,IE06,IE061,02061,Grange C,3089,0.47356888,2011,IE_02061,official,TRUE
IE_02062,-6.166965918237898,53.38549560661507,IE,IE06,IE061,02062,Grange D,4128,0.65356178,2011,IE_02062,official,TRUE
IE_02063,-6.174469455902862,53.390407811879825,IE,IE06,IE061,02063,Grange E,2620,0.55364347,2011,IE_02063,official,TRUE
IE_02064,-6.198770063569586,53.387778579454704,IE,IE06,IE061,02064,Harmonstown A,2784,0.6101146,2011,IE_02064,official,TRUE
IE_02065,-6.194660278006508,53.38005223287677,IE,IE06,IE061,02065,Harmonstown B,2688,0.57773455,2011,IE_02065,official,TRUE
IE_02066,-6.26588600782094,53.36118441104503,IE,IE06,IE061,02066,Inns Quay A,2612,0.31513547,2011,IE_02066,official,TRUE
IE_02067,-6.269011569675323,53.357778481101725,IE,IE06,IE061,02067,Inns Quay B,3279,0.28383451,2011,IE_02067,official,TRUE
IE_02068,-6.27241213152428,53.349980268657134,IE,IE06,IE061,02068,Inns Quay C,2698,0.28354918,2011,IE_02068,official,TRUE
IE_02069,-6.232657116969332,53.39535933507183,IE,IE06,IE061,02069,Kilmore A,3499,0.76987127,2011,IE_02069,official,TRUE
IE_02070,-6.217279259447013,53.39535117178259,IE,IE06,IE061,02070,Kilmore B,2640,0.48070786,2011,IE_02070,official,TRUE
IE_02071,-6.203843249164467,53.39581286501539,IE,IE06,IE061,02071,Kilmore C,1435,0.52999559,2011,IE_02071,official,TRUE
IE_02072,-6.207198317016318,53.38908790808384,IE,IE06,IE061,02072,Kilmore D,2117,0.5179567,2011,IE_02072,official,TRUE
IE_02073,-6.248081245799428,53.35442441369243,IE,IE06,IE061,02073,Mountjoy A,4383,0.30225432,2011,IE_02073,official,TRUE
IE_02074,-6.25588242100138,53.35517443999619,IE,IE06,IE061,02074,Mountjoy B,2710,0.22123314,2011,IE_02074,official,TRUE
IE_02075,-6.2611210172259835,53.350005708782334,IE,IE06,IE061,02075,North City,4111,0.56592043,2011,IE_02075,official,TRUE
IE_02076,-6.238897065764856,53.358472462054216,IE,IE06,IE061,02076,North Dock A,1316,0.14311415,2011,IE_02076,official,TRUE
IE_02077,-6.233527517867141,53.3556659523944,IE,IE06,IE061,02077,North Dock B,6659,3.51806476,2011,IE_02077,official,TRUE
IE_02078,-6.247133838924691,53.35268675749078,IE,IE06,IE061,02078,North Dock C,3866,0.60040238,2011,IE_02078,official,TRUE
IE_02079,-6.31680061024955,53.355202454523265,IE,IE06,IE061,02079,Phoenix Park,1488,7.36606898,2011,IE_02079,official,TRUE
IE_02080,-6.214909327333628,53.40445646339889,IE,IE06,IE061,02080,Priorswood A,1578,1.7361681899999999,2011,IE_02080,official,TRUE
IE_02081,-6.203463000962951,53.402856995427186,IE,IE06,IE061,02081,Priorswood B,2683,0.46170506,2011,IE_02081,official,TRUE
IE_02082,-6.187718013848538,53.399393577789596,IE,IE06,IE061,02082,Priorswood C,4471,0.89247924,2011,IE_02082,official,TRUE
IE_02083,-6.2011526827620305,53.39748360848692,IE,IE06,IE061,02083,Priorswood D,2773,0.78381943,2011,IE_02083,official,TRUE
IE_02084,-6.208523983424074,53.39949204373642,IE,IE06,IE061,02084,Priorswood E,2843,0.40805592,2011,IE_02084,official,TRUE
IE_02085,-6.1615806063920635,53.384533351910285,IE,IE06,IE061,02085,Raheny-Foxfield,2561,0.58560148,2011,IE_02085,official,TRUE
IE_02086,-6.151663717538046,53.385876895031416,IE,IE06,IE061,02086,Raheny-Greendale,2155,0.43935575,2011,IE_02086,official,TRUE
IE_02087,-6.165723388744173,53.38211357012162,IE,IE06,IE061,02087,Raheny-St. Assam,3531,2.38084849,2011,IE_02087,official,TRUE
IE_02088,-6.260743514000281,53.35490493896965,IE,IE06,IE061,02088,Rotunda A,4050,0.24805763,2011,IE_02088,official,TRUE
IE_02089,-6.262544236007133,53.35245437040333,IE,IE06,IE061,02089,Rotunda B,2104,0.20677656,2011,IE_02089,official,TRUE
IE_02090,-6.257030601346591,53.38294428214719,IE,IE06,IE061,02090,Whitehall A,3166,1.31747381,2011,IE_02090,official,TRUE
IE_02091,-6.2560040993450245,53.388909563745166,IE,IE06,IE061,02091,Whitehall B,3648,0.75074621,2011,IE_02091,official,TRUE
IE_02092,-6.246833731622838,53.3919133544767,IE,IE06,IE061,02092,Whitehall C,2193,0.73531086,2011,IE_02092,official,TRUE
IE_02093,-6.242586997237891,53.381659129732874,IE,IE06,IE061,02093,Whitehall D,2738,0.68913465,2011,IE_02093,official,TRUE
IE_02094,-6.346651124718851,53.345309406279426,IE,IE06,IE061,02094,Chapelizod,3071,1.16938703,2011,IE_02094,official,TRUE
IE_02095,-6.380034945843041,53.33805748065353,IE,IE06,IE061,02095,Cherry Orchard A,2829,0.97985734,2011,IE_02095,official,TRUE
IE_02096,-6.3643329624314084,53.33855498579016,IE,IE06,IE061,02096,Carna,2844,0.57061697,2011,IE_02096,official,TRUE
IE_02097,-6.365958876601557,53.33806568643418,IE,IE06,IE061,02097,Cherry Orchard C,4466,1.42702988,2011,IE_02097,official,TRUE
IE_02098,-6.318780435746906,53.333562451821436,IE,IE06,IE061,02098,Crumlin A,3700,0.54249051,2011,IE_02098,official,TRUE
IE_02099,-6.303537645549932,53.334022185403015,IE,IE06,IE061,02099,Crumlin B,2997,0.74694527,2011,IE_02099,official,TRUE
IE_02100,-6.2930953938348155,53.329914208242954,IE,IE06,IE061,02100,Crumlin C,2301,0.49554152,2011,IE_02100,official,TRUE
IE_02101,-6.313114143781903,53.324887269276864,IE,IE06,IE061,02101,Crumlin D,4070,0.58640024,2011,IE_02101,official,TRUE
IE_02102,-6.314717292748667,53.32762401603606,IE,IE06,IE061,02102,Crumlin E,2761,0.37904648,2011,IE_02102,official,TRUE
IE_02103,-6.326097167592379,53.3254012058382,IE,IE06,IE061,02103,Crumlin F,2858,0.40052489,2011,IE_02103,official,TRUE
IE_02104,-6.348224798352916,53.34074468187707,IE,IE06,IE061,02104,Decies,2743,0.31450862,2011,IE_02104,official,TRUE
IE_02105,-6.354755104135936,53.347205333083934,IE,IE06,IE061,02105,Drumfinn,3537,0.82748152,2011,IE_02105,official,TRUE
IE_02106,-6.33134792578664,53.33474810861365,IE,IE06,IE061,02106,Inchicore A,2254,1.00236688,2011,IE_02106,official,TRUE
IE_02107,-6.3326501317807296,53.33344071798611,IE,IE06,IE061,02107,Inchicore B,1986,0.81413461,2011,IE_02107,official,TRUE
IE_02108,-6.335886889637119,53.34243505680202,IE,IE06,IE061,02108,Kilmainham A,2545,0.25370905,2011,IE_02108,official,TRUE
IE_02109,-6.317359056171521,53.34491714154685,IE,IE06,IE061,02109,Kilmainham B,2172,0.81447,2011,IE_02109,official,TRUE
IE_02110,-6.316053569118535,53.33596350238276,IE,IE06,IE061,02110,Kilmainham C,4436,0.58840427,2011,IE_02110,official,TRUE
IE_02111,-6.310908952292442,53.32120948269147,IE,IE06,IE061,02111,Kimmage A,1881,0.2730144,2011,IE_02111,official,TRUE
IE_02112,-6.300262531087871,53.32211780552013,IE,IE06,IE061,02112,Kimmage B,3552,0.43305852,2011,IE_02112,official,TRUE
IE_02113,-6.284760551648025,53.32520489849372,IE,IE06,IE061,02113,Kimmage C,2932,0.94305433,2011,IE_02113,official,TRUE
IE_02114,-6.296389378185481,53.320234725056814,IE,IE06,IE061,02114,Kimmage D,2425,0.42165756,2011,IE_02114,official,TRUE
IE_02115,-6.310576952443514,53.31800492026821,IE,IE06,IE061,02115,Kimmage E,3288,0.65368387,2011,IE_02115,official,TRUE
IE_02116,-6.350612027619421,53.34038965567929,IE,IE06,IE061,02116,Kylemore,2595,0.57497248,2011,IE_02116,official,TRUE
IE_02117,-6.251647270611412,53.344746306804254,IE,IE06,IE061,02117,Mansion House A,3809,0.67200626,2011,IE_02117,official,TRUE
IE_02118,-6.256665369911654,53.33787780536589,IE,IE06,IE061,02118,Mansion House B,610,0.64486346,2011,IE_02118,official,TRUE
IE_02119,-6.276425370554218,53.344286651148145,IE,IE06,IE061,02119,Merchants Quay A,1953,0.17829691,2011,IE_02119,official,TRUE
IE_02120,-6.273812004425574,53.34173257769943,IE,IE06,IE061,02120,Merchants Quay B,3766,0.24160716,2011,IE_02120,official,TRUE
IE_02121,-6.276989591111771,53.33859697416919,IE,IE06,IE061,02121,Merchants Quay C,3459,0.33018062,2011,IE_02121,official,TRUE
IE_02122,-6.276480646833173,53.33559645632318,IE,IE06,IE061,02122,Merchants Quay D,2030,0.22008672,2011,IE_02122,official,TRUE
IE_02123,-6.27634635774633,53.3322009231984,IE,IE06,IE061,02123,Merchants Quay E,2073,0.2256244,2011,IE_02123,official,TRUE
IE_02124,-6.285226649464959,53.331305937509015,IE,IE06,IE061,02124,Merchants Quay F,2325,0.2973309,2011,IE_02124,official,TRUE
IE_02125,-6.225647944106844,53.33903829472592,IE,IE06,IE061,02125,Pembroke East A,5011,2.147201,2011,IE_02125,official,TRUE
IE_02126,-6.223651829932033,53.3323012415413,IE,IE06,IE061,02126,Pembroke East B,3589,0.68433024,2011,IE_02126,official,TRUE
IE_02127,-6.2124592243667465,53.32638637311893,IE,IE06,IE061,02127,Pembroke East C,4040,0.86816032,2011,IE_02127,official,TRUE
IE_02128,-6.221803650240933,53.3173922133296,IE,IE06,IE061,02128,Pembroke East D,4053,1.85776587,2011,IE_02128,official,TRUE
IE_02129,-6.222904194073219,53.32652369413053,IE,IE06,IE061,02129,Pembroke East E,3338,1.20163629,2011,IE_02129,official,TRUE
IE_02130,-6.2316070833597115,53.3382836868706,IE,IE06,IE061,02130,Pembroke West A,4584,0.64140214,2011,IE_02130,official,TRUE
IE_02131,-6.237362535737593,53.32805803061308,IE,IE06,IE061,02131,Pembroke West B,2848,0.7421377,2011,IE_02131,official,TRUE
IE_02132,-6.241247027906469,53.33554206479692,IE,IE06,IE061,02132,Pembroke West C,3962,0.67313435,2011,IE_02132,official,TRUE
IE_02133,-6.2718659550317835,53.309777208046754,IE,IE06,IE061,02133,Rathfarnham,4298,1.23291289,2011,IE_02133,official,TRUE
IE_02134,-6.252341224388324,53.32634264081324,IE,IE06,IE061,02134,Rathmines East A,4564,0.69786948,2011,IE_02134,official,TRUE
IE_02135,-6.245823846123608,53.317750083479645,IE,IE06,IE061,02135,Rathmines East B,5408,1.26081159,2011,IE_02135,official,TRUE
IE_02136,-6.252952042100599,53.316565853185836,IE,IE06,IE061,02136,Rathmines East C,3394,0.73143659,2011,IE_02136,official,TRUE
IE_02137,-6.255169529711884,53.32353954637493,IE,IE06,IE061,02137,Rathmines East D,2735,0.36302804,2011,IE_02137,official,TRUE
IE_02138,-6.268248100353658,53.32557193749708,IE,IE06,IE061,02138,Rathmines West A,5018,0.65646064,2011,IE_02138,official,TRUE
IE_02139,-6.262694246733035,53.32588062872692,IE,IE06,IE061,02139,Rathmines West B,3342,0.33465175,2011,IE_02139,official,TRUE
IE_02140,-6.264261943549378,53.317093871436455,IE,IE06,IE061,02140,Rathmines West C,2601,0.4217663,2011,IE_02140,official,TRUE
IE_02141,-6.267581591170484,53.31597356159237,IE,IE06,IE061,02141,Rathmines West D,3003,0.375112,2011,IE_02141,official,TRUE
IE_02142,-6.278338420438044,53.31355856061569,IE,IE06,IE061,02142,Rathmines West E,3379,0.44991827,2011,IE_02142,official,TRUE
IE_02143,-6.269839895316305,53.32163506401087,IE,IE06,IE061,02143,Rathmines West F,2776,0.43758325,2011,IE_02143,official,TRUE
IE_02144,-6.267794187957913,53.34226243879557,IE,IE06,IE061,02144,Royal Exchange A,3244,0.44544387,2011,IE_02144,official,TRUE
IE_02145,-6.262679498211033,53.34110616888091,IE,IE06,IE061,02145,Royal Exchange B,1464,0.22139498,2011,IE_02145,official,TRUE
IE_02146,-6.267523432621568,53.333404562723445,IE,IE06,IE061,02146,Saint Kevin's,3873,0.62491957,2011,IE_02146,official,TRUE
IE_02147,-6.242130268889507,53.33970519079156,IE,IE06,IE061,02147,South Dock,6479,1.04922979,2011,IE_02147,official,TRUE
IE_02148,-6.283695407370887,53.320894374450354,IE,IE06,IE061,02148,Terenure A,3587,0.53849975,2011,IE_02148,official,TRUE
IE_02149,-6.290838207979508,53.3118506398333,IE,IE06,IE061,02149,Terenure B,3447,0.53537498,2011,IE_02149,official,TRUE
IE_02150,-6.294029941401095,53.30909125063525,IE,IE06,IE061,02150,Terenure C,1919,0.70824359,2011,IE_02150,official,TRUE
IE_02151,-6.289664957240917,53.30298021266272,IE,IE06,IE061,02151,Terenure D,796,0.46228176,2011,IE_02151,official,TRUE
IE_02152,-6.299980887656114,53.34414412028394,IE,IE06,IE061,02152,Ushers A,2921,0.72313646,2011,IE_02152,official,TRUE
IE_02153,-6.2883837465783055,53.34540949952449,IE,IE06,IE061,02153,Ushers B,1286,0.27001035,2011,IE_02153,official,TRUE
IE_02154,-6.288493184164277,53.339726522871835,IE,IE06,IE061,02154,Ushers C,3803,0.40024929,2011,IE_02154,official,TRUE
IE_02155,-6.293563082051529,53.33647654214623,IE,IE06,IE061,02155,Ushers D,2096,0.14694494,2011,IE_02155,official,TRUE
IE_02156,-6.299529759693549,53.335815096725014,IE,IE06,IE061,02156,Ushers E,1864,0.22323462,2011,IE_02156,official,TRUE
IE_02157,-6.301217744109875,53.33799079513313,IE,IE06,IE061,02157,Ushers F,2639,0.45184804,2011,IE_02157,official,TRUE
IE_02158,-6.329671923031933,53.32467252742475,IE,IE06,IE061,02158,Walkinstown A,2645,0.98672247,2011,IE_02158,official,TRUE
IE_02159,-6.327891572389785,53.32342523860727,IE,IE06,IE061,02159,Walkinstown B,1853,0.34228302,2011,IE_02159,official,TRUE
IE_02160,-6.323582320202423,53.318636407968455,IE,IE06,IE061,02160,Walkinstown C,2157,0.4496249,2011,IE_02160,official,TRUE
IE_02161,-6.270891885962093,53.34094732496164,IE,IE06,IE061,02161,Wood Quay A,2587,0.1751882,2011,IE_02161,official,TRUE
IE_02162,-6.270427061143897,53.33300870239917,IE,IE06,IE061,02162,Wood Quay B,3530,0.2967776,2011,IE_02162,official,TRUE
IE_03001,-6.401206855847926,53.27496653050678,IE,IE06,IE061,03001,Ballinascorney,823,24.22548308,2011,IE_03001,official,TRUE
IE_03002,-6.305972032990208,53.2823576547169,IE,IE06,IE061,03002,Ballyboden,5161,1.21672881,2011,IE_03002,official,TRUE
IE_03003,-6.35204700843689,53.26878284632703,IE,IE06,IE061,03003,Bohernabreena,4627,43.95069254,2011,IE_03003,official,TRUE
IE_03004,-6.369887555486685,53.31228894145592,IE,IE06,IE061,03004,Clondalkin-Ballymount,1889,3.12382901,2011,IE_03004,official,TRUE
IE_03005,-6.418196069518418,53.33704166480919,IE,IE06,IE061,03005,Clondalkin-Cappaghmore,2624,2.11680065,2011,IE_03005,official,TRUE
IE_03006,-6.414833117834867,53.323140042253534,IE,IE06,IE061,03006,Clondalkin-Dunawley,10984,4.7416438,2011,IE_03006,official,TRUE
IE_03007,-6.383166408999987,53.321343856623685,IE,IE06,IE061,03007,Clondalkin-Monastery,10908,3.94761386,2011,IE_03007,official,TRUE
IE_03008,-6.395218868068822,53.33931815274653,IE,IE06,IE061,03008,Clondalkin-Moorfield,6326,2.23825415,2011,IE_03008,official,TRUE
IE_03009,-6.402191073080716,53.34323546026047,IE,IE06,IE061,03009,Clondalkin-Rowlagh,4103,0.72727426,2011,IE_03009,official,TRUE
IE_03010,-6.403852327106996,53.315721682188496,IE,IE06,IE061,03010,Clondalkin Village,8450,6.04273162,2011,IE_03010,official,TRUE
IE_03011,-6.293708332503723,53.2753756804921,IE,IE06,IE061,03011,Edmondstown,5791,4.26617524,2011,IE_03011,official,TRUE
IE_03012,-6.323238958203591,53.275568944002174,IE,IE06,IE061,03012,Firhouse-Ballycullen,7837,2.84762023,2011,IE_03012,official,TRUE
IE_03013,-6.31681108686262,53.28885512854854,IE,IE06,IE061,03013,Firhouse-Knocklyon,3656,1.1176024,2011,IE_03013,official,TRUE
IE_03014,-6.3407713293466434,53.277181399051415,IE,IE06,IE061,03014,Firhouse Village,11801,2.41633368,2011,IE_03014,official,TRUE
IE_03015,-6.426224405289974,53.34570841163659,IE,IE06,IE061,03015,Lucan-Esker,30166,6.38610842,2011,IE_03015,official,TRUE
IE_03016,-6.436979744398082,53.354626606139504,IE,IE06,IE061,03016,Lucan Heights,5241,3.67140347,2011,IE_03016,official,TRUE
IE_03017,-6.461562678727957,53.34803985273865,IE,IE06,IE061,03017,Lucan-St. Helens,9536,9.88335382,2011,IE_03017,official,TRUE
IE_03018,-6.489908184188368,53.29711962545106,IE,IE06,IE061,03018,Newcastle,3757,32.14676431,2011,IE_03018,official,TRUE
IE_03019,-6.368879127461729,53.34750710969592,IE,IE06,IE061,03019,Palmerston Village,3689,1.16533169,2011,IE_03019,official,TRUE
IE_03020,-6.386283381005973,53.35353539420661,IE,IE06,IE061,03020,Palmerston West,7155,3.90661839,2011,IE_03020,official,TRUE
IE_03021,-6.470919067606447,53.277809755962565,IE,IE06,IE061,03021,Rathcoole,4762,15.74109295,2011,IE_03021,official,TRUE
IE_03022,-6.301249513470687,53.29206282264048,IE,IE06,IE061,03022,Rathfarnham-Ballyroan,2518,0.70127844,2011,IE_03022,official,TRUE
IE_03023,-6.291447628316353,53.2933590166966,IE,IE06,IE061,03023,Rathfarnham-Butterfield,3258,0.78616279,2011,IE_03023,official,TRUE
IE_03024,-6.280173734746118,53.28661599666793,IE,IE06,IE061,03024,Rathfarnham-Hermitage,4691,0.78500747,2011,IE_03024,official,TRUE
IE_03025,-6.2849390820765,53.28858562123168,IE,IE06,IE061,03025,Rathfarnham-St. Enda's,3904,1.06509617,2011,IE_03025,official,TRUE
IE_03026,-6.279075657416022,53.30192919755517,IE,IE06,IE061,03026,Rathfarnham Village,3056,0.78171572,2011,IE_03026,official,TRUE
IE_03027,-6.442845126123071,53.28160541516223,IE,IE06,IE061,03027,Saggart,3078,13.21495946,2011,IE_03027,official,TRUE
IE_03028,-6.344930900024212,53.286072193620534,IE,IE06,IE061,03028,Tallaght-Avonbeg,1650,0.37764303,2011,IE_03028,official,TRUE
IE_03029,-6.385265955614736,53.30048666651683,IE,IE06,IE061,03029,Tallaght-Belgard,1707,2.75700481,2011,IE_03029,official,TRUE
IE_03030,-6.405807148124067,53.287048442888,IE,IE06,IE061,03030,Tallaght-Fettercairn,7692,4.45812557,2011,IE_03030,official,TRUE
IE_03031,-6.345210559241855,53.28822153577062,IE,IE06,IE061,03031,Tallaght-Glenview,1770,0.41565412,2011,IE_03031,official,TRUE
IE_03032,-6.407755661032394,53.27953742064741,IE,IE06,IE061,03032,Tallaght-Jobstown,16791,2.74473775,2011,IE_03032,official,TRUE
IE_03033,-6.388831686599968,53.27982997642417,IE,IE06,IE061,03033,Tallaght-Killinardan,3967,0.7410935,2011,IE_03033,official,TRUE
IE_03034,-6.35620046661058,53.30412571275664,IE,IE06,IE061,03034,Tallaght-Kilnamanagh,4516,2.13751651,2011,IE_03034,official,TRUE
IE_03035,-6.3715937298520275,53.27322429381515,IE,IE06,IE061,03035,Tallaght-Kiltipper,8146,1.68895203,2011,IE_03035,official,TRUE
IE_03036,-6.3661343234407015,53.30091021567909,IE,IE06,IE061,03036,Tallaght-Kingswood,3976,1.71195371,2011,IE_03036,official,TRUE
IE_03037,-6.359278663967652,53.283643202355925,IE,IE06,IE061,03037,Tallaght-Millbrook,3318,0.62798971,2011,IE_03037,official,TRUE
IE_03038,-6.370653400286939,53.282278097438805,IE,IE06,IE061,03038,Tallaght-Oldbawn,4488,1.45659825,2011,IE_03038,official,TRUE
IE_03039,-6.378784533104959,53.290377793826366,IE,IE06,IE061,03039,Tallaght-Springfield,8710,2.07393423,2011,IE_03039,official,TRUE
IE_03040,-6.348072276256121,53.29488086921512,IE,IE06,IE061,03040,Tallaght-Tymon,4926,2.01332172,2011,IE_03040,official,TRUE
IE_03041,-6.318609131024774,53.298410014689956,IE,IE06,IE061,03041,Templeogue-Cypress,2851,0.72546657,2011,IE_03041,official,TRUE
IE_03042,-6.307392524448309,53.30767925514639,IE,IE06,IE061,03042,Templeogue-Kimmage Manor,4692,1.08895069,2011,IE_03042,official,TRUE
IE_03043,-6.33132773725998,53.30631646519638,IE,IE06,IE061,03043,Templeogue-Limekiln,3530,1.09743849,2011,IE_03043,official,TRUE
IE_03044,-6.318979900765272,53.299880221192225,IE,IE06,IE061,03044,Templeogue-Orwell,2158,0.4731635,2011,IE_03044,official,TRUE
IE_03045,-6.327222233231709,53.29913761727729,IE,IE06,IE061,03045,Templeogue-Osprey,2353,1.38832582,2011,IE_03045,official,TRUE
IE_03046,-6.304236923254905,53.30083296194839,IE,IE06,IE061,03046,Templeogue Village,2031,0.51299385,2011,IE_03046,official,TRUE
IE_03047,-6.325748498914954,53.3162356189992,IE,IE06,IE061,03047,Terenure-Cherryfield,2185,0.45458298,2011,IE_03047,official,TRUE
IE_03048,-6.316594622337208,53.309407994872245,IE,IE06,IE061,03048,Terenure-Greentrees,2853,0.66955198,2011,IE_03048,official,TRUE
IE_03049,-6.333096844511979,53.31394316667448,IE,IE06,IE061,03049,Terenure-St. James,2650,0.62905779,2011,IE_03049,official,TRUE
IE_04001,-6.249744383116105,53.40114758669341,IE,IE06,IE061,04001,Airport,3496,8.65897396,2011,IE_04001,official,TRUE
IE_04002,-6.201117652013958,53.61198128349309,IE,IE06,IE061,04002,Balbriggan Rural,15299,25.66360057,2011,IE_04002,official,TRUE
IE_04003,-6.187291065754382,53.60838503678082,IE,IE06,IE061,04003,Balbriggan Urban,7617,2.21108513,2011,IE_04003,official,TRUE
IE_04004,-6.14108017287817,53.39641969446896,IE,IE06,IE061,04004,Baldoyle,7125,2.67953317,2011,IE_04004,official,TRUE
IE_04005,-6.17568269825157,53.41088269815718,IE,IE06,IE061,04005,Balgriffin,1815,10.37498259,2011,IE_04005,official,TRUE
IE_04006,-6.276963103209185,53.52118799022054,IE,IE06,IE061,04006,Ballyboghil,1012,19.5483221,2011,IE_04006,official,TRUE
IE_04007,-6.259495450279854,53.62663327913679,IE,IE06,IE061,04007,Balscadden,669,15.97301137,2011,IE_04007,official,TRUE
IE_04008,-6.358229068533916,53.39048331018412,IE,IE06,IE061,04008,Blanchardstown-Abbotstown,4741,7.19303037,2011,IE_04008,official,TRUE
IE_04009,-6.422965795869127,53.39539072749355,IE,IE06,IE061,04009,Blanchardstown-Blakestown,36504,7.87708123,2011,IE_04009,official,TRUE
IE_04010,-6.399461916623918,53.39137926518573,IE,IE06,IE061,04010,Blanchardstown-Coolmine,10850,2.74242352,2011,IE_04010,official,TRUE
IE_04011,-6.379152316739366,53.399983326832405,IE,IE06,IE061,04011,Blanchardstown-Corduff,3805,1.44622929,2011,IE_04011,official,TRUE
IE_04012,-6.392949007827929,53.380549585881674,IE,IE06,IE061,04012,Blanchardstown-Delwood,5112,1.01290775,2011,IE_04012,official,TRUE
IE_04013,-6.3899663125732715,53.40390296666889,IE,IE06,IE061,04013,Blanchardstown-Mulhuddart,3890,1.83564075,2011,IE_04013,official,TRUE
IE_04014,-6.378932609783822,53.38397128602341,IE,IE06,IE061,04014,Blanchardstown-Roselawn,1706,0.46942948,2011,IE_04014,official,TRUE
IE_04015,-6.398975115507575,53.40893991265758,IE,IE06,IE061,04015,Blanchardstown-Tyrrelstown,2118,3.93402115,2011,IE_04015,official,TRUE
IE_04016,-6.383980834890918,53.37306625824646,IE,IE06,IE061,04016,Castleknock-Knockmaroon,18180,7.05407854,2011,IE_04016,official,TRUE
IE_04017,-6.359798005638379,53.37551866326753,IE,IE06,IE061,04017,Castleknock-Park,5146,2.43812671,2011,IE_04017,official,TRUE
IE_04018,-6.315171907254895,53.52064993942093,IE,IE06,IE061,04018,Clonmethan,805,16.87538397,2011,IE_04018,official,TRUE
IE_04019,-6.145691408090407,53.48844914874649,IE,IE06,IE061,04019,Donabate,8776,24.4037861,2011,IE_04019,official,TRUE
IE_04020,-6.295425975580347,53.40323037054786,IE,IE06,IE061,04020,Dubber,6410,18.07936915,2011,IE_04020,official,TRUE
IE_04021,-6.38599150522578,53.562242185507955,IE,IE06,IE061,04021,Garristown,1477,35.60657886,2011,IE_04021,official,TRUE
IE_04022,-6.285680531601285,53.580383628618264,IE,IE06,IE061,04022,Hollywood,1274,30.06078601,2011,IE_04022,official,TRUE
IE_04023,-6.128424815643863,53.576157084447146,IE,IE06,IE061,04023,Holmpatrick,3215,26.51890635,2011,IE_04023,official,TRUE
IE_04024,-6.070973382489585,53.38242517959147,IE,IE06,IE061,04024,Howth,8285,10.94108177,2011,IE_04024,official,TRUE
IE_04025,-6.289112709206099,53.457599136025756,IE,IE06,IE061,04025,Kilsallaghan,2242,27.82344375,2011,IE_04025,official,TRUE
IE_04026,-6.202709681879842,53.44287399527117,IE,IE06,IE061,04026,Kinsaley,8416,11.26062845,2011,IE_04026,official,TRUE
IE_04027,-6.437603417806795,53.370735719711476,IE,IE06,IE061,04027,Lucan North,1380,9.49488368,2011,IE_04027,official,TRUE
IE_04028,-6.168141302545307,53.526718152608616,IE,IE06,IE061,04028,Lusk,8872,42.40523172,2011,IE_04028,official,TRUE
IE_04029,-6.144066690974017,53.444358817898824,IE,IE06,IE061,04029,Malahide East,6847,3.26233615,2011,IE_04029,official,TRUE
IE_04030,-6.170127223137086,53.44925466915953,IE,IE06,IE061,04030,Malahide West,6351,2.60533005,2011,IE_04030,official,TRUE
IE_04031,-6.129728039167227,53.434722893064645,IE,IE06,IE061,04031,Portmarnock North,4136,1.08066095,2011,IE_04031,official,TRUE
IE_04032,-6.137288867762325,53.42549258553842,IE,IE06,IE061,04032,Portmarnock South,3499,5.34425533,2011,IE_04032,official,TRUE
IE_04033,-6.099494733832779,53.52502233966047,IE,IE06,IE061,04033,Rush,9291,6.78122861,2011,IE_04033,official,TRUE
IE_04034,-6.118005676478326,53.57724870565229,IE,IE06,IE061,04034,Skerries,8408,2.3243154600000002,2011,IE_04034,official,TRUE
IE_04035,-6.13764005000973,53.38806614499021,IE,IE06,IE061,04035,Sutton,5604,1.44691337,2011,IE_04035,official,TRUE
IE_04036,-6.239344365061237,53.448970707258276,IE,IE06,IE061,04036,Swords-Forrest,14109,6.68443883,2011,IE_04036,official,TRUE
IE_04037,-6.2435068139951095,53.46441600298217,IE,IE06,IE061,04037,Swords-Glasmore,7786,4.50447081,2011,IE_04037,official,TRUE
IE_04038,-6.230638414572019,53.46875955217109,IE,IE06,IE061,04038,Swords-Lissenhall,9720,18.77910817,2011,IE_04038,official,TRUE
IE_04039,-6.203958943852353,53.4539075096681,IE,IE06,IE061,04039,Swords-Seatown,6556,3.99824979,2011,IE_04039,official,TRUE
IE_04040,-6.219585308921845,53.459164511739424,IE,IE06,IE061,04040,Swords Village,2607,0.91836448,2011,IE_04040,official,TRUE
IE_04041,-6.380410655500456,53.41833175534217,IE,IE06,IE061,04041,The Ward,8292,24.6520327,2011,IE_04041,official,TRUE
IE_04042,-6.235367486199708,53.40215714042657,IE,IE06,IE061,04042,Turnapin,1693,0.94718223,2011,IE_04042,official,TRUE
IE_05001,-6.263318430251013,53.27884320374736,IE,IE06,IE061,05001,Ballinteer-Broadford,2681,0.57412523,2011,IE_05001,official,TRUE
IE_05002,-6.250165978728047,53.280651426685374,IE,IE06,IE061,05002,Ballinteer-Ludford,2054,0.46779767,2011,IE_05002,official,TRUE
IE_05003,-6.268250146822801,53.27856163950174,IE,IE06,IE061,05003,Ballinteer-Marley,2381,1.31609098,2011,IE_05003,official,TRUE
IE_05004,-6.251718213467097,53.284667725588456,IE,IE06,IE061,05004,Ballinteer-Meadowbroads,1550,0.34269954,2011,IE_05004,official,TRUE
IE_05005,-6.257220908178482,53.28598084454904,IE,IE06,IE061,05005,Ballinteer-Meadowmount,1826,0.39208156,2011,IE_05005,official,TRUE
IE_05006,-6.248253908863209,53.27181239695378,IE,IE06,IE061,05006,Ballinteer-Woodpark,5395,0.95386643,2011,IE_05006,official,TRUE
IE_05007,-6.133678666835988,53.25866085724272,IE,IE06,IE061,05007,Ballybrack,2918,0.60909624,2011,IE_05007,official,TRUE
IE_05008,-6.198628272810532,53.30632470997466,IE,IE06,IE061,05008,Blackrock-Booterstown,3197,0.79265837,2011,IE_05008,official,TRUE
IE_05009,-6.187392946165573,53.2864742140392,IE,IE06,IE061,05009,Blackrock-Carysfort,6034,1.30808922,2011,IE_05009,official,TRUE
IE_05010,-6.188241845512986,53.297903200943885,IE,IE06,IE061,05010,Blackrock-Central,3753,1.01766712,2011,IE_05010,official,TRUE
IE_05011,-6.209811625614979,53.30700439976176,IE,IE06,IE061,05011,Blackrock-Glenomena,1787,0.42962707,2011,IE_05011,official,TRUE
IE_05012,-6.162045573486556,53.29246209683779,IE,IE06,IE061,05012,Blackrock-Monkstown,3139,0.72949507,2011,IE_05012,official,TRUE
IE_05013,-6.174946576183215,53.28766032213097,IE,IE06,IE061,05013,Blackrock-Newpark,2168,0.50393965,2011,IE_05013,official,TRUE
IE_05014,-6.160748926703246,53.295833213039465,IE,IE06,IE061,05014,Blackrock-Seapoint,1435,0.36497262,2011,IE_05014,official,TRUE
IE_05015,-6.162773949708898,53.2834906071475,IE,IE06,IE061,05015,Blackrock-Stradbrook,2336,0.55486821,2011,IE_05015,official,TRUE
IE_05016,-6.177636871111853,53.29316236452292,IE,IE06,IE061,05016,Blackrock-Templehill,2702,0.78805369,2011,IE_05016,official,TRUE
IE_05017,-6.196180040270031,53.30117659563788,IE,IE06,IE061,05017,Blackrock-Williamstown,2532,1.09011079,2011,IE_05017,official,TRUE
IE_05018,-6.140263492450668,53.26638058195285,IE,IE06,IE061,05018,Cabinteely-Granitefield,2469,0.56717324,2011,IE_05018,official,TRUE
IE_05019,-6.133344453324878,53.2540310372175,IE,IE06,IE061,05019,Cabinteely-Kilbogget,2767,1.066377,2011,IE_05019,official,TRUE
IE_05020,-6.151243623565505,53.250470712603075,IE,IE06,IE061,05020,Cabinteely-Loughlinstown,3850,6.32099717,2011,IE_05020,official,TRUE
IE_05021,-6.153716284255911,53.27127851116724,IE,IE06,IE061,05021,Cabinteely-Pottery,4831,1.61283402,2011,IE_05021,official,TRUE
IE_05022,-6.2710305166049976,53.29617634674942,IE,IE06,IE061,05022,Churchtown-Castle,1316,0.84581854,2011,IE_05022,official,TRUE
IE_05023,-6.265066175617249,53.29846334932374,IE,IE06,IE061,05023,Churchtown-Landscape,1325,0.41351551,2011,IE_05023,official,TRUE
IE_05024,-6.265931254707056,53.28772987338037,IE,IE06,IE061,05024,Churchtown-Nutgrove,3088,0.77455513,2011,IE_05024,official,TRUE
IE_05025,-6.258580894544817,53.302208211393555,IE,IE06,IE061,05025,Churchtown-Orwell,1759,0.95482707,2011,IE_05025,official,TRUE
IE_05026,-6.250148255659022,53.29888855660882,IE,IE06,IE061,05026,Churchtown-Woodlawn,1402,0.41428131,2011,IE_05026,official,TRUE
IE_05027,-6.226112986544211,53.30413203370862,IE,IE06,IE061,05027,Clonskeagh-Belfield,1660,1.92534245,2011,IE_05027,official,TRUE
IE_05028,-6.249093459730469,53.306471682552846,IE,IE06,IE061,05028,Clonskeagh-Farranboley,1502,0.36405268,2011,IE_05028,official,TRUE
IE_05029,-6.245602960856864,53.30883728111041,IE,IE06,IE061,05029,Clonskeagh-Milltown,1947,0.52080409,2011,IE_05029,official,TRUE
IE_05030,-6.226741799597251,53.29996784516525,IE,IE06,IE061,05030,Clonskeagh-Roebuck,2529,0.74663318,2011,IE_05030,official,TRUE
IE_05031,-6.2420882291344695,53.30014820513467,IE,IE06,IE061,05031,Clonskeagh-Windy Arbour,2457,0.71412409,2011,IE_05031,official,TRUE
IE_05032,-6.127444949136876,53.269782021517756,IE,IE06,IE061,05032,Dalkey-Avondale,1358,0.51985632,2011,IE_05032,official,TRUE
IE_05033,-6.111427321921101,53.281130111925215,IE,IE06,IE061,05033,Dalkey-Bullock,1711,0.56916912,2011,IE_05033,official,TRUE
IE_05034,-6.097800136001384,53.275919485301266,IE,IE06,IE061,05034,Dalkey-Coliemore,1371,0.60905225,2011,IE_05034,official,TRUE
IE_05035,-6.107989515881091,53.272418680711596,IE,IE06,IE061,05035,Dalkey Hill,1423,1.19989883,2011,IE_05035,official,TRUE
IE_05036,-6.115910390251546,53.273248861971545,IE,IE06,IE061,05036,Dalkey Upper,2155,0.58540674,2011,IE_05036,official,TRUE
IE_05037,-6.219583573600105,53.27633283127351,IE,IE06,IE061,05037,Dundrum-Balally,6919,2.53569595,2011,IE_05037,official,TRUE
IE_05038,-6.235955095392636,53.289383611465816,IE,IE06,IE061,05038,Dundrum-Kilmacud,3214,0.91153588,2011,IE_05038,official,TRUE
IE_05039,-6.236797734192849,53.27516580571393,IE,IE06,IE061,05039,Dundrum-Sandyford,6950,2.47735015,2011,IE_05039,official,TRUE
IE_05040,-6.253338444865658,53.28944735738343,IE,IE06,IE061,05040,Dundrum-Sweetmount,2126,0.56163187,2011,IE_05040,official,TRUE
IE_05041,-6.23908387955402,53.292219349257955,IE,IE06,IE061,05041,Dundrum-Taney,2466,0.57195988,2011,IE_05041,official,TRUE
IE_05042,-6.133119496223397,53.2897744177692,IE,IE06,IE061,05042,Dun Laoghaire-East Central,2059,0.4439051,2011,IE_05042,official,TRUE
IE_05043,-6.128699654552442,53.285906917669806,IE,IE06,IE061,05043,Dun Laoghaire-Glasthule,2785,0.73734505,2011,IE_05043,official,TRUE
IE_05044,-6.143094073002269,53.28595164225094,IE,IE06,IE061,05044,Dun Laoghaire-Glenageary,1940,0.58318664,2011,IE_05044,official,TRUE
IE_05045,-6.158559029169308,53.283932249499344,IE,IE06,IE061,05045,Dun Laoghaire-Monkstown Farm,2102,0.33948051,2011,IE_05045,official,TRUE
IE_05046,-6.1460014594313455,53.28563377267404,IE,IE06,IE061,05046,Dun Laoghaire-Mount Town,1744,0.33405371,2011,IE_05046,official,TRUE
IE_05047,-6.136248701463415,53.27746698561891,IE,IE06,IE061,05047,Dun Laoghaire-Sallynoggin East,2844,0.74928073,2011,IE_05047,official,TRUE
IE_05048,-6.138246062018606,53.270575537439974,IE,IE06,IE061,05048,Dun Laoghaire-Sallynoggin South,1364,0.40816081,2011,IE_05048,official,TRUE
IE_05049,-6.142446627865123,53.27863007352784,IE,IE06,IE061,05049,Dun Laoghaire-Sallynoggin West,1897,0.61188954,2011,IE_05049,official,TRUE
IE_05050,-6.119935475210938,53.280480428427204,IE,IE06,IE061,05050,Dun Laoghaire-Sandycove,3746,0.97707772,2011,IE_05050,official,TRUE
IE_05051,-6.147385426846629,53.29439268406361,IE,IE06,IE061,05051,Dun Laoghaire-Salthill,1632,0.54313795,2011,IE_05051,official,TRUE
IE_05052,-6.141820210695554,53.29340471968338,IE,IE06,IE061,05052,Dun Laoghaire-West Central,2317,0.48894633,2011,IE_05052,official,TRUE
IE_05053,-6.1697939271806534,53.27314381337679,IE,IE06,IE061,05053,Foxrock-Beechpark,1681,0.54110828,2011,IE_05053,official,TRUE
IE_05054,-6.166730596231997,53.26456543476144,IE,IE06,IE061,05054,Foxrock-Carrickmines,6243,2.8288336,2011,IE_05054,official,TRUE
IE_05055,-6.173762250327445,53.28099875587624,IE,IE06,IE061,05055,Foxrock-Deansgrange,2471,1.00894155,2011,IE_05055,official,TRUE
IE_05056,-6.18159285499762,53.273346205096914,IE,IE06,IE061,05056,Foxrock-Torquay,1461,0.96874608,2011,IE_05056,official,TRUE
IE_05057,-6.209209802876777,53.2596643550916,IE,IE06,IE061,05057,Glencullen,17405,33.85412204,2011,IE_05057,official,TRUE
IE_05058,-6.124120819012798,53.2635692023374,IE,IE06,IE061,05058,Killiney North,3405,2.20447325,2011,IE_05058,official,TRUE
IE_05059,-6.129089942559794,53.249004996955094,IE,IE06,IE061,05059,Killiney South,6491,1.56596617,2011,IE_05059,official,TRUE
IE_05060,-6.126616059373004,53.22257994989976,IE,IE06,IE061,05060,Shankill-Rathmichael,5399,14.92894121,2011,IE_05060,official,TRUE
IE_05061,-6.123836535709829,53.23760841842174,IE,IE06,IE061,05061,Shankill-Rathsallagh,3283,0.99212374,2011,IE_05061,official,TRUE
IE_05062,-6.120650441248401,53.22672861674791,IE,IE06,IE061,05062,Shankill-Shanganagh,5398,2.9839095,2011,IE_05062,official,TRUE
IE_05063,-6.214978686408428,53.29446096438961,IE,IE06,IE061,05063,Stillorgan-Deerpark,2798,1.01284647,2011,IE_05063,official,TRUE
IE_05064,-6.217887221758811,53.2850499218499,IE,IE06,IE061,05064,Stillorgan-Kilmacud,3886,0.91950652,2011,IE_05064,official,TRUE
IE_05065,-6.190867853056791,53.279545950879836,IE,IE06,IE061,05065,Stillorgan-Leopardstown,2471,0.55957842,2011,IE_05065,official,TRUE
IE_05066,-6.203920462973065,53.28287634960661,IE,IE06,IE061,05066,Stillorgan-Merville,2754,1.12896915,2011,IE_05066,official,TRUE
IE_05067,-6.209069547611333,53.29465481489187,IE,IE06,IE061,05067,Stillorgan-Mount Merrion,2412,0.87726861,2011,IE_05067,official,TRUE
IE_05068,-6.192998041427169,53.292540980131655,IE,IE06,IE061,05068,Stillorgan-Priory,2244,0.55048976,2011,IE_05068,official,TRUE
IE_05069,-6.261884029971526,53.267165221312666,IE,IE06,IE061,05069,Tibradden,793,13.37637617,2011,IE_05069,official,TRUE
IE_06001,-6.982743375998062,52.99382666941053,IE,IE06,IE062,06001,Athy East Urban,3918,2.18960615,2011,IE_06001,official,TRUE
IE_06002,-6.985326339285055,52.99241511770894,IE,IE06,IE062,06002,Athy West Urban,2969,1.69277231,2011,IE_06002,official,TRUE
IE_06003,-6.6606629016719445,53.22242210744902,IE,IE06,IE062,06003,Naas Urban,20721,18.25521588,2011,IE_06003,official,TRUE
IE_06004,-6.9793640900705745,52.98237402298786,IE,IE06,IE062,06004,Athy Rural,3631,34.16338701,2011,IE_06004,official,TRUE
IE_06005,-6.879449924899909,52.875093625102906,IE,IE06,IE062,06005,Ballaghmoon,200,10.8880578,2011,IE_06005,official,TRUE
IE_06006,-6.817267741191487,53.00765331215458,IE,IE06,IE062,06006,Ballitore,1042,12.77996694,2011,IE_06006,official,TRUE
IE_06007,-7.020326524618987,53.10063196152461,IE,IE06,IE062,06007,Ballybrackan,556,12.40183941,2011,IE_06007,official,TRUE
IE_06008,-6.806572603089381,53.08513275517078,IE,IE06,IE062,06008,Ballyshannon,1780,26.12473936,2011,IE_06008,official,TRUE
IE_06009,-6.848551583729936,52.9535023971679,IE,IE06,IE062,06009,Belan,272,10.81875708,2011,IE_06009,official,TRUE
IE_06010,-7.002911801464458,53.020647334597655,IE,IE06,IE062,06010,Bert,161,10.86245135,2011,IE_06010,official,TRUE
IE_06011,-6.896132750701583,53.01464412893216,IE,IE06,IE062,06011,Burtown,366,20.61349894,2011,IE_06011,official,TRUE
IE_06012,-6.761632780456736,52.937699102345164,IE,IE06,IE062,06012,Carrigeen,634,30.11473644,2011,IE_06012,official,TRUE
IE_06013,-6.844832854281769,52.90869388884705,IE,IE06,IE062,06013,Castledermot,1626,19.30063058,2011,IE_06013,official,TRUE
IE_06014,-7.048732364237387,53.01148664747682,IE,IE06,IE062,06014,Churchtown,535,18.73356275,2011,IE_06014,official,TRUE
IE_06015,-6.9145758723296264,52.91079023689383,IE,IE06,IE062,06015,Dunmanoge,490,14.51314233,2011,IE_06015,official,TRUE
IE_06016,-6.887030405169471,53.05326429944332,IE,IE06,IE062,06016,Fontstown,407,18.35730948,2011,IE_06016,official,TRUE
IE_06017,-6.817179170286682,52.9125714568639,IE,IE06,IE062,06017,Graney,741,26.62254613,2011,IE_06017,official,TRUE
IE_06018,-6.938344418765792,52.960778372433566,IE,IE06,IE062,06018,Grangemellon,608,18.35511577,2011,IE_06018,official,TRUE
IE_06019,-6.961694890466621,53.089596481328286,IE,IE06,IE062,06019,Harristown,453,20.86101523,2011,IE_06019,official,TRUE
IE_06020,-6.780227232814144,53.03509265848351,IE,IE06,IE062,06020,Inchaquire,208,12.23865704,2011,IE_06020,official,TRUE
IE_06021,-6.877432462035037,52.91403014476161,IE,IE06,IE062,06021,Johnstown,180,8.67599115,2011,IE_06021,official,TRUE
IE_06022,-7.0203317499625815,53.043235328579335,IE,IE06,IE062,06022,Kilberry,622,16.96458641,2011,IE_06022,official,TRUE
IE_06023,-6.986087190987516,53.115417483719746,IE,IE06,IE062,06023,Kildangan,698,15.05713812,2011,IE_06023,official,TRUE
IE_06024,-6.8894934470336695,52.95096393576752,IE,IE06,IE062,06024,Kilkea,383,18.23586487,2011,IE_06024,official,TRUE
IE_06025,-6.8647377525816875,53.09957347641315,IE,IE06,IE062,06025,Kilrush,670,18.00223179,2011,IE_06025,official,TRUE
IE_06026,-7.021180924371066,53.168673851468796,IE,IE06,IE062,06026,Lackagh,796,25.57045974,2011,IE_06026,official,TRUE
IE_06027,-7.0577908318151925,53.14194918071279,IE,IE06,IE062,06027,Monasterevin,4390,27.38485779,2011,IE_06027,official,TRUE
IE_06028,-6.825680234234859,52.99714002820113,IE,IE06,IE062,06028,Moone,490,17.56362491,2011,IE_06028,official,TRUE
IE_06029,-6.826946772089634,53.045601255424636,IE,IE06,IE062,06029,Narraghmore,789,16.81500782,2011,IE_06029,official,TRUE
IE_06030,-6.935439722614388,53.094429668630625,IE,IE06,IE062,06030,Nurney,965,12.57976693,2011,IE_06030,official,TRUE
IE_06031,-7.0713666729799085,53.175490082903266,IE,IE06,IE062,06031,Quinsborough,145,14.53220763,2011,IE_06031,official,TRUE
IE_06032,-6.90320122236452,53.03400978929351,IE,IE06,IE062,06032,Skerries,670,14.99599917,2011,IE_06032,official,TRUE
IE_06033,-6.689108523284406,53.318296802633945,IE,IE06,IE062,06033,Balraheen,1880,33.30938085,2011,IE_06033,official,TRUE
IE_06034,-6.548671201284125,53.34465486276209,IE,IE06,IE062,06034,Celbridge,15481,17.58766127,2011,IE_06034,official,TRUE
IE_06035,-6.749076578573425,53.39457157752158,IE,IE06,IE062,06035,Cloncurry,1520,34.01661545,2011,IE_06035,official,TRUE
IE_06036,-6.760817167218833,53.35868376777818,IE,IE06,IE062,06036,Donadea,755,20.57522764,2011,IE_06036,official,TRUE
IE_06037,-6.535036418089028,53.33348695258535,IE,IE06,IE062,06037,Donaghcumper,5760,24.33683763,2011,IE_06037,official,TRUE
IE_06038,-6.66868857960186,53.39752452602397,IE,IE06,IE062,06038,Kilcock,6278,16.41367943,2011,IE_06038,official,TRUE
IE_06039,-6.501947217925817,53.366261654332114,IE,IE06,IE062,06039,Leixlip,15781,11.38498806,2011,IE_06039,official,TRUE
IE_06040,-6.591952315204458,53.376486436031776,IE,IE06,IE062,06040,Maynooth,12943,33.72381386,2011,IE_06040,official,TRUE
IE_06041,-6.615435056910835,53.31640023541506,IE,IE06,IE062,06041,Straffan,1720,26.03279818,2011,IE_06041,official,TRUE
IE_06042,-6.958928271323377,53.42703709159082,IE,IE06,IE062,06042,Ballynadrumny,591,19.59398307,2011,IE_06042,official,TRUE
IE_06043,-6.869860508366785,53.40127880247399,IE,IE06,IE062,06043,Cadamstown,1236,20.36228976,2011,IE_06043,official,TRUE
IE_06044,-6.9587687676240355,53.343590744143135,IE,IE06,IE062,06044,Carbury,1876,44.68920087,2011,IE_06044,official,TRUE
IE_06045,-7.0447348333452675,53.38523723453284,IE,IE06,IE062,06045,Carrick,275,15.46778333,2011,IE_06045,official,TRUE
IE_06046,-6.9269081963635575,53.234698462635,IE,IE06,IE062,06046,Cloncurry,398,15.7467482,2011,IE_06046,official,TRUE
IE_06047,-6.905357217592764,53.36359874973212,IE,IE06,IE062,06047,Drehid,260,15.53708269,2011,IE_06047,official,TRUE
IE_06048,-6.853974917937638,53.39410601036942,IE,IE06,IE062,06048,Dunfierth,759,22.45438429,2011,IE_06048,official,TRUE
IE_06049,-6.9880085185422045,53.22946286854328,IE,IE06,IE062,06049,Killinthomas,321,15.03448689,2011,IE_06049,official,TRUE
IE_06050,-6.931345494155133,53.30621355138112,IE,IE06,IE062,06050,Kilpatrick,874,20.57142717,2011,IE_06050,official,TRUE
IE_06051,-7.002663734471851,53.39871795131685,IE,IE06,IE062,06051,Kilrainy,754,21.58453289,2011,IE_06051,official,TRUE
IE_06052,-6.942572527841226,53.27485838805491,IE,IE06,IE062,06052,Lullymore,188,21.47953668,2011,IE_06052,official,TRUE
IE_06053,-6.99647459143828,53.22088152851415,IE,IE06,IE062,06053,Rathangan,2316,14.43905249,2011,IE_06053,official,TRUE
IE_06054,-6.9943781455106775,53.19930061694397,IE,IE06,IE062,06054,Thomastown,880,20.05756406,2011,IE_06054,official,TRUE
IE_06055,-6.9369989031590835,53.337811511575026,IE,IE06,IE062,06055,Windmill Cross,1132,13.98703424,2011,IE_06055,official,TRUE
IE_06056,-6.612251470931093,53.13012768620021,IE,IE06,IE062,06056,Ballymore Eustace,1509,17.04379782,2011,IE_06056,official,TRUE
IE_06057,-6.83609709696865,53.13361828595181,IE,IE06,IE062,06057,Ballysax East,1933,20.70189583,2011,IE_06057,official,TRUE
IE_06058,-6.861116018749215,53.11204029719576,IE,IE06,IE062,06058,Ballysax West,1075,14.46139587,2011,IE_06058,official,TRUE
IE_06059,-6.664764757106235,53.25722390948863,IE,IE06,IE062,06059,Bodenstown,4721,28.00178118,2011,IE_06059,official,TRUE
IE_06060,-6.7306491999081555,53.14087641644292,IE,IE06,IE062,06060,Carnalway,1956,30.49553965,2011,IE_06060,official,TRUE
IE_06061,-6.7262397479398475,53.23365876628482,IE,IE06,IE062,06061,Carragh,1729,12.95033801,2011,IE_06061,official,TRUE
IE_06062,-6.687819093545084,53.29388420366788,IE,IE06,IE062,06062,Clane,7564,18.88109936,2011,IE_06062,official,TRUE
IE_06063,-6.7231578282690085,53.258318461208674,IE,IE06,IE062,06063,Donore,807,20.19878985,2011,IE_06063,official,TRUE
IE_06064,-6.758045249042844,53.286625041564214,IE,IE06,IE062,06064,Downings,2908,16.04715953,2011,IE_06064,official,TRUE
IE_06065,-6.782609255012875,53.16149490803246,IE,IE06,IE062,06065,Droichead Nua Rural,2563,19.25300361,2011,IE_06065,official,TRUE
IE_06066,-6.8006308883165385,53.181013381268556,IE,IE06,IE062,06066,Droichead Nua Urban,7620,2.80398984,2011,IE_06066,official,TRUE
IE_06067,-6.910242630430409,53.17614037937297,IE,IE06,IE062,06067,Dunmurry,451,16.09785875,2011,IE_06067,official,TRUE
IE_06068,-6.868004462559263,53.20877830413389,IE,IE06,IE062,06068,Feighcullen,594,11.02133372,2011,IE_06068,official,TRUE
IE_06069,-6.690759575847775,53.11107872278208,IE,IE06,IE062,06069,Gilltown,960,32.29757924,2011,IE_06069,official,TRUE
IE_06070,-6.755510264098218,53.12782263060862,IE,IE06,IE062,06070,Kilcullen,3326,17.86456334,2011,IE_06070,official,TRUE
IE_06071,-6.90370678851395,53.16027745594577,IE,IE06,IE062,06071,Kildare,9401,37.10929913,2011,IE_06071,official,TRUE
IE_06072,-6.5932743471570365,53.243099235286756,IE,IE06,IE062,06072,Kill,4482,19.41077833,2011,IE_06072,official,TRUE
IE_06073,-6.652124951487498,53.18518639100898,IE,IE06,IE062,06073,Killashee,241,13.87865622,2011,IE_06073,official,TRUE
IE_06074,-6.865612305095865,53.28587321307826,IE,IE06,IE062,06074,Kilmeage North,2079,22.58660834,2011,IE_06074,official,TRUE
IE_06075,-6.842993849053531,53.25418851326551,IE,IE06,IE062,06075,Kilmeage South,2021,17.62697744,2011,IE_06075,official,TRUE
IE_06076,-6.525164160231434,53.23352577120798,IE,IE06,IE062,06076,Kilteel,604,17.48727426,2011,IE_06076,official,TRUE
IE_06077,-6.705803136598142,53.17590693947797,IE,IE06,IE062,06077,Ladytown,951,20.12454748,2011,IE_06077,official,TRUE
IE_06078,-6.804498256678028,53.1736892164934,IE,IE06,IE062,06078,Morristownbiller,13944,17.07635715,2011,IE_06078,official,TRUE
IE_06079,-6.668185051836823,53.246083412955144,IE,IE06,IE062,06079,Naas Rural,2380,13.5553465,2011,IE_06079,official,TRUE
IE_06080,-6.545881838503265,53.166798514690775,IE,IE06,IE062,06080,Newtown,844,20.40013295,2011,IE_06080,official,TRUE
IE_06081,-6.784449745709693,53.196002243725594,IE,IE06,IE062,06081,Oldconnell,921,17.81796127,2011,IE_06081,official,TRUE
IE_06082,-6.5673995807969,53.264133918516606,IE,IE06,IE062,06082,Oughterard,737,15.91873083,2011,IE_06082,official,TRUE
IE_06083,-6.842685814190264,53.17987567706643,IE,IE06,IE062,06083,Pollardstown,319,10.84202418,2011,IE_06083,official,TRUE
IE_06084,-6.857701412332311,53.23630036667096,IE,IE06,IE062,06084,Rathernan,616,17.44797329,2011,IE_06084,official,TRUE
IE_06085,-6.586224884986263,53.214395888646315,IE,IE06,IE062,06085,Rathmore,1166,24.32256069,2011,IE_06085,official,TRUE
IE_06086,-6.815512176821804,53.278005620348985,IE,IE06,IE062,06086,Robertstown,1943,14.05098531,2011,IE_06086,official,TRUE
IE_06087,-6.7966198467590235,53.33372396302185,IE,IE06,IE062,06087,Timahoe North,1112,36.09439685,2011,IE_06087,official,TRUE
IE_06088,-6.821981618897575,53.300984786186575,IE,IE06,IE062,06088,Timahoe South,786,16.98241182,2011,IE_06088,official,TRUE
IE_06089,-6.751099572298758,53.07102221861079,IE,IE06,IE062,06089,Usk,509,18.96855022,2011,IE_06089,official,TRUE
IE_07001,-7.2602056550774465,52.6499467957945,IE,IE05,IE052,07001,Kilkenny No. 1 Urban,5164,1.83326893,2011,IE_07001,official,TRUE
IE_07002,-7.247058347834303,52.6549300154036,IE,IE05,IE052,07002,Kilkenny No. 2 Urban,3330,1.90961716,2011,IE_07002,official,TRUE
IE_07003,-7.283809491432978,52.58133070459792,IE,IE05,IE052,07003,Burnchurch,566,14.32158805,2011,IE_07003,official,TRUE
IE_07004,-7.381780337486819,52.53906794803207,IE,IE05,IE052,07004,Callan Rural,1573,40.91214362,2011,IE_07004,official,TRUE
IE_07005,-7.387073805235452,52.54705745348585,IE,IE05,IE052,07005,Callan Urban,1703,1.5218078,2011,IE_07005,official,TRUE
IE_07006,-7.400124130460564,52.49255784477432,IE,IE05,IE052,07006,Coolaghmore,419,26.0541457,2011,IE_07006,official,TRUE
IE_07007,-7.289435136376877,52.50286477065192,IE,IE05,IE052,07007,Dunnamaggan,394,18.08347301,2011,IE_07007,official,TRUE
IE_07008,-7.32368285793546,52.553191257977794,IE,IE05,IE052,07008,Earlstown,230,12.45649919,2011,IE_07008,official,TRUE
IE_07009,-7.275304756152574,52.53757095757309,IE,IE05,IE052,07009,Kells,644,18.92343238,2011,IE_07009,official,TRUE
IE_07010,-7.3881722826891405,52.43861480674205,IE,IE05,IE052,07010,Killamery,221,12.96830468,2011,IE_07010,official,TRUE
IE_07011,-7.3341230728213365,52.46524359881677,IE,IE05,IE052,07011,Kilmaganny,705,31.43119152,2011,IE_07011,official,TRUE
IE_07012,-7.423125592517168,52.61898901587079,IE,IE05,IE052,07012,Kilmanagh,509,22.88602267,2011,IE_07012,official,TRUE
IE_07013,-7.34018327103676,52.5099273084455,IE,IE05,IE052,07013,Mallardstown,238,15.09999003,2011,IE_07013,official,TRUE
IE_07014,-7.426728313673468,52.57631324593795,IE,IE05,IE052,07014,Scotsborough,164,14.76685783,2011,IE_07014,official,TRUE
IE_07015,-7.367709454784027,52.590860310026954,IE,IE05,IE052,07015,Tullaghanbrogue,501,22.15614239,2011,IE_07015,official,TRUE
IE_07016,-7.293928284871476,52.42850439616409,IE,IE05,IE052,07016,Boolyglass,126,12.57360591,2011,IE_07016,official,TRUE
IE_07017,-7.309253452315562,52.32986499248944,IE,IE05,IE052,07017,Fiddown,981,17.62640986,2011,IE_07017,official,TRUE
IE_07018,-7.264276397842596,52.40200469848887,IE,IE05,IE052,07018,Muckalee,187,12.09903243,2011,IE_07018,official,TRUE
IE_07019,-7.329680632498284,52.35400276085669,IE,IE05,IE052,07019,Pilltown,1799,19.02240703,2011,IE_07019,official,TRUE
IE_07020,-7.30255274358828,52.38157852003461,IE,IE05,IE052,07020,Templeorum,443,17.24320394,2011,IE_07020,official,TRUE
IE_07021,-7.249360880555419,52.33624300518966,IE,IE05,IE052,07021,Tubbrid,410,21.30523043,2011,IE_07021,official,TRUE
IE_07022,-7.365204778517512,52.41548937414883,IE,IE05,IE052,07022,Tullahought,192,13.57328758,2011,IE_07022,official,TRUE
IE_07023,-7.365772571112433,52.35884339020364,IE,IE05,IE052,07023,Whitechurch,468,17.59822294,2011,IE_07023,official,TRUE
IE_07024,-7.298644050681664,52.83955672779976,IE,IE05,IE052,07024,Attanagh,385,25.11049762,2011,IE_07024,official,TRUE
IE_07025,-7.330846267895474,52.78652710948074,IE,IE05,IE052,07025,Ballyragget,1535,26.65990192,2011,IE_07025,official,TRUE
IE_07026,-7.214243824737737,52.80259265602353,IE,IE05,IE052,07026,Castlecomer,2319,30.63092392,2011,IE_07026,official,TRUE
IE_07027,-7.163510736515747,52.8564834796764,IE,IE05,IE052,07027,Clogh,1289,34.89956333,2011,IE_07027,official,TRUE
IE_07028,-7.16791372606777,52.75197807616063,IE,IE05,IE052,07028,Clogharinka,237,14.89469751,2011,IE_07028,official,TRUE
IE_07029,-7.2802432037344795,52.77735319703637,IE,IE05,IE052,07029,Kilmacar,446,23.35754343,2011,IE_07029,official,TRUE
IE_07030,-7.1596226608673685,52.83102844205307,IE,IE05,IE052,07030,Moneenroe,1322,32.46213478,2011,IE_07030,official,TRUE
IE_07031,-7.11577719707169,52.782061486458595,IE,IE05,IE052,07031,Mothell,472,26.12079123,2011,IE_07031,official,TRUE
IE_07032,-7.227704386747058,52.75833694435145,IE,IE05,IE052,07032,Muckalee,526,20.0531596,2011,IE_07032,official,TRUE
IE_07033,-7.0533427779153275,52.44502435987617,IE,IE05,IE052,07033,Brownsford,136,10.45326683,2011,IE_07033,official,TRUE
IE_07034,-7.015386975180409,52.41426067661872,IE,IE05,IE052,07034,Dysartmoon,266,10.88455338,2011,IE_07034,official,TRUE
IE_07035,-7.097315462610478,52.41507169569776,IE,IE05,IE052,07035,Jerpoint West,263,22.24905926,2011,IE_07035,official,TRUE
IE_07036,-7.065815806925517,52.41405139128023,IE,IE05,IE052,07036,Listerlin,378,15.98192523,2011,IE_07036,official,TRUE
IE_07037,-6.954601557745313,52.40073961135923,IE,IE05,IE052,07037,Rosbercon Rural,673,11.32963645,2011,IE_07037,official,TRUE
IE_07038,-6.996016322781666,52.38138618918835,IE,IE05,IE052,07038,Shanbogh,469,16.77986694,2011,IE_07038,official,TRUE
IE_07039,-6.965978787896389,52.44924334081722,IE,IE05,IE052,07039,The Rower,803,29.1961565,2011,IE_07039,official,TRUE
IE_07040,-7.376834533851708,52.66974355122522,IE,IE05,IE052,07040,Ballinamara,378,17.45090895,2011,IE_07040,official,TRUE
IE_07041,-7.4636307825471535,52.66747013482096,IE,IE05,IE052,07041,Ballybeagh,291,22.56289686,2011,IE_07041,official,TRUE
IE_07042,-7.370529517553433,52.63316774725518,IE,IE05,IE052,07042,Ballycallan,463,21.04759197,2011,IE_07042,official,TRUE
IE_07043,-7.172123422268936,52.65275058160342,IE,IE05,IE052,07043,Clara,589,21.37025404,2011,IE_07043,official,TRUE
IE_07044,-7.297580675113721,52.73657369214826,IE,IE05,IE052,07044,Coolcraheen,520,21.48674025,2011,IE_07044,official,TRUE
IE_07045,-7.162331136124761,52.62974681979585,IE,IE05,IE052,07045,Dunbell,537,23.44029858,2011,IE_07045,official,TRUE
IE_07046,-7.259744860180888,52.69024396457391,IE,IE05,IE052,07046,Dunmore,578,13.52586067,2011,IE_07046,official,TRUE
IE_07047,-7.399687981944684,52.7307544915626,IE,IE05,IE052,07047,Freshford,1038,21.67195281,2011,IE_07047,official,TRUE
IE_07048,-7.070599498165466,52.63233481453394,IE,IE05,IE052,07048,Gowran,1478,25.79470318,2011,IE_07048,official,TRUE
IE_07049,-7.288834565621624,52.61271648605946,IE,IE05,IE052,07049,Grange,844,19.18221209,2011,IE_07049,official,TRUE
IE_07050,-7.239441326459042,52.649894980997914,IE,IE05,IE052,07050,Kilkenny Rural,16593,40.24069499,2011,IE_07050,official,TRUE
IE_07051,-7.221554931134465,52.71758448981053,IE,IE05,IE052,07051,Kilkieran,702,23.18693672,2011,IE_07051,official,TRUE
IE_07052,-7.329461170895462,52.70973325068735,IE,IE05,IE052,07052,Odagh,469,18.01563429,2011,IE_07052,official,TRUE
IE_07053,-7.216498188754072,52.61038363399047,IE,IE05,IE052,07053,Outrath,732,17.41393982,2011,IE_07053,official,TRUE
IE_07054,-7.025140357536873,52.6738185133605,IE,IE05,IE052,07054,Paulstown,986,14.4766552,2011,IE_07054,official,TRUE
IE_07055,-7.164155014350454,52.70286952498143,IE,IE05,IE052,07055,Rathcoole,498,24.69622088,2011,IE_07055,official,TRUE
IE_07056,-7.415081554611871,52.69438922378344,IE,IE05,IE052,07056,Rathealy,214,13.15920046,2011,IE_07056,official,TRUE
IE_07057,-7.308424635165247,52.673957042283,IE,IE05,IE052,07057,St. Canice,582,20.9875609,2011,IE_07057,official,TRUE
IE_07058,-7.031172396671686,52.68361247187543,IE,IE05,IE052,07058,Shankill,766,26.9979697,2011,IE_07058,official,TRUE
IE_07059,-7.107865462831747,52.70205214337878,IE,IE05,IE052,07059,Tiscoffin,458,22.90563157,2011,IE_07059,official,TRUE
IE_07060,-7.432142045396564,52.66019664215157,IE,IE05,IE052,07060,Tullaroan,300,15.78399931,2011,IE_07060,official,TRUE
IE_07061,-7.261140676720643,52.45848456323103,IE,IE05,IE052,07061,Aghaviller,416,17.61082432,2011,IE_07061,official,TRUE
IE_07062,-7.203891410841649,52.46368977914262,IE,IE05,IE052,07062,Ballyhale,382,8.48299526,2011,IE_07062,official,TRUE
IE_07063,-7.084133247610621,52.48195136210376,IE,IE05,IE052,07063,Ballyvool,178,11.80891911,2011,IE_07063,official,TRUE
IE_07064,-7.172168025036681,52.58968861575335,IE,IE05,IE052,07064,Bennettsbridge,1053,19.06206832,2011,IE_07064,official,TRUE
IE_07065,-7.053902811502858,52.60170312963436,IE,IE05,IE052,07065,Bramblestown,259,13.20856828,2011,IE_07065,official,TRUE
IE_07066,-7.173476182539576,52.445155667191734,IE,IE05,IE052,07066,Castlebanny,130,13.82365187,2011,IE_07066,official,TRUE
IE_07067,-7.178345011114411,52.41870940924923,IE,IE05,IE052,07067,Castlegannon,128,12.17569601,2011,IE_07067,official,TRUE
IE_07068,-6.948673237971032,52.47800473639558,IE,IE05,IE052,07068,Coolhill,281,16.52315374,2011,IE_07068,official,TRUE
IE_07069,-7.213344819772333,52.585108508064394,IE,IE05,IE052,07069,Danesfort,481,15.07875807,2011,IE_07069,official,TRUE
IE_07070,-7.227315944244357,52.54345119291934,IE,IE05,IE052,07070,Ennisnag,546,11.54377204,2011,IE_07070,official,TRUE
IE_07071,-7.075286991369847,52.51069186543404,IE,IE05,IE052,07071,Famma,317,18.60124159,2011,IE_07071,official,TRUE
IE_07072,-6.980101251602537,52.520498125465615,IE,IE05,IE052,07072,Freaghana,251,22.82503445,2011,IE_07072,official,TRUE
IE_07073,-6.995592093709766,52.6323625396078,IE,IE05,IE052,07073,Goresbridge,593,10.8641454,2011,IE_07073,official,TRUE
IE_07074,-6.958791717999748,52.54167825822663,IE,IE05,IE052,07074,Graiguenamanagh,1782,32.06713077,2011,IE_07074,official,TRUE
IE_07075,-7.057839686876953,52.48395250793196,IE,IE05,IE052,07075,Inistioge,808,27.09126233,2011,IE_07075,official,TRUE
IE_07076,-7.143107934305387,52.519328417095466,IE,IE05,IE052,07076,Jerpoint Church,889,16.60768053,2011,IE_07076,official,TRUE
IE_07077,-7.101022338458638,52.55508692453211,IE,IE05,IE052,07077,Kilfane,263,15.7364293,2011,IE_07077,official,TRUE
IE_07078,-7.225291302322779,52.41841546356542,IE,IE05,IE052,07078,Kilkeasy,363,18.35868086,2011,IE_07078,official,TRUE
IE_07079,-7.18834496967651,52.46798100424519,IE,IE05,IE052,07079,Kiltorcan,160,9.92920051,2011,IE_07079,official,TRUE
IE_07080,-7.219633872619163,52.48448492054761,IE,IE05,IE052,07080,Knocktopher,530,15.72962278,2011,IE_07080,official,TRUE
IE_07081,-7.132748328285267,52.480383282179865,IE,IE05,IE052,07081,Pleberstown,189,14.77015529,2011,IE_07081,official,TRUE
IE_07082,-7.003480300086077,52.592116635523936,IE,IE05,IE052,07082,Powerstown,483,19.86101092,2011,IE_07082,official,TRUE
IE_07083,-7.227275911607091,52.53392147580426,IE,IE05,IE052,07083,Stonyford,582,16.001581,2011,IE_07083,official,TRUE
IE_07084,-7.136732801760871,52.530144099006385,IE,IE05,IE052,07084,Thomastown,2221,20.91439206,2011,IE_07084,official,TRUE
IE_07085,-7.104147643893084,52.575257208352845,IE,IE05,IE052,07085,Tullaherin,219,10.29896397,2011,IE_07085,official,TRUE
IE_07086,-6.946509109972301,52.576099860100655,IE,IE05,IE052,07086,Ullard,314,15.22177345,2011,IE_07086,official,TRUE
IE_07087,-7.1579497158515615,52.55252544872988,IE,IE05,IE052,07087,Woolengrange,307,12.18232675,2011,IE_07087,official,TRUE
IE_07088,-7.443315047374299,52.75302710927448,IE,IE05,IE052,07088,Balleen,454,24.4971645,2011,IE_07088,official,TRUE
IE_07089,-7.368582234471911,52.79595452688163,IE,IE05,IE052,07089,Ballyconra,257,14.93425502,2011,IE_07089,official,TRUE
IE_07090,-7.620824499683743,52.75715338126271,IE,IE05,IE052,07090,Baunmore,157,17.40456102,2011,IE_07090,official,TRUE
IE_07091,-7.491761028521404,52.7208727464287,IE,IE05,IE052,07091,Clomantagh,285,18.15087067,2011,IE_07091,official,TRUE
IE_07092,-7.583177381947228,52.793053139219545,IE,IE05,IE052,07092,Galmoy,312,26.35138228,2011,IE_07092,official,TRUE
IE_07093,-7.526055230984203,52.7786347319784,IE,IE05,IE052,07093,Glashare,333,20.98884691,2011,IE_07093,official,TRUE
IE_07094,-7.559855963144436,52.75026001706601,IE,IE05,IE052,07094,Johnstown,894,19.79972636,2011,IE_07094,official,TRUE
IE_07095,-7.414254380326848,52.77550383546195,IE,IE05,IE052,07095,Lisdowney,219,20.36451446,2011,IE_07095,official,TRUE
IE_07096,-7.371557668097265,52.7581046392575,IE,IE05,IE052,07096,Rathbeagh,261,13.00504625,2011,IE_07096,official,TRUE
IE_07097,-7.502376198039875,52.694257694490226,IE,IE05,IE052,07097,Tubbridbrittain,319,19.80517177,2011,IE_07097,official,TRUE
IE_07098,-7.580386488754314,52.72247698578081,IE,IE05,IE052,07098,Urlingford,1234,19.19756476,2011,IE_07098,official,TRUE
IE_07099,-7.1882467691606795,52.28509369875087,IE,IE05,IE052,07099,Aglish,902,16.47081358,2011,IE_07099,official,TRUE
IE_07100,-7.082803075987463,52.32428921753341,IE,IE05,IE052,07100,Ballincrea,318,17.00611435,2011,IE_07100,official,TRUE
IE_07101,-7.121381582835132,52.29333121314615,IE,IE05,IE052,07101,Dunkitt,1068,16.77773065,2011,IE_07101,official,TRUE
IE_07102,-7.153238340789102,52.36371574390591,IE,IE05,IE052,07102,Farnoge,296,13.95042849,2011,IE_07102,official,TRUE
IE_07103,-7.15527781007827,52.385918160052235,IE,IE05,IE052,07103,Kilbeacon,196,13.24477477,2011,IE_07103,official,TRUE
IE_07104,-7.0588710619823125,52.374129671176064,IE,IE05,IE052,07104,Kilbride,426,13.29441417,2011,IE_07104,official,TRUE
IE_07105,-7.034777808516791,52.31036589540168,IE,IE05,IE052,07105,Kilcolumb,585,19.22127035,2011,IE_07105,official,TRUE
IE_07106,-7.095350064518917,52.26646463309554,IE,IE05,IE052,07106,Kilculliheen,4918,8.78910559,2011,IE_07106,official,TRUE
IE_07107,-7.18170972722852,52.37085842524201,IE,IE05,IE052,07107,Killahy,708,19.26470991,2011,IE_07107,official,TRUE
IE_07108,-7.033881202323725,52.349871937787675,IE,IE05,IE052,07108,Kilmakevoge,430,13.40088247,2011,IE_07108,official,TRUE
IE_07109,-7.253988063101154,52.296009987695236,IE,IE05,IE052,07109,Pollrone,1426,17.27368036,2011,IE_07109,official,TRUE
IE_07110,-7.246930813254087,52.2862699920147,IE,IE05,IE052,07110,Portnascully,1140,17.27845596,2011,IE_07110,official,TRUE
IE_07111,-7.067193477414663,52.28040855606813,IE,IE05,IE052,07111,Rathpatrick,1147,18.6501784,2011,IE_07111,official,TRUE
IE_07112,-7.143210849043945,52.32547630057152,IE,IE05,IE052,07112,Rossinan,787,18.38664009,2011,IE_07112,official,TRUE
IE_07113,-7.183902180357432,52.319050202153676,IE,IE05,IE052,07113,Ullid,1040,15.0471878,2011,IE_07113,official,TRUE
IE_08001,-7.34832680964974,52.91653166273952,IE,IE06,IE063,08001,Abbeyleix,2842,40.66854119,2011,IE_08001,official,TRUE
IE_08002,-7.439778740188817,52.82389062678875,IE,IE06,IE063,08002,Aghmacart,358,18.88732934,2011,IE_08002,official,TRUE
IE_08003,-7.30497510145402,52.873883725279356,IE,IE06,IE063,08003,Ballinakill,814,19.81157283,2011,IE_08003,official,TRUE
IE_08004,-7.304387817082104,52.94767344674911,IE,IE06,IE063,08004,Ballyroan,993,22.33917263,2011,IE_08004,official,TRUE
IE_08005,-7.290517279102523,52.91011212630966,IE,IE06,IE063,08005,Blandsfort,313,20.53636301,2011,IE_08005,official,TRUE
IE_08006,-7.594199080323569,52.96747492981939,IE,IE06,IE063,08006,Caher,103,8.33931811,2011,IE_08006,official,TRUE
IE_08007,-7.501659173108083,52.97346973510418,IE,IE06,IE063,08007,Castletown,748,24.21594782,2011,IE_08007,official,TRUE
IE_08008,-7.424252530758447,52.92641419713964,IE,IE06,IE063,08008,Clash,364,15.14434896,2011,IE_08008,official,TRUE
IE_08009,-7.346497627157065,52.998335103354286,IE,IE06,IE063,08009,Clonkeen,699,26.24528681,2011,IE_08009,official,TRUE
IE_08010,-7.340656551988534,52.959550143580415,IE,IE06,IE063,08010,Colt,192,10.13226026,2011,IE_08010,official,TRUE
IE_08011,-7.480887728379012,52.898940312867985,IE,IE06,IE063,08011,Cuffsborough,291,19.75999636,2011,IE_08011,official,TRUE
IE_08012,-7.481425700938001,52.816123169484946,IE,IE06,IE063,08012,Cullahill,366,16.96729103,2011,IE_08012,official,TRUE
IE_08013,-7.259232733077806,52.97487817294101,IE,IE06,IE063,08013,Cullenagh,143,12.43470422,2011,IE_08013,official,TRUE
IE_08014,-7.588999812232897,52.86387387249677,IE,IE06,IE063,08014,Donaghmore,256,13.74936946,2011,IE_08014,official,TRUE
IE_08015,-7.476598524714903,52.96128185555652,IE,IE06,IE063,08015,Donore,484,23.16099185,2011,IE_08015,official,TRUE
IE_08016,-7.3889724354374335,52.86948737670739,IE,IE06,IE063,08016,Dunmore,238,10.41538873,2011,IE_08016,official,TRUE
IE_08017,-7.394916182780564,52.842415369728506,IE,IE06,IE063,08017,Durrow,1282,25.96552138,2011,IE_08017,official,TRUE
IE_08018,-7.234917217417484,52.89550732746152,IE,IE06,IE063,08018,Dysartgallen,265,20.80555701,2011,IE_08018,official,TRUE
IE_08019,-7.183302871453965,52.941091433539555,IE,IE06,IE063,08019,Fossy,150,16.54413875,2011,IE_08019,official,TRUE
IE_08020,-7.518548417302422,52.87806703524511,IE,IE06,IE063,08020,Grantstown,362,20.78415923,2011,IE_08020,official,TRUE
IE_08021,-7.58096648665426,52.90087801357645,IE,IE06,IE063,08021,Kilcoke,142,10.86280094,2011,IE_08021,official,TRUE
IE_08022,-7.535605386673224,52.920625390151365,IE,IE06,IE063,08022,Kildellig,257,17.13061494,2011,IE_08022,official,TRUE
IE_08023,-7.446602092608008,52.8800211302043,IE,IE06,IE063,08023,Killermogh,366,18.75269075,2011,IE_08023,official,TRUE
IE_08024,-7.509165998203547,52.833767208271624,IE,IE06,IE063,08024,Kilnaseer,308,16.62499293,2011,IE_08024,official,TRUE
IE_08025,-7.387601217518169,52.95931138709102,IE,IE06,IE063,08025,Raheen,434,19.93260493,2011,IE_08025,official,TRUE
IE_08026,-7.588354001328288,52.85346320125002,IE,IE06,IE063,08026,Rathdowney,1205,18.00364678,2011,IE_08026,official,TRUE
IE_08027,-7.206379915980035,52.96250528103806,IE,IE06,IE063,08027,Timahoe,581,25.77880135,2011,IE_08027,official,TRUE
IE_08028,-7.088729744393837,52.98194300487599,IE,IE06,IE063,08028,Ballyadams,416,17.47033283,2011,IE_08028,official,TRUE
IE_08029,-7.042560100385307,52.94560153942329,IE,IE06,IE063,08029,Ballylynan,1466,14.25953314,2011,IE_08029,official,TRUE
IE_08030,-6.99236483554559,52.96612863186662,IE,IE06,IE063,08030,Barrowhouse,449,13.00898495,2011,IE_08030,official,TRUE
IE_08031,-7.120195265740653,53.020630155077384,IE,IE06,IE063,08031,Curraclone,232,12.76819302,2011,IE_08031,official,TRUE
IE_08032,-6.963732445207581,52.90829632978069,IE,IE06,IE063,08032,Killabban,418,12.7065245,2011,IE_08032,official,TRUE
IE_08033,-7.123199770808398,52.951863985366536,IE,IE06,IE063,08033,Luggacurren,327,24.2607451,2011,IE_08033,official,TRUE
IE_08034,-7.130184578960197,53.05098664611552,IE,IE06,IE063,08034,Moyanna,353,16.7262721,2011,IE_08034,official,TRUE
IE_08035,-7.113146897724502,52.9127285551513,IE,IE06,IE063,08035,Rathaspick,272,15.31503813,2011,IE_08035,official,TRUE
IE_08036,-7.1447819098213206,53.01460293800896,IE,IE06,IE063,08036,Stradbally,1637,20.63763264,2011,IE_08036,official,TRUE
IE_08037,-6.990087705361764,52.936149173337384,IE,IE06,IE063,08037,Tankardstown,345,15.37702802,2011,IE_08037,official,TRUE
IE_08038,-7.173453997767985,52.987870555622564,IE,IE06,IE063,08038,Timogue,349,19.4264448,2011,IE_08038,official,TRUE
IE_08039,-7.0856043406054505,53.05308027126017,IE,IE06,IE063,08039,Vicarstown,194,12.47981877,2011,IE_08039,official,TRUE
IE_08040,-7.59901057205903,53.014743370460586,IE,IE06,IE063,08040,Arderin,234,23.94907659,2011,IE_08040,official,TRUE
IE_08041,-7.151892270174291,53.11918536444088,IE,IE06,IE063,08041,Ballybrittas,1126,15.68324304,2011,IE_08041,official,TRUE
IE_08042,-7.216404923605778,53.04663203903268,IE,IE06,IE063,08042,Ballycarroll,301,10.24557866,2011,IE_08042,official,TRUE
IE_08043,-7.4257971440301755,53.056014976465804,IE,IE06,IE063,08043,Ballyfin,623,35.18942563,2011,IE_08043,official,TRUE
IE_08044,-7.315398785462672,53.04971187794946,IE,IE06,IE063,08044,Borris,1538,17.53279614,2011,IE_08044,official,TRUE
IE_08045,-7.499765382335996,53.03257661574296,IE,IE06,IE063,08045,Brisha,317,16.16002424,2011,IE_08045,official,TRUE
IE_08046,-7.417147945510317,53.12352116948632,IE,IE06,IE063,08046,Capard,317,15.5426846,2011,IE_08046,official,TRUE
IE_08047,-7.395929107101614,53.19302631421644,IE,IE06,IE063,08047,Cappalough,350,16.40743161,2011,IE_08047,official,TRUE
IE_08048,-7.5822654481482585,53.03306216783142,IE,IE06,IE063,08048,Cardtown,175,25.2503862,2011,IE_08048,official,TRUE
IE_08049,-7.583607007523928,53.154377908303296,IE,IE06,IE063,08049,Castlecuffe,392,29.95212016,2011,IE_08049,official,TRUE
IE_08050,-7.520960883652243,53.14775796516727,IE,IE06,IE063,08050,Clonaslee,901,41.89394977,2011,IE_08050,official,TRUE
IE_08051,-7.326031057155308,53.03720873575882,IE,IE06,IE063,08051,Clondarrig,1538,15.19410751,2011,IE_08051,official,TRUE
IE_08052,-7.528792562681958,53.00548241329068,IE,IE06,IE063,08052,Clonin,239,13.28067987,2011,IE_08052,official,TRUE
IE_08053,-7.566289950376862,52.98674502684115,IE,IE06,IE063,08053,Coolrain,303,11.93036612,2011,IE_08053,official,TRUE
IE_08054,-7.31377397842175,53.120966202190495,IE,IE06,IE063,08054,Dangans,1565,12.38552254,2011,IE_08054,official,TRUE
IE_08055,-7.199786539932812,53.09593625761556,IE,IE06,IE063,08055,Emo,1295,37.40268773,2011,IE_08055,official,TRUE
IE_08056,-7.363016984511439,53.18596094159617,IE,IE06,IE063,08056,Garrymore,250,11.93734972,2011,IE_08056,official,TRUE
IE_08057,-7.338020667352442,53.13153387725974,IE,IE06,IE063,08057,Graigue,194,12.98910849,2011,IE_08057,official,TRUE
IE_08058,-7.130419256512175,53.12270154905995,IE,IE06,IE063,08058,Jamestown,450,14.1697505,2011,IE_08058,official,TRUE
IE_08059,-7.253475466569419,53.01265401299349,IE,IE06,IE063,08059,Kilcolmanbane,673,20.01660906,2011,IE_08059,official,TRUE
IE_08060,-7.122357256212199,53.15023938680267,IE,IE06,IE063,08060,Kilmullen,563,14.00338903,2011,IE_08060,official,TRUE
IE_08061,-7.171532461686563,53.05734606204303,IE,IE06,IE063,08061,Kilmurry,255,9.34532574,2011,IE_08061,official,TRUE
IE_08062,-7.543639226675045,53.03423299354736,IE,IE06,IE063,08062,Lacka,264,22.79789129,2011,IE_08062,official,TRUE
IE_08063,-7.618311057786892,52.992975734779094,IE,IE06,IE063,08063,Marymount,142,14.07537409,2011,IE_08063,official,TRUE
IE_08064,-7.420670108373696,53.13949044035912,IE,IE06,IE063,08064,Meelick,377,16.92498948,2011,IE_08064,official,TRUE
IE_08065,-7.320195457834852,53.10816687983376,IE,IE06,IE063,08065,Mountmellick Rural,999,15.75060243,2011,IE_08065,official,TRUE
IE_08066,-7.328115686668406,53.118470434745056,IE,IE06,IE063,08066,Mountmellick Urban,3012,2.27720597,2011,IE_08066,official,TRUE
IE_08067,-7.472000137969895,53.00064966748362,IE,IE06,IE063,08067,Mountrath,2298,23.78374083,2011,IE_08067,official,TRUE
IE_08068,-7.656949586480646,53.00435287072333,IE,IE06,IE063,08068,Nealstown,94,19.21496019,2011,IE_08068,official,TRUE
IE_08069,-7.369917060536596,53.08981496057492,IE,IE06,IE063,08069,O'Moresforest,469,20.36283786,2011,IE_08069,official,TRUE
IE_08070,-7.185492824734006,53.15298991684802,IE,IE06,IE063,08070,Portarlington South,6652,11.551912,2011,IE_08070,official,TRUE
IE_08071,-7.281286002130665,53.042469361390026,IE,IE06,IE063,08071,Portlaoighise Rural,14563,21.76695955,2011,IE_08071,official,TRUE
IE_08072,-7.297002163255281,53.03762471530488,IE,IE06,IE063,08072,Portlaoighise Urban,3698,2.04488677,2011,IE_08072,official,TRUE
IE_08073,-7.442087085476706,53.16734990740485,IE,IE06,IE063,08073,Rearymore,286,16.77000939,2011,IE_08073,official,TRUE
IE_08074,-7.404940097583192,53.120513270074305,IE,IE06,IE063,08074,Rosenallis,460,19.15945058,2011,IE_08074,official,TRUE
IE_08075,-7.096918002342503,53.09414609540591,IE,IE06,IE063,08075,Sallyford,581,19.69894061,2011,IE_08075,official,TRUE
IE_08076,-7.265128955721406,53.07269757112787,IE,IE06,IE063,08076,Shaen,904,23.58755306,2011,IE_08076,official,TRUE
IE_08077,-7.482390276967693,53.13931328321329,IE,IE06,IE063,08077,Tinnahinch,174,26.16090882,2011,IE_08077,official,TRUE
IE_08078,-7.42399697492461,52.99828293773045,IE,IE06,IE063,08078,Trumra,224,16.83064605,2011,IE_08078,official,TRUE
IE_08079,-7.612943433098882,52.906931428852666,IE,IE06,IE063,08079,Ballybrophy,200,10.08899301,2011,IE_08079,official,TRUE
IE_08080,-7.629675310679567,52.93635356725395,IE,IE06,IE063,08080,Borris-in-Ossory,818,20.83655542,2011,IE_08080,official,TRUE
IE_08081,-7.687270192896214,52.87432494677128,IE,IE06,IE063,08081,Clonmore,210,15.25316776,2011,IE_08081,official,TRUE
IE_08082,-7.681584070656046,52.8533648081274,IE,IE06,IE063,08082,Errill,412,17.869911,2011,IE_08082,official,TRUE
IE_08083,-7.698447691988129,52.963390259524985,IE,IE06,IE063,08083,Kyle,253,21.79456378,2011,IE_08083,official,TRUE
IE_08084,-7.651976917995845,52.81556230943869,IE,IE06,IE063,08084,Kyle South,283,24.95042125,2011,IE_08084,official,TRUE
IE_08085,-7.660774224155023,52.905392774722074,IE,IE06,IE063,08085,Moneenalassa,142,11.82760135,2011,IE_08085,official,TRUE
IE_08086,-7.6622308497509986,52.94366211465973,IE,IE06,IE063,08086,Moneymore,133,10.04695445,2011,IE_08086,official,TRUE
IE_08087,-7.608272300970303,52.85691414159931,IE,IE06,IE063,08087,Rathsaran,567,15.47036111,2011,IE_08087,official,TRUE
IE_08088,-7.048065770393179,52.84177344217943,IE,IE06,IE063,08088,Ardough,347,17.86283066,2011,IE_08088,official,TRUE
IE_08089,-7.022654978855588,52.89697809749666,IE,IE06,IE063,08089,Arless,420,16.01484327,2011,IE_08089,official,TRUE
IE_08090,-7.0056096472586304,52.85731135898835,IE,IE06,IE063,08090,Ballickmoyler,624,13.89646586,2011,IE_08090,official,TRUE
IE_08091,-7.0836282895380345,52.91129698753451,IE,IE06,IE063,08091,Ballylehane,170,6.67103393,2011,IE_08091,official,TRUE
IE_08092,-7.1337339915416695,52.87393386829002,IE,IE06,IE063,08092,Doonane,763,14.0388334,2011,IE_08092,official,TRUE
IE_08093,-7.0712772187496125,52.90162454928324,IE,IE06,IE063,08093,Farnans,180,12.43239967,2011,IE_08093,official,TRUE
IE_08094,-6.944840461145961,52.84068272501906,IE,IE06,IE063,08094,Graigue Rural,4607,17.187795,2011,IE_08094,official,TRUE
IE_08095,-7.114344444541377,52.84962754195284,IE,IE06,IE063,08095,Newtown,322,11.23596175,2011,IE_08095,official,TRUE
IE_08096,-6.9770269665585865,52.81778829000154,IE,IE06,IE063,08096,Rossmore,460,12.52580147,2011,IE_08096,official,TRUE
IE_08097,-6.962003927330227,52.880901538618936,IE,IE06,IE063,08097,Shrule,314,12.11573025,2011,IE_08097,official,TRUE
IE_08098,-7.068261120562572,52.859481275210356,IE,IE06,IE063,08098,Turra,383,15.88350476,2011,IE_08098,official,TRUE
IE_09001,-7.79998210587412,53.72361573257778,IE,IE06,IE063,09001,Longford No. 1 Urban,3239,1.75972149,2011,IE_09001,official,TRUE
IE_09002,-7.802196730215352,53.73223480742286,IE,IE06,IE063,09002,Longford No. 2 Urban,948,1.66179839,2011,IE_09002,official,TRUE
IE_09003,-7.644261377102304,53.60364451080029,IE,IE06,IE063,09003,Agharra,452,18.99212639,2011,IE_09003,official,TRUE
IE_09004,-7.765104200949088,53.56331437324739,IE,IE06,IE063,09004,Ballymahon,2356,32.74707102,2011,IE_09004,official,TRUE
IE_09005,-7.914212209497994,53.612133815584336,IE,IE06,IE063,09005,Cashel East,322,28.50847931,2011,IE_09005,official,TRUE
IE_09006,-7.943291410313907,53.582685413605304,IE,IE06,IE063,09006,Cashel West,577,63.69360749,2011,IE_09006,official,TRUE
IE_09007,-7.743238000883045,53.622922419879465,IE,IE06,IE063,09007,Doory,450,25.46333807,2011,IE_09007,official,TRUE
IE_09008,-7.715814691220661,53.54956560864253,IE,IE06,IE063,09008,Forgney,504,27.24293091,2011,IE_09008,official,TRUE
IE_09009,-7.627868201141681,53.624683266380636,IE,IE06,IE063,09009,Foxhall,521,18.7722182,2011,IE_09009,official,TRUE
IE_09010,-7.819721640533856,53.623955578506404,IE,IE06,IE063,09010,Kilcommock,967,31.69234254,2011,IE_09010,official,TRUE
IE_09011,-7.6950924483521295,53.62443146587164,IE,IE06,IE063,09011,Kilglass,717,34.00459541,2011,IE_09011,official,TRUE
IE_09012,-7.83111778137743,53.57580405169312,IE,IE06,IE063,09012,Ledwithstown,353,29.00458391,2011,IE_09012,official,TRUE
IE_09013,-7.443044318300181,53.767975457643075,IE,IE06,IE063,09013,Abbeylara,345,12.7370656,2011,IE_09013,official,TRUE
IE_09014,-7.652965940540932,53.7734330167726,IE,IE06,IE063,09014,Ballinalee,606,14.01575854,2011,IE_09014,official,TRUE
IE_09015,-7.592006708944244,53.678903504603575,IE,IE06,IE063,09015,Ballymuigh,257,12.65062124,2011,IE_09015,official,TRUE
IE_09016,-7.573855397824748,53.780928930642816,IE,IE06,IE063,09016,Bunlahy,186,10.91057231,2011,IE_09016,official,TRUE
IE_09017,-7.5992672765765805,53.87255666788905,IE,IE06,IE063,09017,Columbkille,593,23.68750406,2011,IE_09017,official,TRUE
IE_09018,-7.503580548701135,53.72771814547559,IE,IE06,IE063,09018,Coolamber,369,20.19399328,2011,IE_09018,official,TRUE
IE_09019,-7.488854192323177,53.811637719635854,IE,IE06,IE063,09019,Creevy,318,13.99719468,2011,IE_09019,official,TRUE
IE_09020,-7.57684296689642,53.70699989314127,IE,IE06,IE063,09020,Crosagstown,242,12.21875209,2011,IE_09020,official,TRUE
IE_09021,-7.65905893973105,53.7481680476897,IE,IE06,IE063,09021,Currygrane,133,9.69437595,2011,IE_09021,official,TRUE
IE_09022,-7.525379322131318,53.804978840833215,IE,IE06,IE063,09022,Dalystown,187,8.91754434,2011,IE_09022,official,TRUE
IE_09023,-7.612601562468098,53.74860268108159,IE,IE06,IE063,09023,Drummeel,140,8.40542319,2011,IE_09023,official,TRUE
IE_09024,-7.468102381716269,53.74882621875852,IE,IE06,IE063,09024,Firry,221,9.94324246,2011,IE_09024,official,TRUE
IE_09025,-7.612274301442616,53.80200565635398,IE,IE06,IE063,09025,Gelshagh,337,15.77853862,2011,IE_09025,official,TRUE
IE_09026,-7.506033659925819,53.76339964068519,IE,IE06,IE063,09026,Granard Rural,299,16.63273542,2011,IE_09026,official,TRUE
IE_09027,-7.492833960966126,53.77689244347682,IE,IE06,IE063,09027,Granard Urban,1042,8.11943391,2011,IE_09027,official,TRUE
IE_09028,-7.598784788401295,53.731467420676076,IE,IE06,IE063,09028,Knockanbaun,155,9.32653835,2011,IE_09028,official,TRUE
IE_09029,-7.656853792034418,53.802387308868575,IE,IE06,IE063,09029,Lislea,141,8.87705435,2011,IE_09029,official,TRUE
IE_09030,-7.614894198988635,53.697755548532875,IE,IE06,IE063,09030,Meathas Truim,2021,13.59160338,2011,IE_09030,official,TRUE
IE_09031,-7.55437627096727,53.754250430382974,IE,IE06,IE063,09031,Milltown,377,16.91289277,2011,IE_09031,official,TRUE
IE_09032,-7.6597743529547415,53.720293085329004,IE,IE06,IE063,09032,Moatfarrell,221,8.95580925,2011,IE_09032,official,TRUE
IE_09033,-7.60730584767927,53.918555217087466,IE,IE06,IE063,09033,Moyne,328,17.99103845,2011,IE_09033,official,TRUE
IE_09034,-7.511921750341542,53.83584757792562,IE,IE06,IE063,09034,Mullanalaghta,309,22.94544939,2011,IE_09034,official,TRUE
IE_09035,-7.410558978907125,53.751627683134686,IE,IE06,IE063,09035,Newgrove,221,12.64236804,2011,IE_09035,official,TRUE
IE_09036,-7.597297161430963,53.837391023309,IE,IE06,IE063,09036,Sonnagh,289,16.53796938,2011,IE_09036,official,TRUE
IE_09037,-7.7032946126166895,53.78301841619484,IE,IE06,IE063,09037,Aghaboy,674,14.9655301,2011,IE_09037,official,TRUE
IE_09038,-7.672485098668339,53.66670674325673,IE,IE06,IE063,09038,Ardagh East,620,30.36578133,2011,IE_09038,official,TRUE
IE_09039,-7.740538101071891,53.67905605231295,IE,IE06,IE063,09039,Ardagh West,468,19.85381897,2011,IE_09039,official,TRUE
IE_09040,-7.6288078105932335,53.85045353125916,IE,IE06,IE063,09040,Ballinamuck East,561,20.27430751,2011,IE_09040,official,TRUE
IE_09041,-7.720108271929618,53.85889848262314,IE,IE06,IE063,09041,Ballinamuck West,502,23.49703571,2011,IE_09041,official,TRUE
IE_09042,-7.791963150932442,53.799103478706925,IE,IE06,IE063,09042,Breanrisk,825,20.222169,2011,IE_09042,official,TRUE
IE_09043,-7.803620602447632,53.75374024380852,IE,IE06,IE063,09043,Caldragh,2093,21.10090672,2011,IE_09043,official,TRUE
IE_09044,-7.899707132330004,53.73492598759405,IE,IE06,IE063,09044,Cloondara,636,27.74251725,2011,IE_09044,official,TRUE
IE_09045,-7.733847116660792,53.75375725025224,IE,IE06,IE063,09045,Cloonee,727,23.13055498,2011,IE_09045,official,TRUE
IE_09046,-7.699100694585155,53.71410511851921,IE,IE06,IE063,09046,Corboy,396,20.84274605,2011,IE_09046,official,TRUE
IE_09047,-7.655968925064979,53.89210982358024,IE,IE06,IE063,09047,Drumgort,434,19.53547368,2011,IE_09047,official,TRUE
IE_09048,-7.763608328616464,53.8193373819216,IE,IE06,IE063,09048,Drumlish,1406,20.12821592,2011,IE_09048,official,TRUE
IE_09049,-7.877056808494909,53.6818356263741,IE,IE06,IE063,09049,Killashee,441,21.79837368,2011,IE_09049,official,TRUE
IE_09050,-7.706146588734151,53.82728383355266,IE,IE06,IE063,09050,Killoe,302,15.36207215,2011,IE_09050,official,TRUE
IE_09051,-7.786081066329141,53.724634656598546,IE,IE06,IE063,09051,Longford Rural,5535,26.45860458,2011,IE_09051,official,TRUE
IE_09052,-7.92028762025887,53.65758788943803,IE,IE06,IE063,09052,Mountdavis,253,29.99329336,2011,IE_09052,official,TRUE
IE_09053,-7.811799244183463,53.68211803600937,IE,IE06,IE063,09053,Moydow,689,28.45657662,2011,IE_09053,official,TRUE
IE_09054,-7.835138021142661,53.77258840567626,IE,IE06,IE063,09054,Newtown Forbes,925,28.86024199,2011,IE_09054,official,TRUE
IE_09055,-7.981134305452815,53.66743199747521,IE,IE06,IE063,09055,Rathcline,1433,39.65158851,2011,IE_09055,official,TRUE
IE_10001,-6.346863124884372,53.72011146186744,IE,IE06,IE062,10001,Fair Gate,9707,2.65794698,2011,IE_10001,official,TRUE
IE_10002,-6.34224378222469,53.70922720380723,IE,IE06,IE062,10002,St. Lawrence Gate,4044,1.65332167,2011,IE_10002,official,TRUE
IE_10003,-6.3600048301701,53.71449541258782,IE,IE06,IE062,10003,West Gate,6074,2.14071526,2011,IE_10003,official,TRUE
IE_10004,-6.409814485460767,54.00517404938636,IE,IE06,IE062,10004,Dundalk No. 1 Urban,2168,0.85466683,2011,IE_10004,official,TRUE
IE_10005,-6.398347156960519,54.01215702375833,IE,IE06,IE062,10005,Dundalk No. 2 Urban,1171,1.89760069,2011,IE_10005,official,TRUE
IE_10006,-6.407396316441544,53.99757310074676,IE,IE06,IE062,10006,Dundalk No. 3 Urban,1379,1.25248186,2011,IE_10006,official,TRUE
IE_10007,-6.389546099421648,54.00087585446065,IE,IE06,IE062,10007,Dundalk No. 4 Urban,6123,2.49622808,2011,IE_10007,official,TRUE
IE_10008,-6.5528634278933335,53.845284316570954,IE,IE06,IE062,10008,Ardee Rural,2917,62.85950898,2011,IE_10008,official,TRUE
IE_10009,-6.537767568716861,53.85365616968452,IE,IE06,IE062,10009,Ardee Urban,4634,4.75247193,2011,IE_10009,official,TRUE
IE_10010,-6.385728584094494,53.89349990101174,IE,IE06,IE062,10010,Castlebellingham,1640,18.980983,2011,IE_10010,official,TRUE
IE_10011,-6.620383152978838,53.89290185100768,IE,IE06,IE062,10011,Clonkeen,659,22.2746683,2011,IE_10011,official,TRUE
IE_10012,-6.485453091361531,53.781674433876,IE,IE06,IE062,10012,Collon,1803,28.09882016,2011,IE_10012,official,TRUE
IE_10013,-6.44040212102485,53.84008480338425,IE,IE06,IE062,10013,Dromin,619,15.50415553,2011,IE_10013,official,TRUE
IE_10014,-6.4021816166738885,53.926000893099186,IE,IE06,IE062,10014,Dromiskin,2197,21.65090513,2011,IE_10014,official,TRUE
IE_10015,-6.350069483787985,53.86132639207014,IE,IE06,IE062,10015,Drumcar,1530,27.43886447,2011,IE_10015,official,TRUE
IE_10016,-6.4012803998905214,53.829592179974135,IE,IE06,IE062,10016,Dunleer,2832,25.07835107,2011,IE_10016,official,TRUE
IE_10017,-6.447289419334665,53.869242869225594,IE,IE06,IE062,10017,Stabannan,632,22.2231659,2011,IE_10017,official,TRUE
IE_10018,-6.554037442965843,53.919329536340896,IE,IE06,IE062,10018,Tallanstown,1068,23.18161188,2011,IE_10018,official,TRUE
IE_10019,-6.361233385657833,54.03958097642339,IE,IE06,IE062,10019,Ballymascanlan,2213,24.89970481,2011,IE_10019,official,TRUE
IE_10020,-6.506367480698464,54.01906149671891,IE,IE06,IE062,10020,Barronstown,752,17.6538269,2011,IE_10020,official,TRUE
IE_10021,-6.186092512455676,54.03555391824745,IE,IE06,IE062,10021,Carlingford,1761,16.6997782,2011,IE_10021,official,TRUE
IE_10022,-6.494775636852884,53.97562372515345,IE,IE06,IE062,10022,Castlering,1039,18.10132529,2011,IE_10022,official,TRUE
IE_10023,-6.432056260217273,54.01611566144812,IE,IE06,IE062,10023,Castletown,4242,21.23870874,2011,IE_10023,official,TRUE
IE_10024,-6.552507029839077,54.04218179037776,IE,IE06,IE062,10024,Creggan Upper,809,18.91404983,2011,IE_10024,official,TRUE
IE_10025,-6.471482096355955,53.932106176168084,IE,IE06,IE062,10025,Darver,579,21.29611961,2011,IE_10025,official,TRUE
IE_10026,-6.266657294542585,54.08733209250474,IE,IE06,IE062,10026,Drummullagh,1254,24.30991984,2011,IE_10026,official,TRUE
IE_10027,-6.394510783244934,53.99539317675012,IE,IE06,IE062,10027,Dundalk Rural,18125,22.13739516,2011,IE_10027,official,TRUE
IE_10028,-6.438509092023685,54.04705792848349,IE,IE06,IE062,10028,Faughart,995,18.44655956,2011,IE_10028,official,TRUE
IE_10029,-6.144001073161909,54.0045128386974,IE,IE06,IE062,10029,Greenore,1173,14.96593727,2011,IE_10029,official,TRUE
IE_10030,-6.378509470947964,53.96247577984823,IE,IE06,IE062,10030,Haggardstown,6497,21.28737886,2011,IE_10030,official,TRUE
IE_10031,-6.269766307355237,54.006423462821665,IE,IE06,IE062,10031,Jenkinstown,1185,22.35934992,2011,IE_10031,official,TRUE
IE_10032,-6.6221319543885295,53.95399024635454,IE,IE06,IE062,10032,Killanny,816,20.75854636,2011,IE_10032,official,TRUE
IE_10033,-6.541368228537381,53.94876654385283,IE,IE06,IE062,10033,Louth,1532,22.15509455,2011,IE_10033,official,TRUE
IE_10034,-6.528877990445339,53.917010384039095,IE,IE06,IE062,10034,Mansfieldstown,811,16.50535186,2011,IE_10034,official,TRUE
IE_10035,-6.208930972531989,54.00277852302594,IE,IE06,IE062,10035,Rathcor,1362,25.78264191,2011,IE_10035,official,TRUE
IE_10036,-6.335113630268918,54.05638334212635,IE,IE06,IE062,10036,Ravensdale,1005,25.53473559,2011,IE_10036,official,TRUE
IE_10037,-6.249157962395055,53.792973314571256,IE,IE06,IE062,10037,Clogher,3074,25.46152736,2011,IE_10037,official,TRUE
IE_10038,-6.318330667319837,53.830969490496514,IE,IE06,IE062,10038,Dysart,925,24.21728018,2011,IE_10038,official,TRUE
IE_10039,-6.4236148027022955,53.756267787247204,IE,IE06,IE062,10039,Monasterboice,1360,23.61204851,2011,IE_10039,official,TRUE
IE_10040,-6.406633218187731,53.78913547205422,IE,IE06,IE062,10040,Mullary,1766,24.23600284,2011,IE_10040,official,TRUE
IE_10041,-6.3496893076073535,53.72811857291029,IE,IE06,IE062,10041,St. Peter's,9217,38.93042608,2011,IE_10041,official,TRUE
IE_10042,-6.270551110525302,53.76447220016357,IE,IE06,IE062,10042,Termonfeckin,3333,29.004365,2011,IE_10042,official,TRUE
IE_10047,-6.370514514476262,53.70857796869818,IE,IE06,IE062,10047,St. Mary's (Part),6551,2.88332673,2011,IE_10047,official,TRUE
IE_11001,-6.878063438159847,53.72694753147182,IE,IE06,IE062,11001,Ceanannas Mr Urban,2022,1.0788296,2011,IE_11001,official,TRUE
IE_11002,-6.68219273481383,53.65280905810371,IE,IE06,IE062,11002,Navan Urban,3232,1.77519861,2011,IE_11002,official,TRUE
IE_11003,-6.7926551288248005,53.55496675318042,IE,IE06,IE062,11003,Trim Urban,1243,0.63880019,2011,IE_11003,official,TRUE
IE_11004,-6.66125887342772,53.852898157416675,IE,IE06,IE062,11004,Drumcondra,1311,46.43466056,2011,IE_11004,official,TRUE
IE_11005,-6.540162393371991,53.75600451999253,IE,IE06,IE062,11005,Grangegeeth,600,26.3302792,2011,IE_11005,official,TRUE
IE_11006,-6.6299236456508615,53.793846618215035,IE,IE06,IE062,11006,Killary,1247,49.97670891,2011,IE_11006,official,TRUE
IE_11007,-6.578802243373434,53.4507295815746,IE,IE06,IE062,11007,Culmullin,1059,36.63805207,2011,IE_11007,official,TRUE
IE_11008,-6.399427986111712,53.510615863026096,IE,IE06,IE062,11008,Donaghmore,11112,35.23454177,2011,IE_11008,official,TRUE
IE_11009,-6.470557834830759,53.416752929677855,IE,IE06,IE062,11009,Dunboyne,9681,57.21660005,2011,IE_11009,official,TRUE
IE_11010,-6.541606463544048,53.51284781626643,IE,IE06,IE062,11010,Dunshaughlin,5721,43.16025861,2011,IE_11010,official,TRUE
IE_11011,-6.41405829183512,53.517964686782,IE,IE06,IE062,11011,Kilbrew,3059,33.32611447,2011,IE_11011,official,TRUE
IE_11012,-6.602169675234525,53.53251131373151,IE,IE06,IE062,11012,Killeen,1126,29.20334872,2011,IE_11012,official,TRUE
IE_11013,-6.659529175861824,53.555452625312974,IE,IE06,IE062,11013,Kilmessan,1403,25.56067654,2011,IE_11013,official,TRUE
IE_11014,-6.643992755560329,53.453458784475195,IE,IE06,IE062,11014,Kilmore,1536,37.6704772,2011,IE_11014,official,TRUE
IE_11015,-6.45769969522844,53.59125500346146,IE,IE06,IE062,11015,Rathfeigh,1005,28.42788331,2011,IE_11015,official,TRUE
IE_11016,-6.462918636798211,53.50533001746465,IE,IE06,IE062,11016,Ratoath,10683,37.88613408,2011,IE_11016,official,TRUE
IE_11017,-6.6513038778470435,53.40277859044305,IE,IE06,IE062,11017,Rodanstown,1048,29.64597268,2011,IE_11017,official,TRUE
IE_11018,-6.544665436711267,53.57684033036134,IE,IE06,IE062,11018,Skreen,1470,38.2615712,2011,IE_11018,official,TRUE
IE_11019,-6.747382762982233,53.89500627720535,IE,IE06,IE062,11019,Ardagh,700,22.91130989,2011,IE_11019,official,TRUE
IE_11020,-7.033501773394548,53.74152760795054,IE,IE06,IE062,11020,Ballinlough,224,10.64495578,2011,IE_11020,official,TRUE
IE_11021,-6.852992293614039,53.684698107904026,IE,IE06,IE062,11021,Balrathboyne,514,15.5600813,2011,IE_11021,official,TRUE
IE_11022,-6.9465988771670455,53.72603189920792,IE,IE06,IE062,11022,Boherboy,303,10.93316567,2011,IE_11022,official,TRUE
IE_11023,-6.9214733371844055,53.697738601899324,IE,IE06,IE062,11023,Burry,271,14.92721433,2011,IE_11023,official,TRUE
IE_11024,-6.784414078295535,53.875099656910166,IE,IE06,IE062,11024,Carrickleck,478,18.06071145,2011,IE_11024,official,TRUE
IE_11025,-6.977309117898301,53.74936848740427,IE,IE06,IE062,11025,Castlekeeran,477,16.14634689,2011,IE_11025,official,TRUE
IE_11026,-6.877599891336526,53.72621623135342,IE,IE06,IE062,11026,Ceanannas Mr Rural,4547,20.20249927,2011,IE_11026,official,TRUE
IE_11027,-6.796564250267394,53.805488223660824,IE,IE06,IE062,11027,Cruicetown,380,20.72879234,2011,IE_11027,official,TRUE
IE_11028,-6.913727260976681,53.6661302978411,IE,IE06,IE062,11028,Girley,377,20.47527295,2011,IE_11028,official,TRUE
IE_11029,-6.803937840341771,53.84818971620298,IE,IE06,IE062,11029,Kilmainham,768,25.06225427,2011,IE_11029,official,TRUE
IE_11030,-6.988933785134373,53.691551984823555,IE,IE06,IE062,11030,Kilskeer,391,15.65713601,2011,IE_11030,official,TRUE
IE_11031,-6.950584826750269,53.7570501429065,IE,IE06,IE062,11031,Loughan,410,16.15375609,2011,IE_11031,official,TRUE
IE_11032,-6.849971020816741,53.75847001688675,IE,IE06,IE062,11032,Maperath,494,13.74566053,2011,IE_11032,official,TRUE
IE_11033,-6.80446163952733,53.67879438867243,IE,IE06,IE062,11033,Martry,669,16.74094684,2011,IE_11033,official,TRUE
IE_11034,-6.877790577594657,53.85086182537475,IE,IE06,IE062,11034,Moybolgue,247,11.20719278,2011,IE_11034,official,TRUE
IE_11035,-6.894709930736633,53.78956671245085,IE,IE06,IE062,11035,Moynalty,620,21.98979,2011,IE_11035,official,TRUE
IE_11036,-6.902480389457799,53.825790158796124,IE,IE06,IE062,11036,Newcastle,411,17.74795311,2011,IE_11036,official,TRUE
IE_11037,-6.84358852532829,53.76072042421245,IE,IE06,IE062,11037,Newtown,901,13.68412582,2011,IE_11037,official,TRUE
IE_11038,-6.745365915347642,53.820336635791726,IE,IE06,IE062,11038,Nobber,750,22.23330171,2011,IE_11038,official,TRUE
IE_11039,-6.712313472252561,53.83850894083514,IE,IE06,IE062,11039,Posseckstown,203,13.52511621,2011,IE_11039,official,TRUE
