gisco_id,longitude,latitude,country,nuts_2,nuts_3,lau_id,lau_name,population,area_km2,year,fid,concordance,pop_weighted
SE_0114,17.91646735045904,59.51787268142314,SE,SE11,SE110,0114,Upplands Väsby,44605,83.96948148,2018,SE_0114,official,TRUE
SE_0115,18.078200403613383,59.53198682413062,SE,SE11,SE110,0115,Vallentuna,33175,370.81626009,2018,SE_0115,official,TRUE
SE_0117,18.31153144653056,59.48041206687708,SE,SE11,SE110,0117,Österåker,44130,318.60541391,2018,SE_0117,official,TRUE
SE_0120,18.41754770722721,59.31941465678918,SE,SE11,SE110,0120,Värmdö,43444,427.40934579,2018,SE_0120,official,TRUE
SE_0123,17.829553543632837,59.42225170544832,SE,SE11,SE110,0123,Järfälla,76453,63.38871306,2018,SE_0123,official,TRUE
SE_0125,17.783955466202702,59.29290533048792,SE,SE11,SE110,0125,Ekerö,27753,385.29319663,2018,SE_0125,official,TRUE
SE_0126,18.005784235537448,59.23698576617873,SE,SE11,SE110,0126,Huddinge,110003,140.41155876,2018,SE_0126,official,TRUE
SE_0127,17.842708620867903,59.22775008312121,SE,SE11,SE110,0127,Botkyrka,91925,210.32031223,2018,SE_0127,official,TRUE
SE_0128,17.76428195790048,59.19948630620237,SE,SE11,SE110,0128,Salem,16665,72.03588202,2018,SE_0128,official,TRUE
SE_0136,18.145976373501746,59.16000704681313,SE,SE11,SE110,0136,Haninge,88037,449.17218429,2018,SE_0136,official,TRUE
SE_0138,18.229059151504913,59.2352267454204,SE,SE11,SE110,0138,Tyresö,47304,72.62276258,2018,SE_0138,official,TRUE
SE_0139,17.699217419663725,59.501370680386465,SE,SE11,SE110,0139,Upplands-Bro,27614,326.45649667,2018,SE_0139,official,TRUE
SE_0140,17.429857462781385,59.175992604868924,SE,SE11,SE110,0140,Nykvarn,10660,177.48384787,2018,SE_0140,official,TRUE
SE_0160,18.074007804130176,59.452532044998726,SE,SE11,SE110,0160,Täby,70405,66.68733981,2018,SE_0160,official,TRUE
SE_0162,18.045455950068895,59.40409274013412,SE,SE11,SE110,0162,Danderyd,32888,26.70320616,2018,SE_0162,official,TRUE
SE_0163,17.94740426796917,59.43690448627155,SE,SE11,SE110,0163,Sollentuna,71848,57.94700441,2018,SE_0163,official,TRUE
SE_0180,18.02865451966869,59.32355219080319,SE,SE11,SE110,0180,Stockholm,949761,209.97542233,2018,SE_0180,official,TRUE
SE_0181,17.612542498884842,59.190368868571845,SE,SE11,SE110,0181,Södertälje,96032,609.47622101,2018,SE_0181,official,TRUE
SE_0182,18.208914185703133,59.30283430493926,SE,SE11,SE110,0182,Nacka,101231,100.30529172,2018,SE_0182,official,TRUE
SE_0183,17.964404467204265,59.3685289547355,SE,SE11,SE110,0183,Sundbyberg,49424,7.64294359,2018,SE_0183,official,TRUE
SE_0184,17.99865632224267,59.360170495436165,SE,SE11,SE110,0184,Solna,79707,20.97233164,2018,SE_0184,official,TRUE
SE_0186,18.160121482408627,59.358260072527955,SE,SE11,SE110,0186,Lidingö,47185,31.79891321,2018,SE_0186,official,TRUE
SE_0187,18.3238944855093,59.41428461035675,SE,SE11,SE110,0187,Vaxholm,11831,58.39530328,2018,SE_0187,official,TRUE
SE_0188,18.655757962718624,59.77873705407243,SE,SE11,SE110,0188,Norrtälje,60808,2093.44835162,2018,SE_0188,official,TRUE
SE_0191,17.82610733024268,59.62091208930439,SE,SE11,SE110,0191,Sigtuna,47146,350.40436687,2018,SE_0191,official,TRUE
SE_0192,17.930778106470274,58.923482723349885,SE,SE11,SE110,0192,Nynäshamn,28109,359.79926638,2018,SE_0192,official,TRUE
SE_0305,17.521337379412905,59.57544950595033,SE,SE12,SE121,0305,Håbo,21083,190.09494601,2018,SE_0305,official,TRUE
SE_0319,17.42025234452357,60.61705562081864,SE,SE12,SE121,0319,Älvkarleby,9402,231.8324487,2018,SE_0319,official,TRUE
SE_0330,17.786334102907865,59.73684090856607,SE,SE12,SE121,0330,Knivsta,18064,297.68231717,2018,SE_0330,official,TRUE
SE_0331,17.00449696463685,60.04102416584118,SE,SE12,SE121,0331,Heby,13854,1231.38455367,2018,SE_0331,official,TRUE
SE_0360,17.5172619242572,60.342459839424485,SE,SE12,SE121,0360,Tierp,20930,1605.30899163,2018,SE_0360,official,TRUE
SE_0380,17.63841323779172,59.86006078230883,SE,SE12,SE121,0380,Uppsala,219914,2248.04811372,2018,SE_0380,official,TRUE
SE_0381,17.082932926539993,59.64025261553339,SE,SE12,SE121,0381,Enköping,43797,1329.47695291,2018,SE_0381,official,TRUE
SE_0382,18.207544571093894,60.20227670408235,SE,SE12,SE121,0382,Östhammar,21927,1488.49864175,2018,SE_0382,official,TRUE
SE_0428,15.877044777130335,59.04034920929511,SE,SE12,SE122,0428,Vingåker,9180,443.22564351,2018,SE_0428,official,TRUE
SE_0461,17.294011470797304,59.04815614233007,SE,SE12,SE122,0461,Gnesta,11019,539.83297581,2018,SE_0461,official,TRUE
SE_0480,17.009694748404538,58.75642536568248,SE,SE12,SE122,0480,Nyköping,55467,1553.08623172,2018,SE_0480,official,TRUE
SE_0481,17.090720108518312,58.67438144162755,SE,SE12,SE122,0481,Oxelösund,12008,32.85342394,2018,SE_0481,official,TRUE
SE_0482,16.610115271240588,59.07273008661785,SE,SE12,SE122,0482,Flen,16864,830.67086969,2018,SE_0482,official,TRUE
SE_0483,16.210352831695868,58.99357854018335,SE,SE12,SE122,0483,Katrineholm,34133,1196.02031974,2018,SE_0483,official,TRUE
SE_0484,16.508046583051303,59.37038235913969,SE,SE12,SE122,0484,Eskilstuna,104709,1258.92655311,2018,SE_0484,official,TRUE
SE_0486,17.051708398999402,59.35538727262402,SE,SE12,SE122,0486,Strängnäs,35045,982.37272328,2018,SE_0486,official,TRUE
SE_0488,17.530880532198463,58.915908555766336,SE,SE12,SE122,0488,Trosa,12916,212.66017167,2018,SE_0488,official,TRUE
SE_0509,14.655881973490455,58.232134330336926,SE,SE12,SE123,0509,Ödeshög,5343,672.91389204,2018,SE_0509,official,TRUE
SE_0512,15.219589448854267,57.85255681367997,SE,SE12,SE123,0512,Ydre,3733,782.03894909,2018,SE_0512,official,TRUE
SE_0513,15.656024854458591,58.02007940672026,SE,SE12,SE123,0513,Kinda,9882,1308.66397744,2018,SE_0513,official,TRUE
SE_0560,15.056045890647951,58.200196688078286,SE,SE12,SE123,0560,Boxholm,5453,607.6141475,2018,SE_0560,official,TRUE
SE_0561,15.9916558002674,58.211143803157675,SE,SE12,SE123,0561,Åtvidaberg,11631,786.02857543,2018,SE_0561,official,TRUE
SE_0562,15.780560524517243,58.71039612751918,SE,SE12,SE123,0562,Finspång,21577,1221.47344979,2018,SE_0562,official,TRUE
SE_0563,16.56992866261328,58.22615558644812,SE,SE12,SE123,0563,Valdemarsvik,7920,769.49023153,2018,SE_0563,official,TRUE
SE_0580,15.61660336188943,58.405128282395054,SE,SE12,SE123,0580,Linköping,158520,1578.17043711,2018,SE_0580,official,TRUE
SE_0581,16.183479470097613,58.58752154171016,SE,SE12,SE123,0581,Norrköping,140927,1603.96950721,2018,SE_0581,official,TRUE
SE_0582,16.316193416015476,58.47568849598413,SE,SE12,SE123,0582,Söderköping,14521,681.52610984,2018,SE_0582,official,TRUE
SE_0583,15.046573295838762,58.543150137447455,SE,SE12,SE123,0583,Motala,43549,1275.00991206,2018,SE_0583,official,TRUE
SE_0584,14.898521679288551,58.445877113924404,SE,SE12,SE123,0584,Vadstena,7421,414.16261929,2018,SE_0584,official,TRUE
SE_0586,15.136959965126191,58.333224874471625,SE,SE12,SE123,0586,Mjölby,27019,558.84853476,2018,SE_0586,official,TRUE
SE_0604,14.817306637791667,57.84142575184763,SE,SE21,SE211,0604,Aneby,6776,556.84804175,2018,SE_0604,official,TRUE
SE_0617,13.759413858666077,57.347708472870394,SE,SE21,SE211,0617,Gnosjö,9733,451.96298401,2018,SE_0617,official,TRUE
SE_0642,13.875923361135625,57.922002304722874,SE,SE21,SE211,0642,Mullsjö,7328,212.08550125,2018,SE_0642,official,TRUE
SE_0643,14.079069672917157,57.91019966767374,SE,SE21,SE211,0643,Habo,11845,462.13839964,2018,SE_0643,official,TRUE
SE_0662,13.532744773669373,57.27084339821025,SE,SE21,SE211,0662,Gislaved,29629,1223.83417028,2018,SE_0662,official,TRUE
SE_0665,14.12559368315595,57.47248467232022,SE,SE21,SE211,0665,Vaggeryd,13840,860.06287238,2018,SE_0665,official,TRUE
SE_0680,14.188877198506017,57.7786800942923,SE,SE21,SE211,0680,Jönköping,137481,1937.39461151,2018,SE_0680,official,TRUE
SE_0682,14.690527594261658,57.65181731278134,SE,SE21,SE211,0682,Nässjö,31178,994.23699458,2018,SE_0682,official,TRUE
SE_0683,14.041500266799812,57.17749394265931,SE,SE21,SE211,0683,Värnamo,34206,1390.10666645,2018,SE_0683,official,TRUE
SE_0684,14.642201931823761,57.38605496672546,SE,SE21,SE211,0684,Sävsjö,11496,733.24538576,2018,SE_0684,official,TRUE
SE_0685,15.075823909649413,57.42223673085128,SE,SE21,SE211,0685,Vetlanda,27415,1606.84738543,2018,SE_0685,official,TRUE
SE_0686,15.003598443850946,57.662565365271874,SE,SE21,SE211,0686,Eksjö,17416,877.46272657,2018,SE_0686,official,TRUE
SE_0687,14.975212877920542,58.034994419089315,SE,SE21,SE211,0687,Tranås,18894,440.41346084,2018,SE_0687,official,TRUE
SE_0760,15.3460048954988,57.10717433524689,SE,SE21,SE212,0760,Uppvidinge,9561,1233.4985084100001,2018,SE_0760,official,TRUE
SE_0761,15.235299049566827,56.76878706757383,SE,SE21,SE212,0761,Lessebo,8806,458.09389551,2018,SE_0761,official,TRUE
SE_0763,14.933582549936109,56.5311453324383,SE,SE21,SE212,0763,Tingsryd,12451,1212.48875157,2018,SE_0763,official,TRUE
SE_0764,14.54983897515515,56.90045493265912,SE,SE21,SE212,0764,Alvesta,20026,1080.36369809,2018,SE_0764,official,TRUE
SE_0765,14.141041630115048,56.55664109139567,SE,SE21,SE212,0765,Älmhult,17148,981.02453482,2018,SE_0765,official,TRUE
SE_0767,13.646626573687607,56.49495032101006,SE,SE21,SE212,0767,Markaryd,10170,535.83852594,2018,SE_0767,official,TRUE
SE_0780,14.806743706778109,56.88813627389347,SE,SE21,SE212,0780,Växjö,91060,1923.03882979,2018,SE_0780,official,TRUE
SE_0781,13.940656060316483,56.83529719263336,SE,SE21,SE212,0781,Ljungby,28297,2002.33409563,2018,SE_0781,official,TRUE
SE_0821,16.021862999048363,57.166726054473614,SE,SE21,SE213,0821,Högsby,6087,803.97858976,2018,SE_0821,official,TRUE
SE_0834,16.025949905110057,56.41493230116511,SE,SE21,SE213,0834,Torsås,7083,471.70950976,2018,SE_0834,official,TRUE
SE_0840,16.47356101711077,56.630124558734444,SE,SE21,SE213,0840,Mörbylånga,15000,669.45892385,2018,SE_0840,official,TRUE
SE_0860,15.80910600189661,57.45947352760627,SE,SE21,SE213,0860,Hultsfred,14579,1196.00237237,2018,SE_0860,official,TRUE
SE_0861,16.415556628043817,57.025726332567565,SE,SE21,SE213,0861,Mönsterås,13498,602.52493867,2018,SE_0861,official,TRUE
SE_0862,15.540467294432265,56.62833089718352,SE,SE21,SE213,0862,Emmaboda,9368,722.39736917,2018,SE_0862,official,TRUE
SE_0880,16.33304746788211,56.68227101161551,SE,SE21,SE213,0880,Kalmar,67451,961.29948055,2018,SE_0880,official,TRUE
SE_0881,15.909117102950633,56.74719062702397,SE,SE21,SE213,0881,Nybro,20406,1208.33933329,2018,SE_0881,official,TRUE
SE_0882,16.447243210964444,57.26336306370174,SE,SE21,SE213,0882,Oskarshamn,26928,1081.72692882,2018,SE_0882,official,TRUE
SE_0883,16.61352405491584,57.762595430428036,SE,SE21,SE213,0883,Västervik,36551,2012.74255053,2018,SE_0883,official,TRUE
SE_0884,15.856845716393426,57.670125087792854,SE,SE21,SE213,0884,Vimmerby,15728,1223.44314319,2018,SE_0884,official,TRUE
SE_0885,16.669717755616166,56.880201352871445,SE,SE21,SE213,0885,Borgholm,10857,681.77468252,2018,SE_0885,official,TRUE
SE_0980,18.309156688275408,57.616099117685444,SE,SE21,SE214,0980,Gotland,58595,3178.04635129,2018,SE_0980,official,TRUE
SE_1060,14.532540119296236,56.277646551157574,SE,SE22,SE221,1060,Olofström,13482,414.77268927,2018,SE_1060,official,TRUE
SE_1080,15.614874335991033,56.18563487436288,SE,SE22,SE221,1080,Karlskrona,66666,1063.46505702,2018,SE_1080,official,TRUE
SE_1081,15.276492258887016,56.21459666434008,SE,SE22,SE221,1081,Ronneby,29568,862.03008438,2018,SE_1081,official,TRUE
SE_1082,14.849056558064827,56.18369289039262,SE,SE22,SE221,1082,Karlshamn,32200,510.19281167,2018,SE_1082,official,TRUE
SE_1083,14.589667567667243,56.05255416706761,SE,SE22,SE221,1083,Sölvesborg,17455,187.84529988,2018,SE_1083,official,TRUE
SE_1214,13.099407423553131,55.90822049312846,SE,SE22,SE224,1214,Svalöv,14025,389.92940398,2018,SE_1214,official,TRUE
SE_1230,13.192233802294384,55.64883480392886,SE,SE22,SE224,1230,Staffanstorp,24167,107.71932154,2018,SE_1230,official,TRUE
SE_1231,13.084424545172466,55.639001745147425,SE,SE22,SE224,1231,Burlöv,18073,19.9992262,2018,SE_1231,official,TRUE
SE_1233,12.955786009854107,55.427956017422375,SE,SE22,SE224,1233,Vellinge,35790,144.86615936,2018,SE_1233,official,TRUE
SE_1256,14.098437208914076,56.23696788527995,SE,SE22,SE224,1256,Östra Göinge,14715,452.9275469,2018,SE_1256,official,TRUE
SE_1257,13.297979095065246,56.29124211602815,SE,SE22,SE224,1257,Örkelljunga,10047,333.27853475,2018,SE_1257,official,TRUE
SE_1260,12.935378473120334,56.068931014620865,SE,SE22,SE224,1260,Bjuv,15429,116.09112859,2018,SE_1260,official,TRUE
SE_1261,13.056081737120717,55.77966550310404,SE,SE22,SE224,1261,Kävlinge,30959,155.02440116,2018,SE_1261,official,TRUE
SE_1262,13.06120227238502,55.690399324047625,SE,SE22,SE224,1262,Lomma,24264,56.30581526,2018,SE_1262,official,TRUE
SE_1263,13.22452287711279,55.528342649566916,SE,SE22,SE224,1263,Svedala,21074,227.70380817,2018,SE_1263,official,TRUE
SE_1264,13.511852826685791,55.47542917722122,SE,SE22,SE224,1264,Skurup,15642,195.91562611,2018,SE_1264,official,TRUE
SE_1265,13.70555611853225,55.63525785945502,SE,SE22,SE224,1265,Sjöbo,19071,509.03136204,2018,SE_1265,official,TRUE
SE_1266,13.662339920705506,55.852467496122955,SE,SE22,SE224,1266,Hörby,15552,433.87964256,2018,SE_1266,official,TRUE
SE_1267,13.54588459442409,55.93321361683477,SE,SE22,SE224,1267,Höör,16478,321.58604822,2018,SE_1267,official,TRUE
SE_1270,13.95901077709746,55.54848878503452,SE,SE22,SE224,1270,Tomelilla,13416,398.42639318,2018,SE_1270,official,TRUE
SE_1272,14.47901227648031,56.081618430423134,SE,SE22,SE224,1272,Bromölla,12699,186.65741952,2018,SE_1272,official,TRUE
SE_1273,14.040777093618368,56.38682439766325,SE,SE22,SE224,1273,Osby,13182,602.29823537,2018,SE_1273,official,TRUE
SE_1275,13.393301132141383,56.14106427203057,SE,SE22,SE224,1275,Perstorp,7335,161.86455591,2018,SE_1275,official,TRUE
SE_1276,13.139921101321791,56.133734206996095,SE,SE22,SE224,1276,Klippan,17462,380.87483342,2018,SE_1276,official,TRUE
SE_1277,12.9323241528734,56.127803228760804,SE,SE22,SE224,1277,Åstorp,15828,93.40417501,2018,SE_1277,official,TRUE
SE_1278,12.830686182652059,56.40532271133038,SE,SE22,SE224,1278,Båstad,14796,218.87003905,2018,SE_1278,official,TRUE
SE_1280,13.006016582587156,55.58765737953371,SE,SE22,SE224,1280,Malmö,333633,158.51001132,2018,SE_1280,official,TRUE
SE_1281,13.208305258649768,55.703220815612795,SE,SE22,SE224,1281,Lund,121274,442.75839849,2018,SE_1281,official,TRUE
SE_1282,12.838047000254214,55.87865650787215,SE,SE22,SE224,1282,Landskrona,45286,144.22499895,2018,SE_1282,official,TRUE
SE_1283,12.717359916682211,56.04859289212908,SE,SE22,SE224,1283,Helsingborg,143304,347.15273991,2018,SE_1283,official,TRUE
SE_1284,12.571406178826612,56.18934554243195,SE,SE22,SE224,1284,Höganäs,26193,144.5592476,2018,SE_1284,official,TRUE
SE_1285,13.301035940318119,55.83958446277878,SE,SE22,SE224,1285,Eslöv,33236,425.93430376,2018,SE_1285,official,TRUE
SE_1286,13.821226921074496,55.43490205894674,SE,SE22,SE224,1286,Ystad,29848,357.72798866,2018,SE_1286,official,TRUE
SE_1287,13.16727357380592,55.38028566493789,SE,SE22,SE224,1287,Trelleborg,44595,343.92916026,2018,SE_1287,official,TRUE
SE_1290,14.168036242305979,56.02402464492093,SE,SE22,SE224,1290,Kristianstad,84151,1346.42567153,2018,SE_1290,official,TRUE
SE_1291,14.306689536694691,55.54487238305897,SE,SE22,SE224,1291,Simrishamn,19376,395.5744886,2018,SE_1291,official,TRUE
SE_1292,12.87034294884557,56.24881961016575,SE,SE22,SE224,1292,Ängelholm,41786,431.85516277,2018,SE_1292,official,TRUE
SE_1293,13.75933270380534,56.16142938871487,SE,SE22,SE224,1293,Hässleholm,52003,1314.59194906,2018,SE_1293,official,TRUE
SE_1315,13.227809822608025,56.99177568204796,SE,SE23,SE231,1315,Hylte,10990,1053.94324376,2018,SE_1315,official,TRUE
SE_1380,12.869389143283815,56.675692991191994,SE,SE23,SE231,1380,Halmstad,99752,1034.29687934,2018,SE_1380,official,TRUE
SE_1381,13.049545918024918,56.504965807939605,SE,SE23,SE231,1381,Laholm,25147,906.53805444,2018,SE_1381,official,TRUE
SE_1382,12.505138042352266,56.907137622082445,SE,SE23,SE231,1382,Falkenberg,44195,1162.45587936,2018,SE_1382,official,TRUE
SE_1383,12.268201119715812,57.11119222220702,SE,SE23,SE231,1383,Varberg,62755,914.14556432,2018,SE_1383,official,TRUE
SE_1384,12.064110635484788,57.47323918430495,SE,SE23,SE231,1384,Kungsbacka,81986,641.26206921,2018,SE_1384,official,TRUE
SE_1401,12.17011500574394,57.666733904192995,SE,SE23,SE232,1401,Härryda,37412,294.58625907,2018,SE_1401,official,TRUE
SE_1402,12.102859916030559,57.728979477301365,SE,SE23,SE232,1402,Partille,37880,58.88888939,2018,SE_1402,official,TRUE
SE_1407,11.650155089558234,57.698729146145986,SE,SE23,SE232,1407,Öckerö,12923,24.17309799,2018,SE_1407,official,TRUE
SE_1415,11.8365456068691,58.05922034609152,SE,SE23,SE232,1415,Stenungsund,26224,266.33599901,2018,SE_1415,official,TRUE
SE_1419,11.640792722578222,58.00779294235648,SE,SE23,SE232,1419,Tjörn,15790,162.64194771,2018,SE_1419,official,TRUE
SE_1421,11.687159264061474,58.1906882219453,SE,SE23,SE232,1421,Orust,15108,388.30442974,2018,SE_1421,official,TRUE
SE_1427,11.279697959935437,58.395197561124746,SE,SE23,SE232,1427,Sotenäs,9073,136.21142417,2018,SE_1427,official,TRUE
SE_1430,11.660272934047956,58.4891945206555,SE,SE23,SE232,1430,Munkedal,10423,669.64179717,2018,SE_1430,official,TRUE
SE_1435,11.299870787036095,58.68554210452638,SE,SE23,SE232,1435,Tanum,12763,952.5236623,2018,SE_1435,official,TRUE
SE_1438,11.921325493956548,58.90950476928275,SE,SE23,SE232,1438,Dals-Ed,4763,830.59479493,2018,SE_1438,official,TRUE
SE_1439,12.007706779652773,58.58371224025315,SE,SE23,SE232,1439,Färgelanda,6592,621.64290431,2018,SE_1439,official,TRUE
SE_1440,12.070465990234558,57.893979598477074,SE,SE23,SE232,1440,Ale,30223,333.60726112,2018,SE_1440,official,TRUE
SE_1441,12.297695118429193,57.7920391201564,SE,SE23,SE232,1441,Lerum,41510,312.28544542,2018,SE_1441,official,TRUE
SE_1442,12.808715045344016,58.03103393745643,SE,SE23,SE232,1442,Vårgårda,11490,444.23487669,2018,SE_1442,official,TRUE
SE_1443,12.575907595354662,57.67506570511032,SE,SE23,SE232,1443,Bollebygd,9262,284.1840514,2018,SE_1443,official,TRUE
SE_1444,12.681551477721106,58.332563604183655,SE,SE23,SE232,1444,Grästorp,5750,282.91926129,2018,SE_1444,official,TRUE
SE_1445,12.725386541381393,58.189569337859076,SE,SE23,SE232,1445,Essunga,5647,235.19084688,2018,SE_1445,official,TRUE
SE_1446,14.477086913702058,58.53182734305088,SE,SE23,SE232,1446,Karlsborg,6954,802.35728709,2018,SE_1446,official,TRUE
SE_1447,14.14818310363228,58.91396557872701,SE,SE23,SE232,1447,Gullspång,5280,557.25448025,2018,SE_1447,official,TRUE
SE_1452,13.3602144771872,57.511328622676935,SE,SE23,SE232,1452,Tranemo,11841,783.77764021,2018,SE_1452,official,TRUE
SE_1460,12.243305580081293,58.9881439339582,SE,SE23,SE232,1460,Bengtsfors,9905,1063.91846908,2018,SE_1460,official,TRUE
SE_1461,12.453629780071617,58.70124772908483,SE,SE23,SE232,1461,Mellerud,9377,950.69929006,2018,SE_1461,official,TRUE
SE_1462,12.13186826121099,58.11967516846002,SE,SE23,SE232,1462,Lilla Edet,13961,344.1384828,2018,SE_1462,official,TRUE
SE_1463,12.664679380258551,57.500156057518076,SE,SE23,SE232,1463,Mark,34484,1018.01413872,2018,SE_1463,official,TRUE
SE_1465,13.097569140420152,57.49265021692163,SE,SE23,SE232,1465,Svenljunga,10659,991.05767563,2018,SE_1465,official,TRUE
SE_1466,13.030870700515282,58.06697371266869,SE,SE23,SE232,1466,Herrljunga,9485,511.60727593,2018,SE_1466,official,TRUE
SE_1470,12.977280106665567,58.26278854656444,SE,SE23,SE232,1470,Vara,15942,703.12459421,2018,SE_1470,official,TRUE
SE_1471,13.455670478418458,58.52502122113939,SE,SE23,SE232,1471,Götene,13242,626.23139093,2018,SE_1471,official,TRUE
SE_1472,14.16888762270305,58.423023522039806,SE,SE23,SE232,1472,Tibro,11110,235.721001,2018,SE_1472,official,TRUE
SE_1473,14.1280169338565,58.70818850686951,SE,SE23,SE232,1473,Töreboda,9414,593.44643435,2018,SE_1473,official,TRUE
SE_1480,11.963109483474824,57.70826824625341,SE,SE23,SE232,1480,Göteborg,564039,455.98510251,2018,SE_1480,official,TRUE
SE_1481,12.01681192765265,57.647652275229824,SE,SE23,SE232,1481,Mölndal,66121,153.62493503,2018,SE_1481,official,TRUE
SE_1482,11.95293192570687,57.874872222926065,SE,SE23,SE232,1482,Kungälv,44110,369.20535829,2018,SE_1482,official,TRUE
SE_1484,11.447273576588163,58.2913891384717,SE,SE23,SE232,1484,Lysekil,14621,206.8282328,2018,SE_1484,official,TRUE
SE_1485,11.930035371270263,58.352840980258456,SE,SE23,SE232,1485,Uddevalla,55763,654.33600543,2018,SE_1485,official,TRUE
SE_1486,11.185297447567464,58.940134401853555,SE,SE23,SE232,1486,Strömstad,13218,474.33656635,2018,SE_1486,official,TRUE
SE_1487,12.340379373237003,58.37278698820459,SE,SE23,SE232,1487,Vänersborg,39151,902.26762344,2018,SE_1487,official,TRUE
SE_1488,12.293552706552461,58.275724332300285,SE,SE23,SE232,1488,Trollhättan,58238,430.06028565,2018,SE_1488,official,TRUE
SE_1489,12.529374746880597,57.93330592061391,SE,SE23,SE232,1489,Alingsås,40390,553.72873676,2018,SE_1489,official,TRUE
SE_1490,12.948460336377947,57.72508360469297,SE,SE23,SE232,1490,Borås,111026,973.61724694,2018,SE_1490,official,TRUE
SE_1491,13.417406245158347,57.792409607360646,SE,SE23,SE232,1491,Ulricehamn,24296,1122.20859631,2018,SE_1491,official,TRUE
SE_1492,12.696135209414459,59.05272959434476,SE,SE23,SE232,1492,Åmål,12711,892.93187991,2018,SE_1492,official,TRUE
SE_1493,13.820168211463962,58.704043384623425,SE,SE23,SE232,1493,Mariestad,24290,1513.0946332,2018,SE_1493,official,TRUE
SE_1494,13.151913673759212,58.49921819678426,SE,SE23,SE232,1494,Lidköping,39506,1378.96101532,2018,SE_1494,official,TRUE
SE_1495,13.438603654998852,58.386609139309954,SE,SE23,SE232,1495,Skara,18843,452.84006613,2018,SE_1495,official,TRUE
SE_1496,13.853346604228584,58.4008537579203,SE,SE23,SE232,1496,Skövde,54975,687.45966145,2018,SE_1496,official,TRUE
SE_1497,14.279913897799519,58.30468322119701,SE,SE23,SE232,1497,Hjo,9093,588.72580879,2018,SE_1497,official,TRUE
SE_1498,13.960297050686679,58.179364251833945,SE,SE23,SE232,1498,Tidaholm,12827,525.95399174,2018,SE_1498,official,TRUE
SE_1499,13.556807983138038,58.1705158306755,SE,SE23,SE232,1499,Falköping,33077,1069.60501572,2018,SE_1499,official,TRUE
SE_1715,13.314648796766503,59.50428876800828,SE,SE31,SE311,1715,Kil,11910,409.39677089,2018,SE_1715,official,TRUE
SE_1730,12.303986813784274,59.85770831972275,SE,SE31,SE311,1730,Eda,8618,898.08232894,2018,SE_1730,official,TRUE
SE_1737,13.002794026994572,60.15751204126252,SE,SE31,SE311,1737,Torsby,11890,4381.13520374,2018,SE_1737,official,TRUE
SE_1760,14.282588125354245,59.527444688762806,SE,SE31,SE311,1760,Storfors,4123,475.78475448,2018,SE_1760,official,TRUE
SE_1761,13.492411820207117,59.32639328429032,SE,SE31,SE311,1761,Hammarö,16174,466.22280264,2018,SE_1761,official,TRUE
SE_1762,13.540389738132534,59.833612166421624,SE,SE31,SE311,1762,Munkfors,3763,148.44528025,2018,SE_1762,official,TRUE
SE_1763,13.479005406291336,59.54437004222782,SE,SE31,SE311,1763,Forshaga,11509,398.58536362,2018,SE_1763,official,TRUE
SE_1764,13.10131915425873,59.34436377796741,SE,SE31,SE311,1764,Grums,9011,481.27394719,2018,SE_1764,official,TRUE
SE_1765,12.059596551046127,59.418471496819,SE,SE31,SE311,1765,Årjäng,9948,1661.7568688,2018,SE_1765,official,TRUE
SE_1766,13.141393033499138,59.84292188156566,SE,SE31,SE311,1766,Sunne,13331,1458.01693385,2018,SE_1766,official,TRUE
SE_1780,13.510099906321333,59.389406337493085,SE,SE31,SE311,1780,Karlstad,91120,1524.45981957,2018,SE_1780,official,TRUE
SE_1781,14.110693074924463,59.307972278080975,SE,SE31,SE311,1781,Kristinehamn,24650,1388.74116845,2018,SE_1781,official,TRUE
SE_1782,14.171602969627493,59.71618236282881,SE,SE31,SE311,1782,Filipstad,10783,1721.17853402,2018,SE_1782,official,TRUE
SE_1783,13.6625333051781,60.051964612414544,SE,SE31,SE311,1783,Hagfors,11782,2013.36250138,2018,SE_1783,official,TRUE
SE_1784,12.593524883721786,59.65812894647812,SE,SE31,SE311,1784,Arvika,26060,1968.22338135,2018,SE_1784,official,TRUE
SE_1785,12.921776507885884,59.13506641427955,SE,SE31,SE311,1785,Säffle,15727,2514.53639185,2018,SE_1785,official,TRUE
SE_1814,14.858681746284603,59.18343204240776,SE,SE12,SE124,1814,Lekeberg,7868,484.15140836,2018,SE_1814,official,TRUE
SE_1860,14.614739808178355,58.98079408297895,SE,SE12,SE124,1860,Laxå,5643,743.01639562,2018,SE_1860,official,TRUE
SE_1861,15.130597147291148,59.06493651166411,SE,SE12,SE124,1861,Hallsberg,15932,672.09868702000006,2018,SE_1861,official,TRUE
SE_1862,14.434677579666282,59.238715756238705,SE,SE12,SE124,1862,Degerfors,9668,437.02452197,2018,SE_1862,official,TRUE
SE_1863,14.526312050935886,59.775284700397755,SE,SE12,SE124,1863,Hällefors,7109,1158.60224782,2018,SE_1863,official,TRUE
SE_1864,14.992370400123626,59.880554829309126,SE,SE12,SE124,1864,Ljusnarsberg,4942,632.95097505,2018,SE_1864,official,TRUE
SE_1880,15.20972433383642,59.27416779744844,SE,SE12,SE124,1880,Örebro,150291,1631.16300568,2018,SE_1880,official,TRUE
SE_1881,15.141906039234962,59.12703281419319,SE,SE12,SE124,1881,Kumla,21506,207.40255163,2018,SE_1881,official,TRUE
SE_1882,14.925084866854016,58.88964570960171,SE,SE12,SE124,1882,Askersund,11175,1024.51387568,2018,SE_1882,official,TRUE
SE_1883,14.514715251754295,59.325451238788695,SE,SE12,SE124,1883,Karlskoga,30413,514.50991803,2018,SE_1883,official,TRUE
SE_1884,15.028926171412749,59.520390941612135,SE,SE12,SE124,1884,Nora,10747,692.96009404,2018,SE_1884,official,TRUE
SE_1885,15.262811339398517,59.57528597718392,SE,SE12,SE124,1885,Lindesberg,23613,1488.87220434,2018,SE_1885,official,TRUE
SE_1904,15.693290926051933,59.82276542338918,SE,SE12,SE125,1904,Skinnskatteberg,4431,722.29061369,2018,SE_1904,official,TRUE
SE_1907,16.214694903034392,59.72355707567296,SE,SE12,SE125,1907,Surahammar,10037,370.54621625,2018,SE_1907,official,TRUE
SE_1960,16.090914241191573,59.42215945040512,SE,SE12,SE125,1960,Kungsör,8603,228.56055709,2018,SE_1960,official,TRUE
SE_1961,16.23689981289738,59.61184372618718,SE,SE12,SE125,1961,Hallstahammar,15998,181.77805255,2018,SE_1961,official,TRUE
SE_1962,15.928893334498929,60.06510493739744,SE,SE12,SE125,1962,Norberg,5796,450.82721199,2018,SE_1962,official,TRUE
SE_1980,16.54590361478377,59.617501524037834,SE,SE12,SE125,1980,Västerås,150134,1142.7430852,2018,SE_1980,official,TRUE
SE_1981,16.59440043698108,59.91797139122384,SE,SE12,SE125,1981,Sala,22631,1209.72111105,2018,SE_1981,official,TRUE
SE_1982,15.802628873348576,60.004203417299294,SE,SE12,SE125,1982,Fagersta,13415,310.95246046,2018,SE_1982,official,TRUE
SE_1983,15.988347655845745,59.52013955092028,SE,SE12,SE125,1983,Köping,26116,648.23842018,2018,SE_1983,official,TRUE
SE_1984,15.841345290327668,59.39363803958935,SE,SE12,SE125,1984,Arboga,13934,421.65825707,2018,SE_1984,official,TRUE
SE_2021,14.25464546075654,60.51347843594355,SE,SE31,SE312,2021,Vansbro,6837,1668.34281139,2018,SE_2021,official,TRUE
SE_2023,13.655922612740177,60.740692652251084,SE,SE31,SE312,2023,Malung-Sälen,10114,4338.12113338,2018,SE_2023,official,TRUE
SE_2026,15.054651489305279,60.53847595412047,SE,SE31,SE312,2026,Gagnef,10241,811.6922988,2018,SE_2026,official,TRUE
SE_2029,15.011880769464442,60.721887193822276,SE,SE31,SE312,2029,Leksand,15640,1423.72297396,2018,SE_2029,official,TRUE
SE_2031,15.114377141743775,60.894673946581264,SE,SE31,SE312,2031,Rättvik,10837,2151.86343603,2018,SE_2031,official,TRUE
SE_2034,14.623558148704056,61.11944638849636,SE,SE31,SE312,2034,Orsa,6887,1805.66102066,2018,SE_2034,official,TRUE
SE_2039,13.833214052710018,61.33007750570177,SE,SE31,SE312,2039,Älvdalen,7068,7190.41148317,2018,SE_2039,official,TRUE
SE_2061,15.414663954853639,60.140681123747775,SE,SE31,SE312,2061,Smedjebacken,10894,1064.83461658,2018,SE_2061,official,TRUE
SE_2062,14.547503858893869,61.003780696896925,SE,SE31,SE312,2062,Mora,20369,3131.09696469,2018,SE_2062,official,TRUE
SE_2080,15.637930882118134,60.613081951426494,SE,SE31,SE312,2080,Falun,58340,2287.0865595,2018,SE_2080,official,TRUE
SE_2081,15.422653242144138,60.49112390301212,SE,SE31,SE312,2081,Borlänge,51964,639.07547701,2018,SE_2081,official,TRUE
SE_2082,15.731527481845552,60.355509235546464,SE,SE31,SE312,2082,Säter,11160,627.51480281,2018,SE_2082,official,TRUE
SE_2083,15.982998011317045,60.29025072694665,SE,SE31,SE312,2083,Hedemora,15566,929.10600965,2018,SE_2083,official,TRUE
SE_2084,16.184815092343495,60.1453817110803,SE,SE31,SE312,2084,Avesta,23256,673.1578236,2018,SE_2084,official,TRUE
SE_2085,15.17214701631418,60.142354265359096,SE,SE31,SE312,2085,Ludvika,26992,1656.63672555,2018,SE_2085,official,TRUE
SE_2101,16.705780439735324,60.89878209371317,SE,SE31,SE313,2101,Ockelbo,5896,1135.99199579,2018,SE_2101,official,TRUE
SE_2104,16.29278469882004,60.5439461456027,SE,SE31,SE313,2104,Hofors,9660,449.04669749,2018,SE_2104,official,TRUE
SE_2121,15.881860454586405,61.36829528362235,SE,SE31,SE313,2121,Ovanåker,11609,2027.60687612,2018,SE_2121,official,TRUE
SE_2132,17.135295566604622,61.97591834916641,SE,SE31,SE313,2132,Nordanstig,9481,1458.16757389,2018,SE_2132,official,TRUE
SE_2161,16.08053904688243,61.81959880546224,SE,SE31,SE313,2161,Ljusdal,19028,5639.47828913,2018,SE_2161,official,TRUE
SE_2180,17.144261170266862,60.672016575649316,SE,SE31,SE313,2180,Gävle,100603,1770.87464835,2018,SE_2180,official,TRUE
SE_2181,16.753175468462583,60.61542314829901,SE,SE31,SE313,2181,Sandviken,39259,1304.96206792,2018,SE_2181,official,TRUE
SE_2182,17.057590605840257,61.29902200301164,SE,SE31,SE313,2182,Söderhamn,25782,1172.87040751,2018,SE_2182,official,TRUE
SE_2183,16.395708551988648,61.357625990718034,SE,SE31,SE313,2183,Bollnäs,26918,1989.44091539,2018,SE_2183,official,TRUE
SE_2184,17.069826621830188,61.7220687169068,SE,SE31,SE313,2184,Hudiksvall,37401,2756.6579045,2018,SE_2184,official,TRUE
SE_2260,15.8160814892833,62.51562455594929,SE,SE32,SE321,2260,Ånge,9480,3318.44026471,2018,SE_2260,official,TRUE
SE_2262,17.353815118614072,62.494652542234334,SE,SE32,SE321,2262,Timrå,18030,824.0393049,2018,SE_2262,official,TRUE
SE_2280,17.936561349086904,62.63424869240282,SE,SE32,SE321,2280,Härnösand,25190,1106.79287255,2018,SE_2280,official,TRUE
SE_2281,17.299380252128675,62.39224366133117,SE,SE32,SE321,2281,Sundsvall,98810,3470.43957184,2018,SE_2281,official,TRUE
SE_2282,17.80706029264909,62.93741169505581,SE,SE32,SE321,2282,Kramfors,18610,1795.23956678,2018,SE_2282,official,TRUE
SE_2283,17.22961871878899,63.18701909720265,SE,SE32,SE321,2283,Sollefteå,19709,5797.85015904,2018,SE_2283,official,TRUE
SE_2284,18.69447220329395,63.29307002829929,SE,SE32,SE321,2284,Örnsköldsvik,56139,6771.72652418,2018,SE_2284,official,TRUE
SE_2303,16.28684119190692,63.10187524297958,SE,SE32,SE322,2303,Ragunda,5444,2649.39757614,2018,SE_2303,official,TRUE
SE_2305,15.400597117988996,62.82112453280374,SE,SE32,SE322,2305,Bräcke,6501,3809.88184289,2018,SE_2305,official,TRUE
SE_2309,14.454522585006167,63.31182253806121,SE,SE32,SE322,2309,Krokom,14925,6857.53050017,2018,SE_2309,official,TRUE
SE_2313,15.578853055509603,63.86185100431859,SE,SE32,SE322,2313,Strömsund,11791,11858.34400675,2018,SE_2313,official,TRUE
SE_2321,13.25590144854844,63.362648845149664,SE,SE32,SE322,2321,Åre,11268,8287.82039125,2018,SE_2321,official,TRUE
SE_2326,14.409811670474983,62.802643976786996,SE,SE32,SE322,2326,Berg,7122,6182.45022196,2018,SE_2326,official,TRUE
SE_2361,14.076982355156929,62.13976885954308,SE,SE32,SE322,2361,Härjedalen,10154,11930.55238814,2018,SE_2361,official,TRUE
SE_2380,14.662714142877237,63.16930734865396,SE,SE32,SE322,2380,Östersund,62601,2512.33653274,2018,SE_2380,official,TRUE
SE_2401,19.488914886586304,63.57293601030599,SE,SE33,SE331,2401,Nordmaling,7103,1276.69095759,2018,SE_2401,official,TRUE
SE_2403,19.21377594471102,63.929569471347364,SE,SE33,SE331,2403,Bjurholm,2451,1376.0653023,2018,SE_2403,official,TRUE
SE_2404,19.706666932171863,64.20609703125709,SE,SE33,SE331,2404,Vindeln,5412,2863.96489241,2018,SE_2404,official,TRUE
SE_2409,20.86815346044039,64.192316867937,SE,SE33,SE331,2409,Robertsfors,6784,1322.18093827,2018,SE_2409,official,TRUE
SE_2417,19.507855682415133,64.90723606913812,SE,SE33,SE331,2417,Norsjö,4086,1936.27283788,2018,SE_2417,official,TRUE
SE_2418,18.74661970205987,65.18738049334408,SE,SE33,SE331,2418,Malå,3133,1742.38557794,2018,SE_2418,official,TRUE
SE_2421,17.01899664584536,65.13220226776593,SE,SE33,SE331,2421,Storuman,5902,8289.54664757,2018,SE_2421,official,TRUE
SE_2422,17.50670867182001,65.53339243700405,SE,SE33,SE331,2422,Sorsele,2516,8009.97900478,2018,SE_2422,official,TRUE
SE_2425,16.402311565970166,64.26779906235905,SE,SE33,SE331,2425,Dorotea,2646,2965.08937107,2018,SE_2425,official,TRUE
SE_2460,19.765299266139433,63.90905904775128,SE,SE33,SE331,2460,Vännäs,8776,555.93415895,2018,SE_2460,official,TRUE
SE_2462,16.643145454490483,64.63021143374117,SE,SE33,SE331,2462,Vilhelmina,6787,8790.93295549,2018,SE_2462,official,TRUE
SE_2463,17.365073183679044,64.1581673071837,SE,SE33,SE331,2463,Åsele,2809,4577.38218495,2018,SE_2463,official,TRUE
SE_2480,20.284197623757034,63.82189752982485,SE,SE33,SE331,2480,Umeå,125080,2396.27704589,2018,SE_2480,official,TRUE
SE_2481,18.677923558269754,64.59291107574076,SE,SE33,SE331,2481,Lycksele,12257,5923.02359937,2018,SE_2481,official,TRUE
SE_2482,20.981172566112605,64.74602357433072,SE,SE33,SE331,2482,Skellefteå,72723,7213.3013951,2018,SE_2482,official,TRUE
SE_2505,19.186145973448493,65.59152488419289,SE,SE33,SE332,2505,Arvidsjaur,6440,6164.20030432,2018,SE_2505,official,TRUE
SE_2506,17.883197102439823,66.04757193824105,SE,SE33,SE332,2506,Arjeplog,2821,14589.05414329,2018,SE_2506,official,TRUE
SE_2510,19.86041764645147,66.60107754662263,SE,SE33,SE332,2510,Jokkmokk,5081,19472.6767436,2018,SE_2510,official,TRUE
SE_2513,22.83651171699551,66.33116715832801,SE,SE33,SE332,2513,Överkalix,3367,2938.10694197,2018,SE_2513,official,TRUE
SE_2514,23.133962507809414,65.85840106514301,SE,SE33,SE332,2514,Kalix,16169,1915.48660982,2018,SE_2514,official,TRUE
SE_2518,23.65628458222392,66.40546614159202,SE,SE33,SE332,2518,Övertorneå,4461,2495.55052708,2018,SE_2518,official,TRUE
SE_2521,23.29805315817178,67.19363141563929,SE,SE33,SE332,2521,Pajala,6101,8116.00280802,2018,SE_2521,official,TRUE
SE_2523,20.673747415998918,67.14188625095098,SE,SE33,SE332,2523,Gällivare,17825,16939.25782307,2018,SE_2523,official,TRUE
SE_2560,20.985557137676494,65.67980719559493,SE,SE33,SE332,2560,Älvsbyn,8274,1808.66684663,2018,SE_2560,official,TRUE
SE_2580,22.156897577465696,65.60063509459611,SE,SE33,SE332,2580,Luleå,77470,2255.06990353,2018,SE_2580,official,TRUE
SE_2581,21.47268572196258,65.32409986090246,SE,SE33,SE332,2581,Piteå,42184,3254.01757323,2018,SE_2581,official,TRUE
SE_2582,21.69080454231237,65.818631114821,SE,SE33,SE332,2582,Boden,28181,4316.18683682,2018,SE_2582,official,TRUE
SE_2583,24.122100877237212,65.83715936179287,SE,SE33,SE332,2583,Haparanda,9805,960.79623303,2018,SE_2583,official,TRUE
SE_2584,20.267703324770455,67.85085049959653,SE,SE33,SE332,2584,Kiruna,23116,20687.67137193,2018,SE_2584,official,TRUE
