gisco_id,longitude,latitude,country,nuts_2,nuts_3,lau_id,lau_name,population,area_km2,year,fid,concordance,pop_weighted
SK_500011,18.072138943501066,48.30503635815499,SK,SK02,SK023,500011,Nitra,77048,100.44211286,2018,SK_500011,official,TRUE
SK_500020,17.945566238192207,48.3656881139688,SK,SK02,SK023,500020,Alekšince,1663,15.06493455,2018,SK_500020,official,TRUE
SK_500046,17.867667271499467,48.30834237551615,SK,SK02,SK023,500046,Báb,1117,20.10065078,2018,SK_500046,official,TRUE
SK_500062,18.29651009288581,48.33952263037443,SK,SK02,SK023,500062,Beladice,1636,22.40642363,2018,SK_500062,official,TRUE
SK_500071,18.145223202662784,48.21471512253366,SK,SK02,SK023,500071,Branč,2233,13.79615305,2018,SK_500071,official,TRUE
SK_500101,18.03859044964159,48.3675699232502,SK,SK02,SK023,500101,Čakajovce,1165,5.77233719,2018,SK_500101,official,TRUE
SK_500127,18.506642572855107,48.3594161701661,SK,SK02,SK023,500127,Čaradice,506,17.83852355,2018,SK_500127,official,TRUE
SK_500135,18.237744260551697,48.32652074359468,SK,SK02,SK023,500135,Čeľadice,993,10.47660715,2018,SK_500135,official,TRUE
SK_500151,18.41863539331157,48.34948694622718,SK,SK02,SK023,500151,Čierne Kľačany,1129,10.97352393,2018,SK_500151,official,TRUE
SK_500160,18.39501398864459,48.233067306146246,SK,SK02,SK023,500160,Čifáre,607,15.33686425,2018,SK_500160,official,TRUE
SK_500194,18.205837999648942,48.31068282762953,SK,SK02,SK023,500194,Dolné Obdokovce,1169,10.18034478,2018,SK_500194,official,TRUE
SK_500232,18.19315271481713,48.266762386473594,SK,SK02,SK023,500232,Golianovo,1743,10.69934518,2018,SK_500232,official,TRUE
SK_500241,17.87059834285342,48.25368936932868,SK,SK02,SK023,500241,Hájske,1306,14.06159244,2018,SK_500241,official,TRUE
SK_500267,17.13886908582969,48.47064858032358,SK,SK01,SK010,500267,Záhorie (vojenský obvod),157,277.55275939,2018,SK_500267,official,TRUE
SK_500283,18.43365616000212,48.453236033797374,SK,SK02,SK023,500283,Hostie,1232,28.17309814,2018,SK_500283,official,TRUE
SK_500305,18.359052539953858,48.41669778667513,SK,SK02,SK023,500305,Hosťovce,759,16.24058959,2018,SK_500305,official,TRUE
SK_500313,18.02369423696068,48.44506368503914,SK,SK02,SK023,500313,Hruboňovo,519,11.54933479,2018,SK_500313,official,TRUE
SK_500321,18.321801571823023,48.35619640006638,SK,SK02,SK023,500321,Choča,510,4.39345364,2018,SK_500321,official,TRUE
SK_500348,18.212203086813002,49.15086623089755,SK,SK02,SK022,500348,Zubák,837,25.64863072,2018,SK_500348,official,TRUE
SK_500356,17.956959173698138,48.275066145870206,SK,SK02,SK023,500356,Jarok,2018,22.10396192,2018,SK_500356,official,TRUE
SK_500364,18.494402865934664,48.47072475785071,SK,SK02,SK023,500364,Jedľové Kostoľany,908,27.28835272,2018,SK_500364,official,TRUE
SK_500372,18.22444954470812,48.37945275364896,SK,SK02,SK023,500372,Jelenec,2103,27.17442869,2018,SK_500372,official,TRUE
SK_500381,18.055862978172698,48.38467413320764,SK,SK02,SK023,500381,Jelšovce,1022,10.44063671,2018,SK_500381,official,TRUE
SK_500399,17.970483202780947,48.45079801760701,SK,SK02,SK023,500399,Kapince,187,5.84164566,2018,SK_500399,official,TRUE
SK_500402,18.25633216165712,48.27859691104181,SK,SK02,SK023,500402,Klasov,1372,12.23183273,2018,SK_500402,official,TRUE
SK_500411,18.196561694612072,48.35937964892842,SK,SK02,SK023,500411,Kolíňany,1582,12.47884197,2018,SK_500411,official,TRUE
SK_500429,18.24112232454868,48.41632519862406,SK,SK02,SK023,500429,Kostoľany pod Tribečom,331,22.12058448,2018,SK_500429,official,TRUE
SK_500437,18.260624353169614,48.39690573874574,SK,SK02,SK023,500437,Ladice,738,11.64060618,2018,SK_500437,official,TRUE
SK_500453,17.989350726377484,48.31404286452245,SK,SK02,SK023,500453,Lehota,2217,11.00976906,2018,SK_500453,official,TRUE
SK_500461,18.363728218245054,48.44381670913778,SK,SK02,SK023,500461,Lovce,670,10.18504599,2018,SK_500461,official,TRUE
SK_500470,18.285101745784484,48.21360000042723,SK,SK02,SK023,500470,Lúčnica nad Žitavou,914,12.10432779,2018,SK_500470,official,TRUE
SK_500488,17.93603284400942,48.39398943095456,SK,SK02,SK023,500488,Lukáčovce,1164,16.83791492,2018,SK_500488,official,TRUE
SK_500500,18.430401775591484,48.41030478422633,SK,SK02,SK023,500500,Machulince,1108,9.41357962,2018,SK_500500,official,TRUE
SK_500518,18.283481382979268,48.288909944605926,SK,SK03,SK031,500518,Veľké Chyndice,314,5.04903429,2018,SK_500518,official,TRUE
SK_500534,17.98154722285042,48.435371454604386,SK,SK02,SK023,500534,Malé Zálužie,265,5.89943032,2018,SK_500534,official,TRUE
SK_500542,18.330736902651015,48.42760113482063,SK,SK02,SK023,500542,Mankovce,537,4.24062787,2018,SK_500542,official,TRUE
SK_500551,18.355910673350017,48.397398758117816,SK,SK02,SK023,500551,Martin nad Žitavou,522,4.33862462,2018,SK_500551,official,TRUE
SK_500569,18.328866490502186,48.20165480637196,SK,SK02,SK023,500569,Melek,459,6.19680656,2018,SK_500569,official,TRUE
SK_500577,18.06300443245846,48.209885136755055,SK,SK02,SK023,500577,Mojmírovce,2888,19.85600981,2018,SK_500577,official,TRUE
SK_500585,18.448964299289408,48.30905128884995,SK,SK02,SK023,500585,Nemčiňany,691,15.67712262,2018,SK_500585,official,TRUE
SK_500593,18.27195225771856,48.3688384111248,SK,SK02,SK023,500593,Neverice,701,5.95482429,2018,SK_500593,official,TRUE
SK_500607,18.378228781876185,48.28737245787507,SK,SK02,SK023,500607,Nevidzany,579,10.25228199,2018,SK_500607,official,TRUE
SK_500631,18.324681458466724,48.29170194074266,SK,SK02,SK023,500631,Nová Ves nad Žitavou,1357,10.16476782,2018,SK_500631,official,TRUE
SK_500640,17.977878744587876,48.41491460793141,SK,SK02,SK023,500640,Nové Sady,1289,17.47105705,2018,SK_500640,official,TRUE
SK_500658,18.45596199217432,48.42729493113337,SK,SK02,SK023,500658,Obyce,1505,31.27863434,2018,SK_500658,official,TRUE
SK_500666,18.22866290422091,48.2327812564178,SK,SK02,SK023,500666,Paňa,360,11.2657798,2018,SK_500666,official,TRUE
SK_500674,18.115010990465027,48.380604981500326,SK,SK02,SK023,500674,Podhorany,1089,17.70016806,2018,SK_500674,official,TRUE
SK_500682,18.181674665836706,48.330541588585874,SK,SK02,SK023,500682,Pohranice,1071,12.09313327,2018,SK_500682,official,TRUE
SK_500691,18.059616867492284,48.16069201420153,SK,SK02,SK023,500691,Poľný Kesov,660,10.22996517,2018,SK_500691,official,TRUE
SK_500704,17.89429878302162,48.36934942829861,SK,SK02,SK023,500704,Rišňovce,2075,18.77762174,2018,SK_500704,official,TRUE
SK_500712,17.869379930052123,48.328842602423876,SK,SK02,SK023,500712,Rumanová,824,11.65064002,2018,SK_500712,official,TRUE
SK_500721,18.421709919342817,48.50236707714682,SK,SK02,SK023,500721,Skýcov,964,25.19557339,2018,SK_500721,official,TRUE
SK_500739,17.928022655770093,48.2284338564614,SK,SK02,SK023,500739,Močenok,4305,46.38439896,2018,SK_500739,official,TRUE
SK_500747,18.326733910364027,48.38647431816367,SK,SK02,SK023,500747,Sľažany,1707,16.26155319,2018,SK_500747,official,TRUE
SK_500755,18.341215945712715,48.309636921127044,SK,SK02,SK023,500755,Slepčany,808,9.34777646,2018,SK_500755,official,TRUE
SK_500780,18.0202651997275,48.42257218605364,SK,SK02,SK023,500780,Šurianky,598,10.39268135,2018,SK_500780,official,TRUE
SK_500798,18.36069394740422,48.26347399758479,SK,SK02,SK023,500798,Tajná,278,8.48463653,2018,SK_500798,official,TRUE
SK_500810,18.359535528424008,48.33845249760967,SK,SK02,SK023,500810,Tesárske Mlyňany,1766,18.00926063,2018,SK_500810,official,TRUE
SK_500828,18.41288312852019,48.41555815354892,SK,SK02,SK023,500828,Topoľčianky,2613,26.30477445,2018,SK_500828,official,TRUE
SK_500836,18.304023477710913,48.412775134958686,SK,SK02,SK023,500836,Velčice,844,34.70274323,2018,SK_500836,official,TRUE
SK_500844,18.027204841661273,48.18206871739607,SK,SK02,SK023,500844,Veľká Dolina,663,11.67307415,2018,SK_500844,official,TRUE
SK_500887,17.93898715912703,48.30698280187791,SK,SK02,SK023,500887,Veľké Zálužie,4208,32.09616505,2018,SK_500887,official,TRUE
SK_500895,18.190991063168976,48.220488900120756,SK,SK03,SK031,500895,Veľký Cetín,1582,16.86342907,2018,SK_500895,official,TRUE
SK_500909,18.354814274446298,48.31790727510252,SK,SK02,SK023,500909,Vieska nad Žitavou,456,5.45685358,2018,SK_500909,official,TRUE
SK_500917,18.206626454473412,48.18842390505568,SK,SK02,SK023,500917,Vinodol,1972,14.97595068,2018,SK_500917,official,TRUE
SK_500925,18.454503442412012,48.33715375550009,SK,SK02,SK023,500925,Volkovce,1009,11.60702459,2018,SK_500925,official,TRUE
SK_500933,18.304536125067884,48.247357971974694,SK,SK02,SK023,500933,Vráble,8656,38.29466842,2018,SK_500933,official,TRUE
SK_500941,18.08588999713611,48.410640372562995,SK,SK03,SK032,500941,Výčapy-Opatovce,2214,14.17352436,2018,SK_500941,official,TRUE
SK_500950,18.01424935723171,48.368356971872174,SK,SK03,SK031,500950,Zbehy,2242,19.56223942,2018,SK_500950,official,TRUE
SK_500968,18.383633722300473,48.38709566017948,SK,SK02,SK023,500968,Zlaté Moravce,11583,27.13811358,2018,SK_500968,official,TRUE
SK_500976,18.313197984581926,48.462928610445914,SK,SK02,SK023,500976,Zlatno,216,15.3663549,2018,SK_500976,official,TRUE
SK_500984,18.380038116524922,48.44313799638609,SK,SK02,SK023,500984,Žikava,519,11.29322614,2018,SK_500984,official,TRUE
SK_500992,18.17571887074054,48.375892266585765,SK,SK02,SK023,500992,Žirany,1361,15.56668209,2018,SK_500992,official,TRUE
SK_501018,18.29949082640637,48.20303272111698,SK,SK02,SK023,501018,Žitavce,380,8.2765494,2018,SK_501018,official,TRUE
SK_501026,18.120335841729016,47.76493172569893,SK,SK02,SK023,501026,Komárno,34160,103.07533566,2018,SK_501026,official,TRUE
SK_501034,18.21182986361199,47.92343734954365,SK,SK02,SK023,501034,Bajč,1234,36.47590263,2018,SK_501034,official,TRUE
SK_501042,17.832647140335926,47.83166764888318,SK,SK02,SK023,501042,Bodza,392,6.35446717,2018,SK_501042,official,TRUE
SK_501069,17.823491527608496,47.85950404945035,SK,SK02,SK023,501069,Brestovec,498,7.48683189,2018,SK_501069,official,TRUE
SK_501077,18.446913895498202,47.80637005385948,SK,SK02,SK023,501077,Búč,1128,31.48644194,2018,SK_501077,official,TRUE
SK_501085,17.98608547342281,47.81991446206,SK,SK02,SK023,501085,Čalovec,1177,23.20905647,2018,SK_501085,official,TRUE
SK_501093,17.76986530660223,47.77217235369923,SK,SK02,SK023,501093,Číčov,1271,29.34976128,2018,SK_501093,official,TRUE
SK_501107,18.000039266397124,47.948243315391196,SK,SK02,SK023,501107,Dedina Mládeže,459,12.7702684,2018,SK_501107,official,TRUE
SK_501115,18.26132298714425,47.84515548538392,SK,SK02,SK023,501115,Svätý Peter,2788,34.31834127,2018,SK_501115,official,TRUE
SK_501123,18.269676903668817,47.87155140930478,SK,SK02,SK023,501123,Dulovce,1727,12.37886145,2018,SK_501123,official,TRUE
SK_501140,18.19259666270713,47.87454175526549,SK,SK02,SK023,501140,Hurbanovo,7469,59.93823715,2018,SK_501140,official,TRUE
SK_501158,18.229893887462822,47.806372090642384,SK,SK02,SK023,501158,Chotín,1395,20.42403701,2018,SK_501158,official,TRUE
SK_501166,18.14297079259975,47.90289338787778,SK,SK02,SK023,501166,Imeľ,1949,21.95646737,2018,SK_501166,official,TRUE
SK_501174,18.22744576063756,47.75220717755672,SK,SK02,SK023,501174,Iža,1651,28.02350926,2018,SK_501174,official,TRUE
SK_501182,18.0429862038673,47.81710245569348,SK,SK02,SK023,501182,Kameničná,1915,34.51557014,2018,SK_501182,official,TRUE
SK_501191,17.82284623141359,47.74887954015636,SK,SK02,SK023,501191,Klížska Nemá,490,11.9558676,2018,SK_501191,official,TRUE
SK_501204,17.99630066241014,47.91599017242404,SK,SK02,SK023,501204,Kolárovo,10546,106.77962093,2018,SK_501204,official,TRUE
SK_501212,18.48120096982225,47.76471349020978,SK,SK02,SK023,501212,Kravany nad Dunajom,717,15.87304073,2018,SK_501212,official,TRUE
SK_501221,17.856590124581526,47.812461618653145,SK,SK02,SK023,501221,Lipové,140,10.54561214,2018,SK_501221,official,TRUE
SK_501239,18.282414683876333,47.78894959299398,SK,SK02,SK023,501239,Marcelová,3731,35.74060881,2018,SK_501239,official,TRUE
SK_501247,18.12942523185313,47.85516874388235,SK,SK02,SK023,501247,Martovce,687,19.95740577,2018,SK_501247,official,TRUE
SK_501255,18.411389272067492,47.76143361742646,SK,SK02,SK023,501255,Moča,1122,17.87733946,2018,SK_501255,official,TRUE
SK_501263,18.351907588246743,47.82352937961124,SK,SK02,SK023,501263,Modrany,1361,27.06733392,2018,SK_501263,official,TRUE
SK_501271,18.321449230412423,47.82995232634118,SK,SK02,SK023,501271,Mudroňovo,123,4.00591503,2018,SK_501271,official,TRUE
SK_501280,18.127259010348258,47.927658973546734,SK,SK02,SK023,501280,Nesvady,5094,57.84181999,2018,SK_501280,official,TRUE
SK_501301,17.91691805714458,47.80377397101224,SK,SK02,SK023,501301,Okoličná na Ostrove,1491,29.89579123,2018,SK_501301,official,TRUE
SK_501310,18.28887180936208,47.743959219988746,SK,SK02,SK023,501310,Patince,451,11.31383953,2018,SK_501310,official,TRUE
SK_501328,18.314114264198007,47.899466082028205,SK,SK02,SK023,501328,Pribeta,2813,42.77768606,2018,SK_501328,official,TRUE
SK_501336,18.36203309627316,47.74704332130799,SK,SK02,SK023,501336,Radvaň nad Dunajom,697,15.76637684,2018,SK_501336,official,TRUE
SK_501344,17.824588657294278,47.852322128686055,SK,SK02,SK023,501344,Sokolce,1202,19.41392996,2018,SK_501344,official,TRUE
SK_501352,18.325317569321147,47.80422237553104,SK,SK02,SK023,501352,Šrobárová,507,8.38964576,2018,SK_501352,official,TRUE
SK_501361,17.839517615848884,47.80400598768796,SK,SK02,SK023,501361,Tôň,746,9.49413178,2018,SK_501361,official,TRUE
SK_501379,17.795640378316,47.77642355045589,SK,SK02,SK023,501379,Trávnik,695,18.54142638,2018,SK_501379,official,TRUE
SK_501387,17.886008319387905,47.76087886489479,SK,SK02,SK023,501387,Veľké Kosihy,963,24.27488687,2018,SK_501387,official,TRUE
SK_501395,18.414502446324303,47.82899380271596,SK,SK02,SK023,501395,Bátorove Kosihy,3316,45.8780316,2018,SK_501395,official,TRUE
SK_501409,18.05149800704279,47.850601849356195,SK,SK02,SK023,501409,Vrbová nad Váhom,525,21.70246394,2018,SK_501409,official,TRUE
SK_501417,17.869568589500638,47.80995813832467,SK,SK02,SK023,501417,Zemianska Olča,2332,27.94018555,2018,SK_501417,official,TRUE
SK_501425,17.97287988159797,47.770731621557196,SK,SK02,SK023,501425,Zlatná na Ostrove,2370,35.30144107,2018,SK_501425,official,TRUE
SK_501433,17.61961618209261,47.99539899138289,SK,SK02,SK021,501433,Dunajská Streda,22643,31.43820086,2018,SK_501433,official,TRUE
SK_501441,17.374464323803128,48.00592489515677,SK,SK02,SK021,501441,Báč,568,3.92692192,2018,SK_501441,official,TRUE
SK_501450,17.52338671956468,47.90720298727616,SK,SK02,SK021,501450,Baka,1096,19.99109508,2018,SK_501450,official,TRUE
SK_501468,17.67385640461226,47.83008383807215,SK,SK02,SK021,501468,Baloň,753,16.07411698,2018,SK_501468,official,TRUE
SK_501484,17.541214131142077,48.087056803349036,SK,SK02,SK021,501484,Blahová,368,11.36990835,2018,SK_501484,official,TRUE
SK_501492,17.441557448498134,48.004452331059206,SK,SK02,SK021,501492,Blatná na Ostrove,903,10.77519385,2018,SK_501492,official,TRUE
SK_501506,17.695851061157047,47.92135387339391,SK,SK02,SK021,501506,Boheľov,355,8.28672291,2018,SK_501506,official,TRUE
SK_501514,17.363538551002776,48.116831883984524,SK,SK02,SK021,501514,Čakany,639,11.17384678,2018,SK_501514,official,TRUE
SK_501522,17.768825057241315,47.85475545295352,SK,SK04,SK041,501522,Veľký Meder,8650,55.54646163,2018,SK_501522,official,TRUE
SK_501531,17.697427433981257,47.83203209269332,SK,SK02,SK021,501531,Čiližská Radvaň,1162,21.40510428,2018,SK_501531,official,TRUE
SK_501549,17.362366205014684,47.98240622604614,SK,SK02,SK021,501549,Dobrohošť,496,4.70440014,2018,SK_501549,official,TRUE
SK_501557,17.685549150994415,47.96850637010481,SK,SK02,SK021,501557,Dolný Bar,695,8.19732877,2018,SK_501557,official,TRUE
SK_501573,17.577437049734087,47.892719450804265,SK,SK02,SK021,501573,Gabčíkovo,5391,52.38589296,2018,SK_501573,official,TRUE
SK_501581,17.47884594611728,47.992894533004744,SK,SK02,SK021,501581,Holice,2003,23.1870788,2018,SK_501581,official,TRUE
SK_501590,17.495836458395736,48.036514300856524,SK,SK02,SK021,501590,Horná Potôň,2010,28.36551162,2018,SK_501590,official,TRUE
SK_501603,17.457865055658598,47.94795497746285,SK,SK02,SK021,501603,Horný Bar,1222,11.80020135,2018,SK_501603,official,TRUE
SK_501611,17.713926265353294,47.93552405760683,SK,SK02,SK021,501611,Dolný Štál,1907,30.00289423,2018,SK_501611,official,TRUE
SK_501620,17.400700034282796,48.09659510028879,SK,SK02,SK021,501620,Hubice,606,5.36382393,2018,SK_501620,official,TRUE
SK_501638,17.34726588127126,48.06658446554531,SK,SK02,SK021,501638,Hviezdoslavov,1577,10.50524941,2018,SK_501638,official,TRUE
SK_501654,17.704584380424475,48.050301621698345,SK,SK02,SK021,501654,Jahodná,1564,15.68000464,2018,SK_501654,official,TRUE
SK_501662,17.399416096669455,48.13807674882852,SK,SK02,SK021,501662,Janíky,913,11.34065359,2018,SK_501662,official,TRUE
SK_501671,17.52525267083056,47.934505312082315,SK,SK02,SK021,501671,Jurová,463,10.73779998,2018,SK_501671,official,TRUE
SK_501689,17.718786024829207,47.793787680249345,SK,SK02,SK021,501689,Kľúčovec,363,12.70409885,2018,SK_501689,official,TRUE
SK_501697,17.57155935196541,47.97326994829344,SK,SK02,SK021,501697,Kostolné Kračany,1347,13.9106813,2018,SK_501697,official,TRUE
SK_501701,17.54976233051569,47.98574243893084,SK,SK02,SK021,501701,Kráľovičove Kračany,1056,13.28272697,2018,SK_501701,official,TRUE
SK_501719,17.658990868117762,47.98198396301478,SK,SK02,SK021,501719,Kútniky,1413,10.98195372,2018,SK_501719,official,TRUE
SK_501727,17.351484886526052,48.05468155947621,SK,SK02,SK021,501727,Kvetoslavov,1430,8.09984216,2018,SK_501727,official,TRUE
SK_501735,17.453484715760883,48.056103304633304,SK,SK02,SK021,501735,Lehnice,2657,25.38223475,2018,SK_501735,official,TRUE
SK_501743,17.510941310578914,47.97187227214104,SK,SK02,SK021,501743,Lúč na Ostrove,716,15.88267012,2018,SK_501743,official,TRUE
SK_501760,17.665849866141585,47.798445378244885,SK,SK02,SK021,501760,Medveďov,531,10.35062936,2018,SK_501760,official,TRUE
SK_501778,17.384108466295263,48.07053469541961,SK,SK02,SK021,501778,Mierovo,445,6.17622589,2018,SK_501778,official,TRUE
SK_501786,17.512919013641444,48.02574946629544,SK,SK02,SK021,501786,Michal na Ostrove,965,10.65462961,2018,SK_501786,official,TRUE
SK_501808,17.453228900284607,48.11741402892815,SK,SK02,SK021,501808,Nový Život,2215,22.45799326,2018,SK_501808,official,TRUE
SK_501816,17.697676790811933,47.99273760271001,SK,SK02,SK021,501816,Ohrady,1340,14.75530178,2018,SK_501816,official,TRUE
SK_501824,17.807625186598525,47.89252215406768,SK,SK02,SK021,501824,Okoč,3579,63.43453141,2018,SK_501824,official,TRUE
SK_501832,17.425750560001806,48.08586329332069,SK,SK02,SK021,501832,Oľdza,498,8.85707974,2018,SK_501832,official,TRUE
SK_501859,17.536888354300757,48.015617746105086,SK,SK02,SK021,501859,Orechová Potôň,1698,21.06597371,2018,SK_501859,official,TRUE
SK_501867,17.683109705133983,47.92755947228424,SK,SK02,SK021,501867,Padáň,900,16.97092332,2018,SK_501867,official,TRUE
SK_501875,17.616006353649155,47.81981684990042,SK,SK02,SK021,501875,Sap,518,12.48238641,2018,SK_501875,official,TRUE
SK_501883,17.651062828765525,47.872280760420765,SK,SK02,SK021,501883,Pataš,803,9.37581282,2018,SK_501883,official,TRUE
SK_501891,17.411248925322695,47.996363937073085,SK,SK02,SK021,501891,Rohovce,1206,16.14520421,2018,SK_501891,official,TRUE
SK_501905,17.309245965034997,48.028131027421765,SK,SK02,SK021,501905,Šamorín,13324,44.33159762,2018,SK_501905,official,TRUE
SK_501913,17.35005845344231,48.09936602503027,SK,SK02,SK021,501913,Štvrtok na Ostrove,1758,13.07351407,2018,SK_501913,official,TRUE
SK_501921,17.786924790244157,47.966753872302284,SK,SK02,SK021,501921,Topoľníky,3089,34.80959838,2018,SK_501921,official,TRUE
SK_501930,17.61455930362172,47.8354621457185,SK,SK02,SK021,501930,Ňárad,632,10.45009536,2018,SK_501930,official,TRUE
SK_501956,17.40243949599378,48.01423655794552,SK,SK02,SK021,501956,Trnávka,495,7.95924158,2018,SK_501956,official,TRUE
SK_501964,17.49641722818544,47.918426829210375,SK,SK02,SK021,501964,Trstená na Ostrove,576,6.24724091,2018,SK_501964,official,TRUE
SK_501972,17.405414844589853,48.041723822290685,SK,SK02,SK021,501972,Veľká Paka,964,18.34874548,2018,SK_501972,official,TRUE
SK_501981,17.577297137914567,48.01229352802632,SK,SK02,SK021,501981,Veľké Blahovo,1586,18.12839575,2018,SK_501981,official,TRUE
SK_501999,17.382850040800214,47.97134000334764,SK,SK02,SK021,501999,Vojka nad Dunajom,475,8.1943028000000009,2018,SK_501999,official,TRUE
SK_502006,17.603572776617465,47.93944244591516,SK,SK02,SK021,502006,Vrakúň,2666,38.31920668,2018,SK_502006,official,TRUE
SK_502014,17.591836725771138,48.01999788521663,SK,SK02,SK021,502014,Vydrany,1695,16.04775191,2018,SK_502014,official,TRUE
SK_502022,17.418377768618694,48.121390842780215,SK,SK02,SK021,502022,Zlaté Klasy,3614,11.95445915,2018,SK_502022,official,TRUE
SK_502031,18.608151010415046,48.21027589006557,SK,SK02,SK023,502031,Levice,33332,60.99906844,2018,SK_502031,official,TRUE
SK_502049,18.518025985470707,48.151242420474524,SK,SK02,SK023,502049,Bajka,321,5.74837905,2018,SK_502049,official,TRUE
SK_502057,18.74484348613005,48.28792783492359,SK,SK02,SK023,502057,Bátovce,1148,31.62175706,2018,SK_502057,official,TRUE
SK_502065,18.399448442373576,48.14265976213259,SK,SK02,SK023,502065,"Beša, okres Levice",638,7.27867624,2018,SK_502065,official,TRUE
SK_502073,18.783418222102565,47.988138487169515,SK,SK02,SK023,502073,Bielovce,224,11.37206331,2018,SK_502073,official,TRUE
SK_502090,18.75272860475497,48.17809017481121,SK,SK02,SK023,502090,Bory,315,8.80764222,2018,SK_502090,official,TRUE
SK_502103,18.738694313279762,48.2154874229392,SK,SK02,SK023,502103,Brhlovce,305,13.38855061,2018,SK_502103,official,TRUE
SK_502111,18.59619056419322,48.289906808129764,SK,SK02,SK023,502111,Čajkov,969,23.92543097,2018,SK_502111,official,TRUE
SK_502120,18.472199670326916,48.039606366621214,SK,SK02,SK023,502120,Čaka,738,9.06356748,2018,SK_502120,official,TRUE
SK_502154,18.784048062534783,48.124447825880864,SK,SK02,SK023,502154,Demandice,963,21.93071636,2018,SK_502154,official,TRUE
SK_502162,18.710219563695247,48.323408395606535,SK,SK02,SK023,502162,Devičany,381,29.88625941,2018,SK_502162,official,TRUE
SK_502171,18.562829638796853,48.177086277869016,SK,SK02,SK023,502171,Dolná Seč,478,8.79060858,2018,SK_502171,official,TRUE
SK_502189,18.849634955526508,48.11187000765629,SK,SK02,SK023,502189,Dolné Semerovce,552,11.85256147,2018,SK_502189,official,TRUE
SK_502197,18.46045045110714,48.13081196500688,SK,SK02,SK023,502197,Dolný Pial,929,13.99658261,2018,SK_502197,official,TRUE
SK_502201,18.779530391454387,48.176275301994956,SK,SK02,SK023,502201,Domadice,236,13.60906235,2018,SK_502201,official,TRUE
SK_502219,18.69434917999252,48.276480601497,SK,SK02,SK023,502219,Drženice,375,12.86600918,2018,SK_502219,official,TRUE
SK_502227,18.508323469724782,48.006507742167074,SK,SK02,SK023,502227,Farná,1342,32.74329733,2018,SK_502227,official,TRUE
SK_502243,18.87118263954552,48.15749840749343,SK,SK02,SK023,502243,Hokovce,510,14.3976934,2018,SK_502243,official,TRUE
SK_502251,18.704988051725344,48.13630596607087,SK,SK02,SK023,502251,Hontianska Vrbica,588,23.84866597,2018,SK_502251,official,TRUE
SK_502260,18.54193084085017,48.19502248376535,SK,SK02,SK023,502260,Horná Seč,550,8.29842818,2018,SK_502260,official,TRUE
SK_502278,18.87901531571556,48.1226338602743,SK,SK02,SK023,502278,Horné Semerovce,626,10.09877119,2018,SK_502278,official,TRUE
SK_502286,18.946911922665517,48.12619270906348,SK,SK02,SK023,502286,Horné Turovce,588,12.96962466,2018,SK_502286,official,TRUE
SK_502294,18.451195735915714,48.156405479403446,SK,SK02,SK023,502294,Horný Pial,263,6.34829741,2018,SK_502294,official,TRUE
SK_502324,18.655191035283394,48.002728304349226,SK,SK02,SK023,502324,Hronovce,1473,30.95089376,2018,SK_502324,official,TRUE
SK_502332,18.57208715629312,48.24049589811922,SK,SK02,SK023,502332,Hronské Kľačany,1429,7.86814625,2018,SK_502332,official,TRUE
SK_502341,18.592416056107542,48.26473719204205,SK,SK02,SK023,502341,Hronské Kosihy,708,7.08766406,2018,SK_502341,official,TRUE
SK_502359,18.415810727790127,48.17530248501266,SK,SK02,SK023,502359,Iňa,218,5.67702899,2018,SK_502359,official,TRUE
SK_502367,19.044704598030467,48.127218884036495,SK,SK02,SK023,502367,Ipeľské Úľany,277,15.68259997,2018,SK_502367,official,TRUE
SK_502375,18.80614069171604,48.01979077442433,SK,SK02,SK023,502375,Ipeľský Sokolec,831,18.13057286,2018,SK_502375,official,TRUE
SK_502383,18.791112367262375,48.31958707581854,SK,SK02,SK023,502383,Jabloňovce,201,34.6732024,2018,SK_502383,official,TRUE
SK_502391,18.63181433019848,48.12417396348438,SK,SK02,SK023,502391,Jur nad Hronom,948,15.19335232,2018,SK_502391,official,TRUE
SK_502413,18.5219677487232,48.197087862460364,SK,SK02,SK023,502413,Kalná nad Hronom,2077,34.14379216,2018,SK_502413,official,TRUE
SK_502421,18.52068610285622,48.30874526384661,SK,SK02,SK023,502421,Kozárovce,2075,21.82468488,2018,SK_502421,official,TRUE
SK_502430,18.671512036004682,48.216312473913355,SK,SK02,SK023,502430,Krškany,759,17.00870762,2018,SK_502430,official,TRUE
SK_502448,18.811935217430854,48.057291035346616,SK,SK02,SK023,502448,Kubáňovo,272,12.05472106,2018,SK_502448,official,TRUE
SK_502456,18.696645474834945,48.092063281128624,SK,SK02,SK023,502456,Kukučínov,600,11.29699246,2018,SK_502456,official,TRUE
SK_502464,18.542940175169306,47.97851786748541,SK,SK02,SK023,502464,Kuraľany,508,10.67535704,2018,SK_502464,official,TRUE
SK_502472,18.567918958578545,47.96642317201904,SK,SK02,SK023,502472,Keť,594,19.65135361,2018,SK_502472,official,TRUE
SK_502481,18.45935865455756,48.18286782577278,SK,SK02,SK023,502481,Lok,955,17.18753122,2018,SK_502481,official,TRUE
SK_502499,18.775500577341273,48.040890958178636,SK,SK02,SK023,502499,Lontov,670,15.06000096,2018,SK_502499,official,TRUE
SK_502502,18.360614913763555,48.18137974531667,SK,SK02,SK023,502502,Lula,166,8.39009826,2018,SK_502502,official,TRUE
SK_502511,18.526302619030222,48.0510250833477,SK,SK02,SK023,502511,Málaš,474,15.9727165,2018,SK_502511,official,TRUE
SK_502537,18.695271026998242,47.98457223792651,SK,SK02,SK023,502537,Malé Ludince,166,6.78868982,2018,SK_502537,official,TRUE
SK_502570,18.66516303865071,48.16642427090702,SK,SK02,SK023,502570,Mýtne Ludany,964,17.65130934,2018,SK_502570,official,TRUE
SK_502588,18.64168990122711,48.28071503812402,SK,SK02,SK023,502588,Nová Dedina,1513,29.16415026,2018,SK_502588,official,TRUE
SK_502596,18.516589573100713,48.24402533693394,SK,SK02,SK023,502596,Nový Tekov,860,29.70553605,2018,SK_502596,official,TRUE
SK_502600,18.5777056523968,48.022866388711435,SK,SK02,SK023,502600,Nýrovce,514,13.49053593,2018,SK_502600,official,TRUE
SK_502618,18.514904186928018,48.13375004154572,SK,SK02,SK023,502618,Ondrejovce,467,19.61520014,2018,SK_502618,official,TRUE
SK_502626,18.75231359048359,47.969936539761356,SK,SK02,SK023,502626,Pastovce,487,12.8581472,2018,SK_502626,official,TRUE
SK_502634,18.77312493793508,48.294437736497116,SK,SK02,SK023,502634,Pečenice,116,7.91500573,2018,SK_502634,official,TRUE
SK_502642,18.979560017512522,48.15971441118711,SK,SK02,SK023,502642,Plášťovce,1547,50.49214031,2018,SK_502642,official,TRUE
SK_502651,18.464369240435655,48.07094963743037,SK,SK02,SK023,502651,Plavé Vozokany,782,23.13805102,2018,SK_502651,official,TRUE
SK_502669,18.603107523566482,48.25316065717179,SK,SK02,SK023,502669,Podlužany,762,8.74973029,2018,SK_502669,official,TRUE
SK_502677,18.65059578974737,47.973960941600374,SK,SK02,SK023,502677,Pohronský Ruskov,1254,9.12567391,2018,SK_502677,official,TRUE
SK_502693,18.724922300207805,48.35235001086275,SK,SK02,SK023,502693,Pukanec,1859,26.20662587,2018,SK_502693,official,TRUE
SK_502707,18.55986318074986,48.29250195130612,SK,SK02,SK023,502707,Rybník,1431,24.68909927,2018,SK_502707,official,TRUE
SK_502715,18.76488529278627,48.15769812966279,SK,SK02,SK023,502715,Santovka,659,17.85997345,2018,SK_502715,official,TRUE
SK_502723,18.794613337616408,48.09094314246236,SK,SK02,SK023,502723,Sazdice,475,18.2391623,2018,SK_502723,official,TRUE
SK_502731,18.719633932776432,48.06725715063552,SK,SK02,SK023,502731,Sikenica,649,25.54871997,2018,SK_502731,official,TRUE
SK_502740,18.89869545110842,48.14775483418512,SK,SK02,SK023,502740,Slatina,313,9.49878058,2018,SK_502740,official,TRUE
SK_502758,18.639173140084004,48.15190435442263,SK,SK02,SK023,502758,Starý Hrádok,191,6.56473746,2018,SK_502758,official,TRUE
SK_502766,18.53506884363782,48.244533294169436,SK,SK02,SK023,502766,Starý Tekov,1451,10.58030108,2018,SK_502766,official,TRUE
SK_502782,18.950962349001696,48.073876585251945,SK,SK02,SK023,502782,Šahy,7321,42.73085606,2018,SK_502782,official,TRUE
SK_502791,18.708851297852508,48.001440758692965,SK,SK02,SK023,502791,Šalov,370,19.03727953,2018,SK_502791,official,TRUE
SK_502804,18.632319733335848,48.10665232779512,SK,SK02,SK023,502804,Šarovce,1616,25.37329177,2018,SK_502804,official,TRUE
SK_502812,18.387992194450753,48.18332885625738,SK,SK02,SK023,502812,Tehla,509,19.08879622,2018,SK_502812,official,TRUE
SK_502821,18.53968582716931,48.09967668255019,SK,SK02,SK023,502821,Tekovské Lužany,2860,43.93303159,2018,SK_502821,official,TRUE
SK_502847,18.54908160164186,48.167818648285014,SK,SK02,SK023,502847,Tekovský Hrádok,349,7.3123277,2018,SK_502847,official,TRUE
SK_502863,18.516021922071346,48.29594080811448,SK,SK02,SK023,502863,Tlmače,3570,4.62888262,2018,SK_502863,official,TRUE
SK_502871,18.89080256364191,48.114961389754015,SK,SK02,SK023,502871,Tupá,594,11.96638267,2018,SK_502871,official,TRUE
SK_502880,18.57843486268278,48.15571565442886,SK,SK02,SK023,502880,Turá,205,9.2852949,2018,SK_502880,official,TRUE
SK_502898,18.752059863439424,48.40148898649787,SK,SK02,SK023,502898,Uhliská,184,14.09287102,2018,SK_502898,official,TRUE
SK_502910,18.50963112866129,47.96196480556273,SK,SK02,SK023,502910,Veľké Ludince,1471,31.80907537,2018,SK_502910,official,TRUE
SK_502928,18.942675080878654,48.102289364261,SK,SK02,SK023,502928,Veľké Turovce,747,9.19024166,2018,SK_502928,official,TRUE
SK_502936,18.449490904932127,48.209853305560245,SK,SK02,SK023,502936,Veľký Ďur,1289,22.01725178,2018,SK_502936,official,TRUE
SK_502944,18.867302668106056,48.05922446326737,SK,SK02,SK023,502944,Vyškovce nad Ipľom,673,19.28962248,2018,SK_502944,official,TRUE
SK_502952,18.587561550972303,48.163679032042,SK,SK02,SK023,502952,Vyšné nad Hronom,183,6.46884088,2018,SK_502952,official,TRUE
SK_502961,18.70225295384393,47.96334481244411,SK,SK01,SK010,502961,Zalaba,180,7.35746329,2018,SK_502961,official,TRUE
SK_502979,18.701599092872055,48.11541289812897,SK,SK02,SK023,502979,Zbrojníky,507,16.35692285,2018,SK_502979,official,TRUE
SK_502987,18.653327893480682,48.05021826896137,SK,SK02,SK023,502987,Želiezovce,6859,56.51452221,2018,SK_502987,official,TRUE
SK_502995,18.73918840407434,48.260536017125396,SK,SK02,SK021,502995,Žemberovce,1261,29.50978058,2018,SK_502995,official,TRUE
SK_503002,18.59902069341958,48.1450911778073,SK,SK03,SK032,503002,Žemliare,154,4.43178414,2018,SK_503002,official,TRUE
SK_503011,18.161640016064155,47.9830161552417,SK,SK02,SK023,503011,Nové Zámky,38172,72.56734036,2018,SK_503011,official,TRUE
SK_503029,18.103400558573302,47.99275232958051,SK,SK02,SK023,503029,Andovce,1472,10.77336142,2018,SK_503029,official,TRUE
SK_503037,18.746348912772316,47.852770169630084,SK,SK02,SK023,503037,Bajtava,403,9.3204471,2018,SK_503037,official,TRUE
SK_503045,18.19051456353705,48.04905676487874,SK,SK02,SK023,503045,Bánov,3722,19.75488592,2018,SK_503045,official,TRUE
SK_503053,18.42094146726455,48.111942691794425,SK,SK02,SK023,503053,Bardoňovo,695,23.79854566,2018,SK_503053,official,TRUE
SK_503061,18.598533766985835,47.82899312415103,SK,SK02,SK023,503061,Belá,328,8.69232038,2018,SK_503061,official,TRUE
SK_503070,18.266726957015116,48.044142078032394,SK,SK02,SK023,503070,Bešeňov,1627,17.0887656,2018,SK_503070,official,TRUE
SK_503088,18.640777009204953,47.919065933632766,SK,SK02,SK023,503088,Bíňa,1451,23.48956211,2018,SK_503088,official,TRUE
SK_503096,18.30740187269812,48.022733091354624,SK,SK02,SK023,503096,Branovo,586,9.31925493,2018,SK_503096,official,TRUE
SK_503100,18.579441418973136,47.92219285414314,SK,SK02,SK023,503100,Bruty,599,20.53173603,2018,SK_503100,official,TRUE
SK_503118,18.376079629309675,48.03547659528243,SK,SK02,SK023,503118,Čechy,300,11.84752002,2018,SK_503118,official,TRUE
SK_503126,18.22304770639959,48.15731043993158,SK,SK02,SK023,503126,Černík,1057,13.39423256,2018,SK_503126,official,TRUE
SK_503134,18.422788446729673,48.06781690183997,SK,SK02,SK023,503134,Dedinka,707,18.51285738,2018,SK_503134,official,TRUE
SK_503151,18.249572671274684,48.07986096446794,SK,SK02,SK023,503151,Dolný Ohaj,1556,17.02973931,2018,SK_503151,official,TRUE
SK_503169,18.407028694974194,47.959238525930864,SK,SK02,SK023,503169,Dubník,1602,41.00560005,2018,SK_503169,official,TRUE
SK_503177,18.26803056336899,47.99276270343764,SK,SK02,SK023,503177,Dvory nad Žitavou,5084,63.83476761,2018,SK_503177,official,TRUE
SK_503185,18.511729056677733,47.85243749329433,SK,SK02,SK023,503185,Gbelce,2170,26.61112088,2018,SK_503185,official,TRUE
SK_503193,18.267606410647808,48.10293465050079,SK,SK02,SK023,503193,Hul,1181,12.67282977,2018,SK_503193,official,TRUE
SK_503207,18.82367665932938,47.82874022038975,SK,SK02,SK023,503207,Chľaba,711,13.95455305,2018,SK_503207,official,TRUE
SK_503215,18.396644858735463,47.98872646320364,SK,SK02,SK023,503215,Jasová,1149,19.92993236,2018,SK_503215,official,TRUE
SK_503223,18.023256806399036,48.12789253359233,SK,SK02,SK023,503223,Jatov,751,18.65114458,2018,SK_503223,official,TRUE
SK_503231,18.733394682927464,47.82776219269439,SK,SK02,SK023,503231,Kamenica nad Hronom,1342,18.6923423,2018,SK_503231,official,TRUE
SK_503240,18.643478280802146,47.888251511137824,SK,SK02,SK023,503240,Kamenín,1448,28.05398111,2018,SK_503240,official,TRUE
SK_503258,18.656159292152612,47.8509329213919,SK,SK02,SK023,503258,Kamenný Most,1058,20.33291774,2018,SK_503258,official,TRUE
SK_503266,18.278128305413812,48.16893491270177,SK,SK02,SK023,503266,Kmeťovo,844,5.19405095,2018,SK_503266,official,TRUE
SK_503274,18.41520654845387,48.017379293249796,SK,SK02,SK023,503274,Kolta,1289,25.82852224,2018,SK_503274,official,TRUE
SK_503282,18.16999939799858,48.156091941830795,SK,SK02,SK023,503282,Komjatice,4315,30.74371784,2018,SK_503282,official,TRUE
SK_503291,18.02608664851142,47.9527695640983,SK,SK02,SK023,503291,Komoča,949,13.4723565,2018,SK_503291,official,TRUE
SK_503312,18.77601412716896,47.8594213660214,SK,SK02,SK023,503312,Leľa,307,8.23593358,2018,SK_503312,official,TRUE
SK_503321,18.17959690986091,48.11424283280082,SK,SK02,SK023,503321,Lipová,1518,13.61470782,2018,SK_503321,official,TRUE
SK_503339,18.599817780936903,47.846775218085355,SK,SK02,SK023,503339,Ľubá,426,9.40172541,2018,SK_503339,official,TRUE
SK_503347,18.682763858875315,47.856932558053096,SK,SK02,SK023,503347,Malá nad Hronom,383,7.71828983,2018,SK_503347,official,TRUE
SK_503355,18.749608419907325,47.925024649369604,SK,SK02,SK023,503355,Malé Kosihy,389,8.42370463,2018,SK_503355,official,TRUE
SK_503363,18.28697190947578,48.152642255120995,SK,SK02,SK023,503363,Maňa,2061,21.59427428,2018,SK_503363,official,TRUE
SK_503371,18.28038184245723,48.187471125947134,SK,SK02,SK023,503371,Michal nad Žitavou,667,8.1801208,2018,SK_503371,official,TRUE
SK_503380,18.155093744137275,48.18145864232082,SK,SK02,SK023,503380,Veľký Kýr,2999,23.6457689,2018,SK_503380,official,TRUE
SK_503398,18.235300638814728,48.13653921186668,SK,SK02,SK023,503398,Mojzesovo,1323,7.48949294,2018,SK_503398,official,TRUE
SK_503401,18.59484293175927,47.788929208695706,SK,SK02,SK023,503401,Mužla,1884,51.93586893,2018,SK_503401,official,TRUE
SK_503436,18.464797791167335,47.86985736502562,SK,SK02,SK023,503436,Nová Vieska,696,17.6099598,2018,SK_503436,official,TRUE
SK_503452,18.070191966120504,48.04129328808804,SK,SK02,SK023,503452,Palárikovo,4243,51.29753445,2018,SK_503452,official,TRUE
SK_503461,17.458993607570715,47.922845796915155,SK,SK02,SK021,503461,Bodíky,260,24.71924421,2018,SK_503461,official,TRUE
SK_503479,18.337596642514292,48.10861565617726,SK,SK02,SK023,503479,Podhájska,1019,11.11025802,2018,SK_503479,official,TRUE
SK_503487,18.389535110005735,48.1159012591534,SK,SK02,SK023,503487,Pozba,450,9.40578191,2018,SK_503487,official,TRUE
SK_503495,18.305668882704648,48.09511847489378,SK,SK02,SK023,503495,Radava,755,7.54285885,2018,SK_503495,official,TRUE
SK_503509,18.075365341161998,48.139438523338455,SK,SK02,SK023,503509,Rastislavice,906,19.59987481,2018,SK_503509,official,TRUE
SK_503517,18.399766159957068,47.92844937776682,SK,SK02,SK023,503517,Rúbaň,966,16.11149774,2018,SK_503517,official,TRUE
SK_503525,18.756445191493242,47.88648029314673,SK,SK02,SK023,503525,Salka,996,26.06000444,2018,SK_503525,official,TRUE
SK_503533,18.35294753448385,48.01003880837648,SK,SK02,SK023,503533,Semerovo,1383,23.40083601,2018,SK_503533,official,TRUE
SK_503541,18.683723905373103,47.93396363086735,SK,SK02,SK023,503541,Sikenička,426,13.91248533,2018,SK_503541,official,TRUE
SK_503550,18.41779494189057,47.9025863182606,SK,SK02,SK023,503550,Strekov,1979,41.05158955,2018,SK_503550,official,TRUE
SK_503568,18.50016491347721,47.91133060699409,SK,SK02,SK023,503568,Svodín,2478,53.73097739,2018,SK_503568,official,TRUE
SK_503576,18.55107293361208,47.85991894432206,SK,SK02,SK023,503576,Šarkan,378,13.37259499,2018,SK_503576,official,TRUE
SK_503584,18.713399327304366,47.79241309762678,SK,SK02,SK023,503584,Štúrovo,10390,13.44999017,2018,SK_503584,official,TRUE
SK_503592,18.183249776886136,48.08992510231401,SK,SK02,SK023,503592,Šurany,9878,59.80728962,2018,SK_503592,official,TRUE
SK_503606,18.340089712145787,48.14208426987007,SK,SK02,SK023,503606,Trávnica,1059,21.15355447,2018,SK_503606,official,TRUE
SK_503614,18.06248089525411,48.095550802565725,SK,SK02,SK023,503614,Tvrdošovce,5156,55.5475812,2018,SK_503614,official,TRUE
SK_503631,18.338922138153414,48.06407955046969,SK,SK02,SK023,503631,Veľké Lovce,1860,25.85047315,2018,SK_503631,official,TRUE
SK_503649,17.99521518726277,47.982816762278915,SK,SK02,SK023,503649,Zemné,2167,26.33552024,2018,SK_503649,official,TRUE
SK_503665,17.72331854737718,48.19217497928774,SK,SK02,SK021,503665,Galanta,15029,33.90902873,2018,SK_503665,official,TRUE
SK_503673,17.617897239198232,48.248383191706125,SK,SK02,SK021,503673,Abrahám,1032,15.77917821,2018,SK_503673,official,TRUE
SK_503681,17.430778973407307,48.236705797444294,SK,SK01,SK010,503681,Boldog,464,4.49287377,2018,SK_503681,official,TRUE
SK_503690,17.64838419268219,48.124986949991914,SK,SK02,SK021,503690,Čierna Voda,1375,12.14056563,2018,SK_503690,official,TRUE
SK_503703,17.656333341678263,48.151248960961695,SK,SK02,SK021,503703,Čierny Brod,1624,17.69622045,2018,SK_503703,official,TRUE
SK_503711,17.843053449394514,48.135760120541235,SK,SK02,SK023,503711,Diakovce,2277,26.28037566,2018,SK_503711,official,TRUE
SK_503720,17.85940391760081,48.17266308990247,SK,SK02,SK023,503720,Dlhá nad Váhom,888,9.0688096,2018,SK_503720,official,TRUE
SK_503746,17.78156024066799,48.106655745149986,SK,SK02,SK021,503746,Dolné Saliby,1988,18.6792666,2018,SK_503746,official,TRUE
SK_503754,17.859818145423866,48.00152866797573,SK,SK02,SK021,503754,Dolný Chotár,404,13.88479401,2018,SK_503754,official,TRUE
SK_503762,17.718251839134812,48.22848761309809,SK,SK02,SK021,503762,Gáň,815,6.177823,2018,SK_503762,official,TRUE
SK_503771,17.7511328387023,48.1223936980269,SK,SK02,SK021,503771,Horné Saliby,3283,34.86060069,2018,SK_503771,official,TRUE
SK_503789,17.641847100959602,48.260812467625044,SK,SK02,SK021,503789,Hoste,460,4.48740456,2018,SK_503789,official,TRUE
SK_503797,17.481160787929987,48.18149515087241,SK,SK01,SK010,503797,Hrubá Borša,891,5.84874159,2018,SK_503797,official,TRUE
SK_503801,17.420600896205627,48.17006768353191,SK,SK01,SK010,503801,Hrubý Šúr,971,6.20254655,2018,SK_503801,official,TRUE
SK_503819,17.436542518456505,48.15223097447607,SK,SK01,SK010,503819,Hurbanova Ves,342,5.41223194,2018,SK_503819,official,TRUE
SK_503827,17.5333007610891,48.17793886384562,SK,SK02,SK021,503827,"Jánovce, okres Galanta",486,3.58798435,2018,SK_503827,official,TRUE
SK_503835,17.50890894005691,48.144397086212614,SK,SK02,SK021,503835,Jelka,3957,32.66099958,2018,SK_503835,official,TRUE
SK_503843,17.786487810296403,48.187393835346114,SK,SK02,SK021,503843,Kajal,1519,13.82107319,2018,SK_503843,official,TRUE
SK_503851,17.43009303927123,48.17800744153927,SK,SK01,SK010,503851,Kostolná pri Dunaji,681,8.06787004,2018,SK_503851,official,TRUE
SK_503860,17.657064946922354,48.170707200609364,SK,SK02,SK021,503860,Košúty,1683,14.72413907,2018,SK_503860,official,TRUE
SK_503878,17.826689231316436,48.05804978789203,SK,SK02,SK021,503878,Kráľov Brod,1097,23.65292757,2018,SK_503878,official,TRUE
SK_503886,17.84398987684314,48.16605531772001,SK,SK02,SK023,503886,Kráľová nad Váhom,1793,9.50501231,2018,SK_503886,official,TRUE
SK_503894,17.449338046471,48.20006655774648,SK,SK01,SK010,503894,Kráľová pri Senci,2006,19.9050966,2018,SK_503894,official,TRUE
SK_503924,17.67769386418497,48.140784354046154,SK,SK02,SK021,503924,Mostová,1591,25.15223493,2018,SK_503924,official,TRUE
SK_503932,17.966852855101816,48.020633769600124,SK,SK02,SK023,503932,Neded,3318,36.00723614,2018,SK_503932,official,TRUE
SK_503959,17.821357183870166,48.27652128186333,SK,SK02,SK021,503959,Pata,3131,17.54878342,2018,SK_503959,official,TRUE
SK_503967,17.82595708282374,48.31127031055856,SK,SK02,SK021,503967,Pusté Sady,589,8.02572399,2018,SK_503967,official,TRUE
SK_503975,17.57364371001979,48.22962266500432,SK,SK02,SK021,503975,Pusté Úľany,1791,24.53416985,2018,SK_503975,official,TRUE
SK_503983,17.45819220867759,48.22878346974616,SK,SK01,SK010,503983,Reca,1502,9.92074701,2018,SK_503983,official,TRUE
SK_503991,17.96553312150684,48.09392907636542,SK,SK02,SK023,503991,Selice,2844,38.35118383,2018,SK_503991,official,TRUE
SK_504009,17.736638369119447,48.28664318355202,SK,SK02,SK021,504009,Sereď,15726,30.4596606,2018,SK_504009,official,TRUE
SK_504017,17.635877740516097,48.200748456127656,SK,SK02,SK021,504017,Sládkovičovo,5281,29.07531301,2018,SK_504017,official,TRUE
SK_504025,17.87786282268121,48.15547569876052,SK,SK02,SK023,504025,Šaľa,22219,44.95654096,2018,SK_504025,official,TRUE
SK_504033,17.81616425765019,48.336990474585015,SK,SK02,SK021,504033,Šalgočka,460,4.74406089,2018,SK_504033,official,TRUE
SK_504041,17.75426833160461,48.280808523816944,SK,SK02,SK021,504041,Šintava,1731,11.56305594,2018,SK_504041,official,TRUE
SK_504050,17.818927736565307,48.25235874964188,SK,SK02,SK021,504050,Šoporňa,4228,31.37908289,2018,SK_504050,official,TRUE
SK_504068,17.848551852061487,48.1042763109832,SK,SK02,SK023,504068,Tešedíkovo,3699,22.77525509,2018,SK_504068,official,TRUE
SK_504076,17.692899036552046,48.08114043793703,SK,SK02,SK021,504076,Tomášikovo,1686,21.13810483,2018,SK_504076,official,TRUE
SK_504084,17.790391231321575,48.16905027849482,SK,SK02,SK021,504084,Topoľnica,821,10.47202121,2018,SK_504084,official,TRUE
SK_504092,17.928951507120615,48.149518432115514,SK,SK02,SK023,504092,Trnovec nad Váhom,2709,32.53281422,2018,SK_504092,official,TRUE
SK_504106,17.805911338176045,48.01597660637482,SK,SK02,SK021,504106,Trstice,3741,20.24876219,2018,SK_504106,official,TRUE
SK_504114,17.784115215525613,48.25026061010955,SK,SK02,SK021,504114,Váhovce,2098,15.97441195,2018,SK_504114,official,TRUE
SK_504122,17.690667261702963,48.24069517744288,SK,SK02,SK021,504122,Veľká Mača,2523,14.80356398,2018,SK_504122,official,TRUE
SK_504131,17.573718572625204,48.164986465265464,SK,SK02,SK021,504131,Veľké Úľany,4523,41.84729237,2018,SK_504131,official,TRUE
SK_504149,17.492514942469892,48.25249872757766,SK,SK02,SK021,504149,Veľký Grob,1335,23.53510369,2018,SK_504149,official,TRUE
SK_504157,17.760483389100994,48.31739045752275,SK,SK02,SK021,504157,Vinohrady nad Váhom,1590,10.69828193,2018,SK_504157,official,TRUE
SK_504165,17.946570340041863,48.03296306909465,SK,SK02,SK023,504165,Vlčany,3222,39.75151031,2018,SK_504165,official,TRUE
SK_504173,17.68654172318558,48.10288584026768,SK,SK02,SK021,504173,Vozokany,1145,12.88142803,2018,SK_504173,official,TRUE
SK_504181,17.818269348947684,48.328976750252615,SK,SK02,SK021,504181,Zemianske Sady,870,8.04789623,2018,SK_504181,official,TRUE
SK_504190,17.885433778731002,48.07223843534361,SK,SK02,SK023,504190,Žihárec,1701,17.05258376,2018,SK_504190,official,TRUE
SK_504203,17.36868208723997,48.68220628112762,SK,SK02,SK021,504203,Senica,20342,50.31172228,2018,SK_504203,official,TRUE
SK_504211,17.24098013921639,48.58593769612944,SK,SK02,SK021,504211,Bílkove Humence,201,4.10319459,2018,SK_504211,official,TRUE
SK_504220,17.042479941181053,48.614044501543724,SK,SK02,SK021,504220,Borský Svätý Jur,1655,39.70518844,2018,SK_504220,official,TRUE
SK_504238,17.214679948798302,48.630928302574844,SK,SK02,SK021,504238,Borský Mikuláš,3994,49.9483798,2018,SK_504238,official,TRUE
SK_504254,17.55967503259612,48.79043660763318,SK,SK02,SK022,504254,Brestovec,973,17.36141818,2018,SK_504254,official,TRUE
SK_504262,17.540095658360716,48.66513135133892,SK,SK02,SK022,504262,Brezová pod Bradlom,4871,41.08183262,2018,SK_504262,official,TRUE
SK_504271,17.01293275474766,48.690917555917785,SK,SK02,SK021,504271,Brodské,2294,19.87314282,2018,SK_504271,official,TRUE
SK_504289,17.498087998084582,48.69864469943841,SK,SK02,SK022,504289,Bukovec,440,15.47706946,2018,SK_504289,official,TRUE
SK_504297,17.378424920756828,48.586984065212846,SK,SK02,SK021,504297,Cerová,1157,21.88582226,2018,SK_504297,official,TRUE
SK_504319,17.093775977421878,48.658470578304964,SK,SK02,SK021,504319,Čáry,1309,14.9505918,2018,SK_504319,official,TRUE
SK_504327,17.348566904984647,48.74932393803888,SK,SK02,SK021,504327,Častkov,600,13.14471656,2018,SK_504327,official,TRUE
SK_504335,17.252449204959827,48.677595261124594,SK,SK02,SK021,504335,Dojč,1266,20.37310738,2018,SK_504335,official,TRUE
SK_504343,17.24276780155027,48.775467319027904,SK,SK02,SK021,504343,Dubovce,632,8.44572365,2018,SK_504343,official,TRUE
SK_504351,17.11834070093758,48.71586017927461,SK,SK02,SK021,504351,Gbely,5155,59.92519657,2018,SK_504351,official,TRUE
SK_504360,17.404944438247714,48.65648376643976,SK,SK02,SK021,504360,Hlboké,921,20.12647909,2018,SK_504360,official,TRUE
SK_504378,17.162528388608777,48.81098860694841,SK,SK02,SK021,504378,Holíč,11171,34.81636093,2018,SK_504378,official,TRUE
SK_504386,17.490500087075624,48.624654164914524,SK,SK02,SK021,504386,Hradište pod Vrátnom,671,25.18941964,2018,SK_504386,official,TRUE
SK_504394,17.319074580680166,48.772667942880396,SK,SK02,SK021,504394,Chropov,390,17.77234529,2018,SK_504394,official,TRUE
SK_504408,17.4088677501145,48.795863562687515,SK,SK02,SK022,504408,Chvojnica,356,16.36826467,2018,SK_504408,official,TRUE
SK_504416,17.421687274120192,48.603457181782325,SK,SK02,SK021,504416,Jablonica,2235,31.4220555,2018,SK_504416,official,TRUE
SK_504424,17.615807233365153,48.725147936373816,SK,SK02,SK022,504424,Jablonka,489,12.57790626,2018,SK_504424,official,TRUE
SK_504432,17.16873751369519,48.834383892578266,SK,SK02,SK021,504432,Kátov,638,4.27038613,2018,SK_504432,official,TRUE
SK_504459,17.111071715367284,48.786376766183324,SK,SK02,SK021,504459,Kopčany,2582,21.78753274,2018,SK_504459,official,TRUE
SK_504467,17.59494127596524,48.67071400746851,SK,SK02,SK022,504467,Košariská,437,11.52783349,2018,SK_504467,official,TRUE
SK_504475,17.28668614468259,48.70563585527288,SK,SK02,SK021,504475,Koválov,696,13.60706129,2018,SK_504475,official,TRUE
SK_504483,17.298076444225156,48.780928161996115,SK,SK02,SK021,504483,Koválovec,146,8.48908623,2018,SK_504483,official,TRUE
SK_504491,17.072106191777983,48.641886788636704,SK,SK02,SK021,504491,Kuklov,782,18.69737176,2018,SK_504491,official,TRUE
SK_504513,17.026195176385507,48.66087451465401,SK,SK02,SK021,504513,Kúty,4006,27.14749312,2018,SK_504513,official,TRUE
SK_504521,17.186708825575597,48.58023926654765,SK,SK02,SK021,504521,Lakšárska Nová Ves,1111,36.90059191,2018,SK_504521,official,TRUE
SK_504530,17.175396546728773,48.71118121913948,SK,SK02,SK021,504530,Letničie,504,6.6989892,2018,SK_504530,official,TRUE
SK_504548,17.334415670428218,48.751392563990514,SK,SK02,SK021,504548,Lopašov,326,5.20755548,2018,SK_504548,official,TRUE
SK_504556,16.971614088760145,48.50384143337854,SK,SK01,SK010,504556,Malé Leváre,1242,21.4118835,2018,SK_504556,official,TRUE
SK_504564,17.247480469574292,48.81129180355771,SK,SK02,SK021,504564,Mokrý Háj,717,6.87090059,2018,SK_504564,official,TRUE
SK_504572,17.001584836796873,48.58552632316232,SK,SK02,SK021,504572,Moravský Svätý Ján,2127,39.02092977,2018,SK_504572,official,TRUE
SK_504581,17.566842059997057,48.753092804453054,SK,SK02,SK022,504581,Myjava,11708,48.5132025,2018,SK_504581,official,TRUE
SK_504599,17.306022850154918,48.74423234107577,SK,SK02,SK021,504599,Oreské,390,3.72655261,2018,SK_504599,official,TRUE
SK_504602,17.438828134138834,48.626982300201284,SK,SK02,SK021,504602,Osuské,611,11.60826501,2018,SK_504602,official,TRUE
SK_504611,17.16614014197408,48.72245345671864,SK,SK02,SK021,504611,Petrova Ves,1074,14.62897446,2018,SK_504611,official,TRUE
SK_504629,17.256349436139807,48.484877920963726,SK,SK01,SK010,504629,Plavecké Podhradie,638,21.14761975,2018,SK_504629,official,TRUE
SK_504637,17.302071747132295,48.50977231099354,SK,SK01,SK010,504637,Plavecký Mikuláš,729,26.71027925,2018,SK_504637,official,TRUE
SK_504645,17.324814325130166,48.53537862717524,SK,SK02,SK021,504645,Plavecký Peter,634,14.76932906,2018,SK_504645,official,TRUE
SK_504653,17.447353621526286,48.73185549006147,SK,SK02,SK021,504653,Podbranč,628,14.12070981,2018,SK_504653,official,TRUE
SK_504661,17.578037360170235,48.72416344294806,SK,SK02,SK022,504661,Polianka,398,9.42251173,2018,SK_504661,official,TRUE
SK_504670,17.216944809492837,48.786027124079894,SK,SK02,SK021,504670,Popudinské Močidľany,909,10.82093769,2018,SK_504670,official,TRUE
SK_504688,17.609638793746043,48.777690914488424,SK,SK02,SK022,504688,Poriadie,695,7.83345349,2018,SK_504688,official,TRUE
SK_504696,17.57641472208445,48.695295431524976,SK,SK02,SK022,504696,Priepasné,378,13.72464788,2018,SK_504696,official,TRUE
SK_504700,17.442641240534915,48.67420110519198,SK,SK02,SK021,504700,Prietrž,737,24.68232479,2018,SK_504700,official,TRUE
SK_504718,17.192101217000587,48.806077939466526,SK,SK02,SK021,504718,Prietržka,504,4.67448928,2018,SK_504718,official,TRUE
SK_504726,17.34704320102517,48.559560028655476,SK,SK02,SK021,504726,Prievaly,1006,14.99067681,2018,SK_504726,official,TRUE
SK_504734,17.197657471975393,48.75142036102485,SK,SK02,SK021,504734,Radimov,569,12.90891893,2018,SK_504734,official,TRUE
SK_504742,17.281261553086107,48.771496748043496,SK,SK02,SK021,504742,Radošovce,1763,26.59822903,2018,SK_504742,official,TRUE
SK_504769,17.16785499398205,48.4554085621459,SK,SK01,SK010,504769,Rohožník,3523,27.43214839,2018,SK_504769,official,TRUE
SK_504777,17.37973109959999,48.712229296641404,SK,SK02,SK021,504777,Rovensko,446,10.40520282,2018,SK_504777,official,TRUE
SK_504793,17.632509606292732,48.7611018677267,SK,SK02,SK022,504793,Rudník,819,9.4015365,2018,SK_504793,official,TRUE
SK_504815,17.228149491579988,48.842049253812014,SK,SK02,SK021,504815,Skalica,14967,59.9652704,2018,SK_504815,official,TRUE
SK_504823,17.131425078781124,48.6743541943459,SK,SK02,SK021,504823,Smolinské,912,15.68635788,2018,SK_504823,official,TRUE
SK_504831,17.303163047683324,48.72480714618511,SK,SK02,SK021,504831,Smrdáky,667,4.72341359,2018,SK_504831,official,TRUE
SK_504840,17.405662879244595,48.735565479262334,SK,SK02,SK021,504840,Sobotište,1493,32.24344111,2018,SK_504840,official,TRUE
SK_504858,17.232124452384742,48.46459303151759,SK,SK01,SK010,504858,Sološnica,1569,37.77079514,2018,SK_504858,official,TRUE
SK_504866,17.586096412200046,48.78706154827691,SK,SK02,SK022,504866,Stará Myjava,749,17.74824836,2018,SK_504866,official,TRUE
SK_504874,17.138306482410204,48.52883665605922,SK,SK01,SK010,504874,Studienka,1612,15.82567054,2018,SK_504874,official,TRUE
SK_504882,17.26592477940191,48.65649919388969,SK,SK02,SK021,504882,Šajdíkove Humence,1111,15.48941645,2018,SK_504882,official,TRUE
SK_504891,17.14712605479083,48.63938506203763,SK,SK02,SK021,504891,Šaštín-Stráže,5015,41.95998234,2018,SK_504891,official,TRUE
SK_504904,17.20042010027405,48.67563577683399,SK,SK02,SK021,504904,Štefanov,1655,22.08195145,2018,SK_504904,official,TRUE
SK_504912,17.190880040174154,48.798510347066944,SK,SK02,SK021,504912,Trnovec,305,2.5316721700000002,2018,SK_504912,official,TRUE
SK_504939,17.215417483363243,48.72393675070022,SK,SK02,SK021,504939,Unín,1231,22.71314405,2018,SK_504939,official,TRUE
SK_504947,16.99985926883042,48.503556510894185,SK,SK01,SK010,504947,Veľké Leváre,3581,26.3538555,2018,SK_504947,official,TRUE
SK_504963,17.19453978713366,48.823705129287156,SK,SK02,SK021,504963,Vrádište,824,4.24363434,2018,SK_504963,official,TRUE
SK_504971,17.466402743413227,48.797296738330715,SK,SK02,SK022,504971,Vrbovce,1510,51.56467295,2018,SK_504971,official,TRUE
SK_504980,17.031850361958856,48.54465004683636,SK,SK01,SK010,504980,Závod,2823,27.35649466,2018,SK_504980,official,TRUE
SK_504998,18.177385126363497,48.55868085292408,SK,SK02,SK023,504998,Topoľčany,25492,27.58430522,2018,SK_504998,official,TRUE
SK_505021,18.015570653711606,48.56861307088546,SK,SK02,SK023,505021,Lipovník,320,6.43892731,2018,SK_505021,official,TRUE
SK_505048,18.114964977077893,48.498328168789996,SK,SK02,SK023,505048,Ludanice,1825,11.21055706,2018,SK_505048,official,TRUE
SK_505056,18.28248004618279,48.77510254000944,SK,SK02,SK022,505056,Ľutov,172,8.57757101,2018,SK_505056,official,TRUE
SK_505064,18.017196187556625,48.51434498814671,SK,SK02,SK023,505064,Lužany,201,3.89034713,2018,SK_505064,official,TRUE
SK_505072,18.165775733890865,48.759158434267114,SK,SK02,SK022,505072,Malá Hradná,384,7.91801112,2018,SK_505072,official,TRUE
SK_505102,18.134101465186816,48.6987566379558,SK,SK02,SK022,505102,Malé Hoste,392,6.79801565,2018,SK_505102,official,TRUE
SK_505129,18.422912285239605,48.63799087288427,SK,SK02,SK022,505129,Malé Kršteňany,544,6.29274029,2018,SK_505129,official,TRUE
SK_505137,17.986899545984205,48.47936245995419,SK,SK02,SK023,505137,Malé Ripňany,545,8.51474643,2018,SK_505137,official,TRUE
SK_505153,18.31170232134885,48.71870330984221,SK,SK02,SK022,505153,Miezgovce,280,8.75792792,2018,SK_505153,official,TRUE
SK_505170,18.24595920570312,48.62338304728926,SK,SK02,SK022,505170,Nadlice,621,5.53015551,2018,SK_505170,official,TRUE
SK_505196,18.294156891422695,48.59362831148196,SK,SK02,SK022,505196,Nedanovce,626,7.00573255,2018,SK_505196,official,TRUE
SK_505200,18.31687530963402,48.666693081768045,SK,SK02,SK022,505200,Nedašovce,448,6.91635829,2018,SK_505200,official,TRUE
SK_505226,18.11474828536113,48.67103358340275,SK,SK02,SK023,505226,Nemečky,317,6.26836595,2018,SK_505226,official,TRUE
SK_505234,17.965609904980937,48.55425513592249,SK,SK02,SK023,505234,Nitrianska Blatnica,1232,14.38821918,2018,SK_505234,official,TRUE
SK_505242,18.173442546068507,48.52189624549447,SK,SK02,SK023,505242,Nitrianska Streda,768,13.94908233,2018,SK_505242,official,TRUE
SK_505251,18.176874764825083,48.63218665637946,SK,SK02,SK023,505251,Norovce,330,6.33336551,2018,SK_505251,official,TRUE
SK_505277,18.392031306590674,48.7757957032488,SK,SK02,SK022,505277,Omastiná,37,12.4537306,2018,SK_505277,official,TRUE
SK_505285,18.149670965311977,48.467303144434204,SK,SK02,SK023,505285,Oponice,820,12.29130163,2018,SK_505285,official,TRUE
SK_505307,18.275050789188338,48.64808778598445,SK,SK02,SK022,505307,Ostratice,818,11.29166181,2018,SK_505307,official,TRUE
SK_505315,18.370652421168014,48.624158697060196,SK,SK02,SK022,505315,Partizánske,22653,22.29357086,2018,SK_505315,official,TRUE
SK_505323,18.437703956205347,48.6294695731334,SK,SK02,SK022,505323,Pažiť,470,3.06802768,2018,SK_505323,official,TRUE
SK_505331,18.224963397032607,48.675001923454005,SK,SK02,SK022,505331,Pečeňany,509,6.61984525,2018,SK_505331,official,TRUE
SK_505340,18.054839752120188,48.65708056741112,SK,SK02,SK023,505340,Podhradie,293,30.09138219,2018,SK_505340,official,TRUE
SK_505358,18.240603493218213,48.770359518990325,SK,SK02,SK022,505358,Podlužany,854,14.02138168,2018,SK_505358,official,TRUE
SK_505374,18.11091704973914,48.642081603614166,SK,SK02,SK023,505374,Prašice,2009,28.24486359,2018,SK_505374,official,TRUE
SK_505382,18.296099348762077,48.68248085164057,SK,SK02,SK022,505382,Pravotice,318,6.05385346,2018,SK_505382,official,TRUE
SK_505404,18.097347711434843,48.45136380286146,SK,SK02,SK023,505404,Preseľany,1424,11.90471966,2018,SK_505404,official,TRUE
SK_505412,18.265852950289553,48.75764884801717,SK,SK02,SK022,505412,Prusy,610,7.52079062,2018,SK_505412,official,TRUE
SK_505421,17.93658047382322,48.54621567832178,SK,SK02,SK023,505421,Radošina,1948,27.64758372,2018,SK_505421,official,TRUE
SK_505439,18.232035101426156,48.610891182744595,SK,SK02,SK023,505439,Rajčany,539,5.84886101,2018,SK_505439,official,TRUE
SK_505447,18.195286932070147,48.74536582394892,SK,SK02,SK022,505447,Ruskovce,522,3.35943552,2018,SK_505447,official,TRUE
SK_505455,18.258149884623148,48.66841728780857,SK,SK02,SK022,505455,Rybany,1468,11.04511286,2018,SK_505455,official,TRUE
SK_505463,18.3805821007964,48.663033894337396,SK,SK02,SK022,505463,Skačany,1375,15.38708215,2018,SK_505463,official,TRUE
SK_505471,18.26495243831787,48.83700397191667,SK,SK02,SK022,505471,Slatina nad Bebravou,416,11.52991623,2018,SK_505471,official,TRUE
SK_505480,18.24001867388113,48.84897338730748,SK,SK02,SK022,505480,Slatinka nad Bebravou,188,9.54077662,2018,SK_505480,official,TRUE
SK_505498,18.20094874071553,48.53708263996831,SK,SK02,SK023,505498,Solčany,2465,20.0127831,2018,SK_505498,official,TRUE
SK_505510,18.171721462723724,48.466943732952984,SK,SK02,SK023,505510,Súlovce,500,12.63583776,2018,SK_505510,official,TRUE
SK_505536,17.899855194906394,48.522900770025274,SK,SK02,SK023,505536,Šalgovce,514,8.98350715,2018,SK_505536,official,TRUE
SK_505544,18.29546487790992,48.85079414069132,SK,SK02,SK022,505544,Šípkov,141,11.55805387,2018,SK_505544,official,TRUE
SK_505552,18.181861301684464,48.65629752438771,SK,SK02,SK022,505552,Šišov,502,9.61991384,2018,SK_505552,official,TRUE
SK_505561,18.08885010442911,48.5996413970516,SK,SK02,SK023,505561,Tesáre,721,13.51945329,2018,SK_505561,official,TRUE
SK_505579,18.234821965586743,48.81249115314727,SK,SK02,SK022,505579,Timoradza,530,10.48938052,2018,SK_505579,official,TRUE
SK_505595,18.30362897195927,48.819786973218704,SK,SK02,SK022,505595,Trebichava,36,11.76728253,2018,SK_505595,official,TRUE
SK_505617,18.13690369269365,48.641196361913835,SK,SK02,SK023,505617,Tvrdomestice,449,8.79074482,2018,SK_505617,official,TRUE
SK_505625,18.3372744189943,48.743682255074965,SK,SK02,SK022,505625,Uhrovec,1500,22.95173194,2018,SK_505625,official,TRUE
SK_505633,18.376969136725833,48.76671600430785,SK,SK02,SK022,505633,Uhrovské Podhradie,34,12.52186768,2018,SK_505633,official,TRUE
SK_505641,18.094668916642526,48.535812759772455,SK,SK02,SK023,505641,Urmince,1405,10.91206116,2018,SK_505641,official,TRUE
SK_505676,18.069310385949983,48.556400936013794,SK,SK02,SK023,505676,Veľké Dvorany,719,7.74834021,2018,SK_505676,official,TRUE
SK_505684,18.158216767518844,48.68128686553797,SK,SK02,SK023,505684,Veľké Hoste,577,8.26200599,2018,SK_505684,official,TRUE
SK_505692,18.224799530555828,48.706859691681835,SK,SK02,SK022,505692,Veľké Chlievany,490,5.15296305,2018,SK_505692,official,TRUE
SK_505706,18.411443074169487,48.647706277410556,SK,SK02,SK022,505706,Veľké Kršteňany,607,13.47575235,2018,SK_505706,official,TRUE
SK_505714,17.97776806918069,48.50211278566174,SK,SK02,SK023,505714,Veľké Ripňany,2089,23.68359884,2018,SK_505714,official,TRUE
SK_505722,18.436569389491414,48.606741409477905,SK,SK02,SK022,505722,Veľké Uherce,2020,27.78775473,2018,SK_505722,official,TRUE
SK_505731,18.36781184640996,48.554557233033805,SK,SK02,SK022,505731,Veľký Klíž,900,42.38231439,2018,SK_505731,official,TRUE
SK_505749,18.09925711501191,48.63013159313895,SK,SK02,SK023,505749,Velušovce,493,5.80847578,2018,SK_505749,official,TRUE
SK_505757,17.992512380691025,48.56665459657206,SK,SK02,SK023,505757,Vozokany,347,9.12162533,2018,SK_505757,official,TRUE
SK_505765,18.320043794209905,48.682349183548524,SK,SK02,SK022,505765,Vysočany,112,4.32186205,2018,SK_505765,official,TRUE
SK_505773,18.082694330591867,48.638931617827375,SK,SK02,SK023,505773,Závada,600,8.9519055,2018,SK_505773,official,TRUE
SK_505790,18.120219743142993,48.71448973788075,SK,SK02,SK022,505790,Zlatníky,676,50.4225412,2018,SK_505790,official,TRUE
SK_505803,18.297982402058008,48.622019435304516,SK,SK03,SK031,505803,Žabokreky nad Nitrou,1724,6.97717214,2018,SK_505803,official,TRUE
SK_505811,18.349899701632435,48.77007216803041,SK,SK04,SK042,505811,Žitná-Radiša,449,17.77388615,2018,SK_505811,official,TRUE
SK_505820,18.0459798367162,48.88166597377198,SK,SK02,SK022,505820,Trenčín,55537,82.01421743,2018,SK_505820,official,TRUE
SK_505838,17.92841165037467,48.85406050930697,SK,SK02,SK022,505838,Adamovské Kochanovce,855,9.66157882,2018,SK_505838,official,TRUE
SK_505846,17.895818225378118,48.786595989175716,SK,SK02,SK022,505846,Beckov,1368,28.62942407,2018,SK_505846,official,TRUE
SK_505854,18.19140333940837,48.804342372840246,SK,SK02,SK022,505854,Bobot,760,16.08687375,2018,SK_505854,official,TRUE
SK_505871,17.838605257879973,48.82918950929722,SK,SK02,SK022,505871,Bošáca,1397,19.59386182,2018,SK_505871,official,TRUE
SK_505889,17.853973054503882,48.67298354995951,SK,SK02,SK022,505889,Brunovce,546,5.82451173,2018,SK_505889,official,TRUE
SK_505897,17.76760208921031,48.78724926096514,SK,SK02,SK022,505897,Bzince pod Javorinou,2080,33.46533083,2018,SK_505897,official,TRUE
SK_505901,17.789178934405403,48.71149642109484,SK,SK02,SK022,505901,Čachtice,3939,32.56165307,2018,SK_505901,official,TRUE
SK_505919,17.781587617831867,48.688893334243645,SK,SK02,SK022,505919,Častkovce,1486,7.57201599,2018,SK_505919,official,TRUE
SK_505935,18.289066167760197,48.90723762415649,SK,SK02,SK022,505935,Dolná Poruba,797,22.68606616,2018,SK_505935,official,TRUE
SK_505943,18.031701130510303,48.95764424010139,SK,SK02,SK022,505943,Dolná Súča,3087,26.32083995,2018,SK_505943,official,TRUE
SK_505951,17.82078886327134,48.799972803943255,SK,SK02,SK022,505951,Dolné Srnie,988,8.78692988,2018,SK_505951,official,TRUE
SK_505960,17.956610514385503,48.89227600814216,SK,SK02,SK022,505960,Drietoma,2268,35.82100129,2018,SK_505960,official,TRUE
SK_505978,18.107549591982966,48.761244423214144,SK,SK02,SK022,505978,Dubodiel,945,20.20688685,2018,SK_505978,official,TRUE
SK_505994,17.890896270603896,48.71562413087782,SK,SK02,SK022,505994,Hôrka nad Váhom,743,18.32072817,2018,SK_505994,official,TRUE
SK_506001,17.842031395428176,48.65651345696942,SK,SK02,SK022,506001,Horná Streda,1386,9.81978691,2018,SK_506001,official,TRUE
SK_506010,17.972911376983056,48.973932547892964,SK,SK02,SK022,506010,Horná Súča,3405,53.84836281,2018,SK_506010,official,TRUE
SK_506028,18.201076104937453,48.78008040711335,SK,SK02,SK022,506028,Horňany,445,6.71574405,2018,SK_506028,official,TRUE
SK_506036,18.098715932315834,48.99181587719388,SK,SK02,SK022,506036,Horné Srnie,2774,27.25623843,2018,SK_506036,official,TRUE
SK_506044,18.03651582334009,48.93590060839296,SK,SK02,SK022,506044,Hrabovka,419,4.29251102,2018,SK_506044,official,TRUE
SK_506052,17.886795796959788,48.696702356961616,SK,SK02,SK022,506052,Hrádok,728,24.14390276,2018,SK_506052,official,TRUE
SK_506061,17.72603677012145,48.71416656905971,SK,SK02,SK022,506061,Hrachovište,705,9.19578843,2018,SK_506061,official,TRUE
SK_506079,17.662624541644647,48.74747998333022,SK,SK02,SK022,506079,Hrašné,484,7.85626713,2018,SK_506079,official,TRUE
SK_506087,17.941386648545254,48.86693107369417,SK,SK02,SK022,506087,Chocholná-Velčice,1696,27.9159565,2018,SK_506087,official,TRUE
SK_506095,17.907668565106196,48.8295740530902,SK,SK02,SK022,506095,Ivanovce,980,15.06572139,2018,SK_506095,official,TRUE
SK_506109,17.924514207625876,48.765062634230084,SK,SK02,SK022,506109,Kálnica,1063,26.40409114,2018,SK_506109,official,TRUE
SK_506125,17.88469910798921,48.752299294347914,SK,SK02,SK022,506125,Kočovce,1563,15.32009522,2018,SK_506125,official,TRUE
SK_506133,17.970366030379427,48.87915415798288,SK,SK02,SK022,506133,Kostolná-Záriečie,683,3.6639902,2018,SK_506133,official,TRUE
SK_506141,17.696498355232343,48.735752662428546,SK,SK02,SK022,506141,Kostolné,604,10.12770618,2018,SK_506141,official,TRUE
SK_506150,17.680766837292182,48.7018423656771,SK,SK02,SK022,506150,Krajné,1526,28.4617593,2018,SK_506150,official,TRUE
SK_506168,17.946529327441304,48.81777992103699,SK,SK02,SK022,506168,Krivosúd-Bodovka,347,8.08909801,2018,SK_506168,official,TRUE
SK_506184,17.730047735116585,48.79129875463337,SK,SK02,SK022,506184,Lubina,1441,29.40876141,2018,SK_506184,official,TRUE
SK_506206,17.880674232248687,48.65969018335109,SK,SK02,SK022,506206,Lúka,676,17.41370815,2018,SK_506206,official,TRUE
SK_506231,18.059798396411676,48.836646383315525,SK,SK02,SK022,506231,Mníchova Lehota,1210,16.6122535,2018,SK_506231,official,TRUE
SK_506249,17.899574062243595,48.64086901351154,SK,SK02,SK022,506249,Modrová,511,11.67621331,2018,SK_506249,official,TRUE
SK_506257,17.87984909599823,48.650711998313064,SK,SK02,SK022,506257,Modrovka,191,3.15688933,2018,SK_506257,official,TRUE
SK_506265,17.794294666984605,48.82063362167949,SK,SK02,SK022,506265,Moravské Lieskové,2557,36.51979857,2018,SK_506265,official,TRUE
SK_506273,18.18133613443714,48.827774222604056,SK,SK02,SK022,506273,Motešice,810,17.4052393,2018,SK_506273,official,TRUE
SK_506281,18.117626477830548,48.96588092223533,SK,SK02,SK022,506281,Nemšová,6368,33.45200876,2018,SK_506281,official,TRUE
SK_506290,18.152987022722257,48.820894674638275,SK,SK02,SK022,506290,Neporadza,816,14.21458197,2018,SK_506290,official,TRUE
SK_506303,17.79625512991249,48.88744927245573,SK,SK02,SK022,506303,Nová Bošáca,1070,33.43464635,2018,SK_506303,official,TRUE
SK_506311,17.977547404558972,48.660786503454986,SK,SK02,SK022,506311,Nová Lehota,199,18.21929719,2018,SK_506311,official,TRUE
SK_506338,17.827769417476215,48.75724963331155,SK,SK02,SK022,506338,Nové Mesto nad Váhom,20066,32.59692388,2018,SK_506338,official,TRUE
SK_506346,17.767087311694393,48.6497227321244,SK,SK02,SK022,506346,Očkov,478,4.93831031,2018,SK_506346,official,TRUE
SK_506354,18.22628790860619,48.90077419253611,SK,SK02,SK022,506354,Omšenie,1973,24.36661869,2018,SK_506354,official,TRUE
SK_506371,17.981208853780526,48.86043323526003,SK,SK02,SK022,506371,Opatovce,427,2.89627041,2018,SK_506371,official,TRUE
SK_506401,17.79830963103452,48.648707019322046,SK,SK02,SK022,506401,Pobedim,1158,8.61425091,2018,SK_506401,official,TRUE
SK_506419,17.664515135409644,48.67948493937166,SK,SK02,SK022,506419,Podkylava,232,8.45686715,2018,SK_506419,official,TRUE
SK_506427,17.772963337919148,48.671487928161646,SK,SK02,SK022,506427,Podolie,1858,17.26702843,2018,SK_506427,official,TRUE
SK_506435,17.851436915304166,48.68917945581589,SK,SK02,SK022,506435,Potvorice,677,4.04333905,2018,SK_506435,official,TRUE
SK_506443,17.847416983467728,48.70849850265248,SK,SK02,SK022,506443,Považany,1251,8.74759674,2018,SK_506443,official,TRUE
SK_506478,17.991625797391958,48.78416027538245,SK,SK02,SK022,506478,Selec,1006,24.8145847,2018,SK_506478,official,TRUE
SK_506508,18.07597682853052,48.86182094190533,SK,SK02,SK022,506508,Soblahov,2314,17.39059464,2018,SK_506508,official,TRUE
SK_506516,17.950040068014722,48.65426151499076,SK,SK02,SK022,506516,Stará Lehota,196,16.17519412,2018,SK_506516,official,TRUE
SK_506524,17.694071796987018,48.78021285152014,SK,SK02,SK022,506524,Stará Turá,8932,50.90843263,2018,SK_506524,official,TRUE
SK_506532,18.166523687216905,48.78550051592147,SK,SK02,SK022,506532,Svinná,1572,8.59527408,2018,SK_506532,official,TRUE
SK_506541,17.878737102490323,48.819847405924676,SK,SK02,SK022,506541,Štvrtok,359,4.08511087,2018,SK_506541,official,TRUE
SK_506559,18.11848362393054,48.93273702613609,SK,SK02,SK022,506559,Trenčianska Teplá,4211,15.15186217,2018,SK_506559,official,TRUE
SK_506567,18.020880040751603,48.84858444599638,SK,SK02,SK022,506567,Trenčianska Turná,3369,17.24112005,2018,SK_506567,official,TRUE
SK_506583,17.861494608765444,48.7974212517076,SK,SK02,SK022,506583,Trenčianske Bohuslavice,934,6.40079967,2018,SK_506583,official,TRUE
SK_506591,18.111345474501547,48.79775872684779,SK,SK02,SK022,506591,Trenčianske Jastrabie,1237,12.2540654,2018,SK_506591,official,TRUE
SK_506605,18.112554433994074,48.810510308903154,SK,SK02,SK022,506605,Trenčianske Mitice,778,12.83685019,2018,SK_506605,official,TRUE
SK_506613,18.160778162220137,48.91074342236836,SK,SK02,SK022,506613,Trenčianske Teplice,4177,10.44582912,2018,SK_506613,official,TRUE
SK_506630,17.721221387384578,48.73815245497998,SK,SK02,SK022,506630,Vaďovce,727,11.12864245,2018,SK_506630,official,TRUE
SK_506648,18.138744654127457,48.76766665860563,SK,SK02,SK022,506648,Veľká Hradná,710,11.88694376,2018,SK_506648,official,TRUE
SK_506656,17.980179565743597,48.851356025986654,SK,SK02,SK022,506656,Veľké Bierovce,705,4.909975,2018,SK_506656,official,TRUE
SK_506672,17.75393522882653,48.72289559483575,SK,SK03,SK031,506672,Višňové,169,5.52007977,2018,SK_506672,official,TRUE
SK_506745,17.58878928705163,48.37824382627652,SK,SK02,SK021,506745,Trnava,65382,71.53681353,2018,SK_506745,official,TRUE
SK_506788,17.4837863348683,48.505347734911226,SK,SK02,SK021,506788,Bíňovce,681,7.78162015,2018,SK_506788,official,TRUE
SK_506796,17.54495433262872,48.4305004792187,SK,SK02,SK021,506796,Bohdanovce nad Trnavou,1415,11.4774356,2018,SK_506796,official,TRUE
SK_506800,17.797626267649814,48.39131803612342,SK,SK02,SK021,506800,Bojničky,1421,9.2719014,2018,SK_506800,official,TRUE
SK_506818,17.49727466139003,48.46269865497372,SK,SK02,SK021,506818,Boleráz,2300,25.44451313,2018,SK_506818,official,TRUE
SK_506826,17.44349191811509,48.384220190660166,SK,SK02,SK021,506826,Borová,448,5.90513135,2018,SK_506826,official,TRUE
SK_506834,17.74467408896098,48.57509391400605,SK,SK02,SK021,506834,Borovce,1020,10.87116703,2018,SK_506834,official,TRUE
SK_506842,17.68685343790135,48.38426781196119,SK,SK02,SK021,506842,Brestovany,2658,16.37370804,2018,SK_506842,official,TRUE
SK_506851,17.695236834030013,48.41802977395115,SK,SK02,SK021,506851,Bučany,2340,16.58388127,2018,SK_506851,official,TRUE
SK_506869,17.397593385295362,48.5397678941732,SK,SK02,SK021,506869,Buková,661,24.27477997,2018,SK_506869,official,TRUE
SK_506877,17.48855178343162,48.31661763215257,SK,SK02,SK021,506877,Cífer,4260,29.88060927,2018,SK_506877,official,TRUE
SK_506885,17.75445823237563,48.460131293971145,SK,SK02,SK021,506885,Červeník,1655,9.94102498,2018,SK_506885,official,TRUE
SK_506893,17.58957207961067,48.54497126260033,SK,SK02,SK021,506893,Dechtice,1851,19.44779843,2018,SK_506893,official,TRUE
SK_506915,17.542973040389946,48.59666125988645,SK,SK02,SK021,506915,Dobrá Voda,802,32.96510156,2018,SK_506915,official,TRUE
SK_506923,17.55157294242935,48.4815669345256,SK,SK02,SK021,506923,Dolná Krupá,2255,24.60935459,2018,SK_506923,official,TRUE
SK_506931,17.607956947829088,48.489413312627796,SK,SK02,SK021,506931,Dolné Dubové,719,10.03777399,2018,SK_506931,official,TRUE
SK_506940,17.42570602183573,48.438404181916674,SK,SK02,SK021,506940,Dolné Orešany,1304,17.90261724,2018,SK_506940,official,TRUE
SK_506958,17.911205318764313,48.46752325366354,SK,SK02,SK021,506958,Dolné Otrokovce,384,9.30154425,2018,SK_506958,official,TRUE
SK_506966,17.89389516360255,48.44188068257752,SK,SK02,SK021,506966,Dolné Trhovište,651,10.05466496,2018,SK_506966,official,TRUE
SK_506982,17.647182757985135,48.575644140484435,SK,SK02,SK021,506982,Dolný Lopašov,982,22.91814876,2018,SK_506982,official,TRUE
SK_506991,17.803438773785892,48.517063126916746,SK,SK02,SK021,506991,Drahovce,2558,24.03878505,2018,SK_506991,official,TRUE
SK_507008,17.734814132425672,48.52598858074162,SK,SK02,SK021,507008,Dubovany,1013,11.33583634,2018,SK_507008,official,TRUE
SK_507024,17.79235772082183,48.3540774389783,SK,SK02,SK021,507024,Dvorníky,2015,25.53627575,2018,SK_507024,official,TRUE
SK_507032,17.795498803928435,48.425921396325265,SK,SK02,SK021,507032,Hlohovec,21715,64.206419,2018,SK_507032,official,TRUE
SK_507041,17.527060632914772,48.515206480616506,SK,SK02,SK021,507041,Horná Krupá,499,8.64311957,2018,SK_507041,official,TRUE
SK_507059,17.560546356863142,48.51940659361749,SK,SK02,SK021,507059,Horné Dubové,379,7.27718075,2018,SK_507059,official,TRUE
SK_507067,17.44076149448891,48.464509365974074,SK,SK02,SK021,507067,Horné Orešany,1892,21.56241847,2018,SK_507067,official,TRUE
SK_507075,17.88101816221444,48.48971792368927,SK,SK02,SK021,507075,Horné Otrokovce,866,9.05451243,2018,SK_507075,official,TRUE
SK_507121,17.62112099955185,48.56951643259358,SK,SK02,SK021,507121,Chtelnica,2562,32.96639573,2018,SK_507121,official,TRUE
SK_507130,17.829719646133675,48.50970093973075,SK,SK02,SK021,507130,Jalšové,493,9.3231566,2018,SK_507130,official,TRUE
SK_507156,17.647598566151096,48.47730900743981,SK,SK02,SK021,507156,Jaslovské Bohunice,2292,20.07848933,2018,SK_507156,official,TRUE
SK_507164,17.60877955025252,48.52418347192776,SK,SK02,SK021,507164,Kátlovce,1157,11.69530551,2018,SK_507164,official,TRUE
SK_507172,17.875028553683656,48.38900280012337,SK,SK02,SK021,507172,Kľačany,1088,10.09036564,2018,SK_507172,official,TRUE
SK_507199,17.65293646115928,48.59847838789169,SK,SK02,SK021,507199,Kočín-Lančár,521,13.11617944,2018,SK_507199,official,TRUE
SK_507202,17.810716572740063,48.47526821782361,SK,SK02,SK021,507202,Koplotovce,760,5.79668047,2018,SK_507202,official,TRUE
SK_507211,17.463426956396493,48.42663349586907,SK,SK02,SK021,507211,Košolná,798,9.5892099,2018,SK_507211,official,TRUE
SK_507229,17.745442791412064,48.614649088329,SK,SK02,SK021,507229,Krakovany,1445,9.82680692,2018,SK_507229,official,TRUE
SK_507253,17.76514380735071,48.443472963938156,SK,SK02,SK021,507253,Leopoldov,4161,5.6523989,2018,SK_507253,official,TRUE
SK_507288,17.78323012627109,48.477379358259576,SK,SK02,SK021,507288,Madunice,2218,11.9964059,2018,SK_507288,official,TRUE
SK_507296,17.630743057916597,48.28324741188648,SK,SK02,SK021,507296,Majcichov,2001,18.1940447,2018,SK_507296,official,TRUE
SK_507300,19.412153739887753,49.09243584772845,SK,SK03,SK031,507300,Ivachnová,628,5.89748928,2018,SK_507300,official,TRUE
SK_507318,17.671415122214622,48.44865582759462,SK,SK02,SK021,507318,Malženice,1493,14.83545884,2018,SK_507318,official,TRUE
SK_507326,17.945087907620966,48.46447563445411,SK,SK02,SK021,507326,Merašice,442,4.93492197,2018,SK_507326,official,TRUE
SK_507342,17.858082425549966,48.59953118104497,SK,SK02,SK021,507342,Moravany nad Váhom,2420,10.77605248,2018,SK_507342,official,TRUE
SK_507351,17.533988709707966,48.53458857157537,SK,SK02,SK021,507351,Naháč,415,19.67019162,2018,SK_507351,official,TRUE
SK_507369,17.65598870978455,48.53098000030027,SK,SK02,SK021,507369,Nižná,557,8.05028796,2018,SK_507369,official,TRUE
SK_507385,17.7680765438631,48.63153952944426,SK,SK02,SK021,507385,Ostrov,1214,9.34976943,2018,SK_507385,official,TRUE
SK_507393,19.7222737207633,49.11998401027261,SK,SK03,SK031,507393,Konská,213,11.80687171,2018,SK_507393,official,TRUE
SK_507407,19.38613667685541,49.10415516839147,SK,SK03,SK031,507407,Turík,247,8.26561568,2018,SK_507407,official,TRUE
SK_507415,17.87801377932334,48.4246497343619,SK,SK02,SK021,507415,Pastuchov,975,15.228194329999999,2018,SK_507415,official,TRUE
SK_507431,17.716484633892556,48.48180534888369,SK,SK02,SK021,507431,Pečeňady,524,8.57113036,2018,SK_507431,official,TRUE
SK_507440,17.820365893383176,48.58799448943244,SK,SK02,SK021,507440,Piešťany,27666,44.20350223,2018,SK_507440,official,TRUE
SK_507466,17.686965680275236,48.651775463789534,SK,SK02,SK021,507466,Prašník,854,27.87226072,2018,SK_507466,official,TRUE
SK_507482,17.738090013281223,48.56080737935864,SK,SK02,SK021,507482,Rakovice,589,6.94945261,2018,SK_507482,official,TRUE
SK_507491,17.838875942822536,48.5599766514592,SK,SK02,SK021,507491,Ratnovce,1073,8.41831386,2018,SK_507491,official,TRUE
SK_507512,17.495046853789287,48.37029962651026,SK,SK02,SK021,507512,Ružindol,1647,14.69729178,2018,SK_507512,official,TRUE
SK_507521,17.849199407979675,48.37259957360192,SK,SK02,SK021,507521,Sasinkovo,859,12.41952032,2018,SK_507521,official,TRUE
SK_507539,17.741849577999727,48.36201585930414,SK,SK02,SK021,507539,Siladice,662,7.60272414,2018,SK_507539,official,TRUE
SK_507555,17.4328998492501,48.50616160760735,SK,SK02,SK021,507555,Smolenice,3383,28.97033867,2018,SK_507555,official,TRUE
SK_507563,17.846983897061918,48.53550238631624,SK,SK02,SK021,507563,Sokolovce,1310,6.57658549,2018,SK_507563,official,TRUE
SK_507571,17.48891035431453,48.408757303035344,SK,SK02,SK021,507571,Suchá nad Parnou,2131,14.37992346,2018,SK_507571,official,TRUE
SK_507601,17.609363928564175,48.43782763577314,SK,SK02,SK021,507601,Špačince,2851,22.10293586,2018,SK_507601,official,TRUE
SK_507636,17.722192518401354,48.33121926741224,SK,SK02,SK021,507636,Šúrovce,2336,19.89330939,2018,SK_507636,official,TRUE
SK_507661,17.7093508153905,48.4369336205494,SK,SK02,SK021,507661,Trakovice,1556,11.63328182,2018,SK_507661,official,TRUE
SK_507679,17.748096361098987,48.596633147142136,SK,SK02,SK021,507679,Trebatice,1353,7.66564599,2018,SK_507679,official,TRUE
SK_507687,17.46444216823387,48.526267431336116,SK,SK02,SK021,507687,Trstín,1448,26.18794323,2018,SK_507687,official,TRUE
SK_507709,17.72040489748048,48.50838457733061,SK,SK02,SK021,507709,Veľké Kostoľany,2764,24.37546483,2018,SK_507709,official,TRUE
SK_507725,17.739182658652144,48.545203190189035,SK,SK02,SK021,507725,Veselé,1204,13.86366881,2018,SK_507725,official,TRUE
SK_507741,17.56277619450467,48.27676271123607,SK,SK02,SK021,507741,Voderady,1507,14.15491044,2018,SK_507741,official,TRUE
SK_507750,17.723899220561623,48.61805325965268,SK,SK02,SK021,507750,Vrbové,5969,13.9710923,2018,SK_507750,official,TRUE
SK_507768,17.669048760544076,48.34928945771753,SK,SK02,SK021,507768,Zavar,2291,13.9588322,2018,SK_507768,official,TRUE
SK_507776,17.595051417200136,48.32748185867545,SK,SK04,SK042,507776,Zeleneč,2572,11.73837309,2018,SK_507776,official,TRUE
SK_507792,17.714419856241637,48.46126032419971,SK,SK02,SK022,507792,Žlkovce,655,7.93367336,2018,SK_507792,official,TRUE
SK_507806,17.446057465335702,48.31000221500671,SK,SK01,SK010,507806,Báhoň,1840,10.57656465,2018,SK_507806,official,TRUE
SK_507814,17.300626650250436,48.199372311847085,SK,SK01,SK010,507814,Bernolákovo,7255,28.41765211,2018,SK_507814,official,TRUE
SK_507822,17.41552881113659,48.267126575932664,SK,SK01,SK010,507822,Blatné,1782,16.3182025,2018,SK_507822,official,TRUE
SK_507831,17.086479465260556,48.2618019697158,SK,SK01,SK010,507831,Borinka,761,15.78428828,2018,SK_507831,official,TRUE
SK_507849,17.405307056617282,48.35684469558728,SK,SK01,SK010,507849,Budmerice,2402,30.07939133,2018,SK_507849,official,TRUE
SK_507857,17.358781538350406,48.3973710596094,SK,SK01,SK010,507857,Častá,2247,35.23746683,2018,SK_507857,official,TRUE
SK_507865,17.480388590687806,48.27185569398228,SK,SK01,SK010,507865,Čataj,1165,12.85829156,2018,SK_507865,official,TRUE
SK_507873,17.37939153604766,48.41467471501218,SK,SK01,SK010,507873,Doľany,1076,22.53506198,2018,SK_507873,official,TRUE
SK_507881,17.337816688132875,48.367298515401686,SK,SK01,SK010,507881,Dubová,1093,13.77528055,2018,SK_507881,official,TRUE
SK_507890,16.926115907316692,48.47017817001276,SK,SK01,SK010,507890,Gajary,3050,50.79278058,2018,SK_507890,official,TRUE
SK_507903,17.25364477074348,48.03941168756919,SK,SK01,SK010,507903,Hamuliakovo,2057,10.95128809,2018,SK_507903,official,TRUE
SK_507911,17.267730644803375,48.22827719150122,SK,SK01,SK010,507911,Chorvátsky Grob,5692,15.11488876,2018,SK_507911,official,TRUE
SK_507938,17.255249472508588,48.18740467745085,SK,SK01,SK010,507938,Ivanka pri Dunaji,6706,14.25730093,2018,SK_507938,official,TRUE
SK_507946,17.446147889578864,48.333894102587095,SK,SK01,SK010,507946,Jablonec,1026,8.68524927,2018,SK_507946,official,TRUE
SK_507954,17.098833665414364,48.35057940055502,SK,SK01,SK010,507954,Jablonové,1285,13.18879777,2018,SK_507954,official,TRUE
SK_507962,16.921128311287468,48.416775007053964,SK,SK01,SK010,507962,Jakubov,1619,20.84722908,2018,SK_507962,official,TRUE
SK_507989,17.21679359582617,48.25215445097701,SK,SK01,SK010,507989,Svätý Jur,5655,39.8423816,2018,SK_507989,official,TRUE
SK_507997,17.24877862312418,48.05775829852701,SK,SK01,SK010,507997,Kalinkovo,1319,12.90777722,2018,SK_507997,official,TRUE
SK_508012,16.98681114714253,48.44386081386111,SK,SK01,SK010,508012,Kostolište,1545,16.81506733,2018,SK_508012,official,TRUE
SK_508021,17.15587631515715,48.406674354803826,SK,SK01,SK010,508021,Kuchyňa,1690,45.11022478,2018,SK_508021,official,TRUE
SK_508039,16.975423488027698,48.36190642870329,SK,SK01,SK010,508039,Láb,1809,27.83560731,2018,SK_508039,official,TRUE
SK_508047,17.224670915788323,48.28898397381693,SK,SK01,SK010,508047,Limbach,2092,15.37280634,2018,SK_508047,official,TRUE
SK_508055,17.04290642273962,48.33595242985006,SK,SK01,SK010,508055,Lozorno,3022,44.75885883,2018,SK_508055,official,TRUE
SK_508063,17.01691155688214,48.43615146404798,SK,SK01,SK010,508063,Malacky,17430,26.89615748,2018,SK_508063,official,TRUE
SK_508071,17.299717373867278,48.155848970962296,SK,SK01,SK010,508071,Malinovo,3341,8.69512244,2018,SK_508071,official,TRUE
SK_508080,17.05822014155875,48.245843205519144,SK,SK01,SK010,508080,Marianka,2054,3.22522605,2018,SK_508080,official,TRUE
SK_508098,17.315828588004624,48.08577677151477,SK,SK01,SK010,508098,Miloslavov,2665,10.18639833,2018,SK_508098,official,TRUE
SK_508101,17.309757081588995,48.33208113908482,SK,SK01,SK010,508101,Modra,8976,49.6345296,2018,SK_508101,official,TRUE
SK_508110,17.27673496251245,48.141154753817034,SK,SK01,SK010,508110,Most pri Bratislave,3195,19.03012125,2018,SK_508110,official,TRUE
SK_508136,17.354772100027034,48.183719261930385,SK,SK01,SK010,508136,Nová Dedinka,2602,10.24152061,2018,SK_508136,official,TRUE
SK_508161,17.1438519172754,48.366474383551854,SK,SK01,SK010,508161,Pernek,863,27.33200766,2018,SK_508161,official,TRUE
SK_508179,17.26674248431253,48.291526027386546,SK,SK01,SK010,508179,Pezinok,22861,72.71774855,2018,SK_508179,official,TRUE
SK_508187,17.335224605980528,48.39005370274217,SK,SK01,SK010,508187,Píla,343,0.47070975,2018,SK_508187,official,TRUE
SK_508195,17.00654303275715,48.37525130844354,SK,SK01,SK010,508195,Plavecký Štvrtok,2372,24.16117056,2018,SK_508195,official,TRUE
SK_508209,17.239222041433294,48.097740942936966,SK,SK01,SK010,508209,Rovinka,4030,8.8454469,2018,SK_508209,official,TRUE
SK_508217,17.396868557004364,48.220069518292775,SK,SK01,SK010,508217,Senec,19410,38.67740494,2018,SK_508217,official,TRUE
SK_508225,17.27638240836588,48.258236475029285,SK,SK01,SK010,508225,Slovenský Grob,3619,10.16281228,2018,SK_508225,official,TRUE
SK_508233,17.02910272997959,48.27332178139299,SK,SK01,SK010,508233,Stupava,11471,67.45891599,2018,SK_508233,official,TRUE
SK_508241,16.862832482474627,48.40380227973313,SK,SK01,SK010,508241,Suchohrad,650,15.40870874,2018,SK_508241,official,TRUE
SK_508250,17.346468363447272,48.29812635071662,SK,SK01,SK010,508250,Šenkvice,4910,24.78640662,2018,SK_508250,official,TRUE
SK_508268,17.402575253945486,48.38551217724169,SK,SK01,SK010,508268,Štefanová,332,6.71216015,2018,SK_508268,official,TRUE
SK_508276,17.33225608299617,48.14154734602548,SK,SK01,SK010,508276,Tomášov,2527,19.95351528,2018,SK_508276,official,TRUE
SK_508284,17.387748258579297,48.18880286491699,SK,SK01,SK010,508284,Tureň,1126,5.29449843,2018,SK_508284,official,TRUE
SK_508292,17.362421205050754,48.216346492576626,SK,SK01,SK010,508292,Veľký Biel,2567,10.15396993,2018,SK_508292,official,TRUE
SK_508306,17.30432846246158,48.271348556880646,SK,SK01,SK010,508306,Viničné,2473,9.62331374,2018,SK_508306,official,TRUE
SK_508314,17.291769717755354,48.31163994487761,SK,SK01,SK010,508314,Vinosady,1369,5.16236137,2018,SK_508314,official,TRUE
SK_508322,17.39327283951974,48.332564254111624,SK,SK01,SK010,508322,Vištuk,1324,20.04094376,2018,SK_508322,official,TRUE
SK_508331,17.36913356888862,48.156121111274324,SK,SK01,SK010,508331,Vlky,408,3.6218355,2018,SK_508331,official,TRUE
SK_508349,16.914687047693153,48.32833547973192,SK,SK01,SK010,508349,Vysoká pri Morave,2297,33.56070987,2018,SK_508349,official,TRUE
SK_508365,16.854000851254202,48.38108840443891,SK,SK01,SK010,508365,Záhorská Ves,1895,13.03907962,2018,SK_508365,official,TRUE
SK_508381,16.9860867937316,48.32020835111393,SK,SK01,SK010,508381,Zohor,3312,21.11652566,2018,SK_508381,official,TRUE
SK_508438,19.146749752738607,48.742817050376495,SK,SK03,SK032,508438,Banská Bystrica,78484,103.29537058,2018,SK_508438,official,TRUE
SK_508446,19.80775313534938,48.856325313525055,SK,SK03,SK032,508446,Bacúch,946,38.21104334,2018,SK_508446,official,TRUE
SK_508454,19.12524044436952,48.6647924076108,SK,SK03,SK032,508454,Badín,2006,34.40070507,2018,SK_508454,official,TRUE
SK_508462,19.75455857898566,48.82591542830559,SK,SK03,SK032,508462,Beňuš,1157,26.78550776,2018,SK_508462,official,TRUE
SK_508471,19.194484794426625,48.81298566311726,SK,SK03,SK032,508471,Baláže,218,14.23441212,2018,SK_508471,official,TRUE
SK_508489,19.748227684385206,48.837065175750055,SK,SK03,SK032,508489,Braväcovo,680,29.41138569,2018,SK_508489,official,TRUE
SK_508497,19.635675624079585,48.80160802858494,SK,SK03,SK032,508497,Brezno,21082,121.98542044,2018,SK_508497,official,TRUE
SK_508519,19.248530581245195,48.66047475460035,SK,SK03,SK032,508519,Čerín,448,11.54274742,2018,SK_508519,official,TRUE
SK_508527,19.66991329059156,48.742300001008196,SK,SK03,SK032,508527,Čierny Balog,5132,147.1361337,2018,SK_508527,official,TRUE
SK_508535,19.50652520712294,48.83510061378675,SK,SK03,SK032,508535,Dolná Lehota,732,55.44998099,2018,SK_508535,official,TRUE
SK_508543,19.223416758563204,48.673712780554546,SK,SK03,SK032,508543,Dolná Mičiná,401,9.48176151,2018,SK_508543,official,TRUE
SK_508551,19.056894301481663,48.80473355118235,SK,SK03,SK032,508551,Dolný Harmanec,249,44.30406999,2018,SK_508551,official,TRUE
SK_508560,19.226853623336357,48.87827678091745,SK,SK03,SK032,508560,Donovaly,234,17.512455,2018,SK_508560,official,TRUE
SK_508578,19.65845411350106,48.65576850858935,SK,SK03,SK032,508578,Drábsko,201,4.77038221,2018,SK_508578,official,TRUE
SK_508586,19.27998778185329,48.67904295907816,SK,SK03,SK032,508586,Dúbravica,417,8.50449725,2018,SK_508586,official,TRUE
SK_508594,19.069124337877945,48.79503064729039,SK,SK03,SK032,508594,Harmanec,864,7.76626471,2018,SK_508594,official,TRUE
SK_508608,19.972140140210403,48.86274811324588,SK,SK03,SK032,508608,Heľpa,2614,41.70959881,2018,SK_508608,official,TRUE
SK_508616,19.317339745507933,48.80893512943445,SK,SK03,SK032,508616,Hiadeľ,521,16.5658957,2018,SK_508616,official,TRUE
SK_508624,19.54334374447716,48.83699323121709,SK,SK03,SK032,508624,Horná Lehota,596,45.90031972,2018,SK_508624,official,TRUE
SK_508632,19.214766366967915,48.7008845623886,SK,SK03,SK032,508632,Horná Mičiná,629,15.69656148,2018,SK_508632,official,TRUE
SK_508641,19.080240573309016,48.70097004321329,SK,SK03,SK032,508641,Horné Pršany,391,3.52916303,2018,SK_508641,official,TRUE
SK_508659,19.314073667054895,48.656409439123436,SK,SK03,SK032,508659,Hrochoť,1488,34.71225426,2018,SK_508659,official,TRUE
SK_508667,19.565770191030627,48.799321072108285,SK,SK03,SK032,508667,Hronec,1216,35.16194039,2018,SK_508667,official,TRUE
SK_508675,19.383651838058054,48.79384691966893,SK,SK03,SK032,508675,Brusno,2148,43.51729527,2018,SK_508675,official,TRUE
SK_508691,19.701629372835423,48.89121193129186,SK,SK03,SK032,508691,Jarabá,40,15.38869395,2018,SK_508691,official,TRUE
SK_508705,19.459859492937507,48.835946509437775,SK,SK03,SK032,508705,Jasenie,1176,86.30549439,2018,SK_508705,official,TRUE
SK_508713,19.022400217128148,48.77180488564942,SK,SK03,SK032,508713,Kordíky,445,9.96734089,2018,SK_508713,official,TRUE
SK_508721,19.02990027514887,48.73488372601142,SK,SK03,SK032,508721,Králiky,647,1.64820505,2018,SK_508721,official,TRUE
SK_508730,19.65472939355176,48.63731786543155,SK,SK03,SK032,508730,Lom nad Rimavicou,266,17.41158771,2018,SK_508730,official,TRUE
SK_508748,19.362875679710807,48.74528610751019,SK,SK03,SK032,508748,Ľubietová,1212,61.03733087,2018,SK_508748,official,TRUE
SK_508756,19.316767557289296,48.7835901283289,SK,SK03,SK032,508756,Lučatín,657,10.87868082,2018,SK_508756,official,TRUE
SK_508764,19.355605517859665,48.7934727276807,SK,SK03,SK032,508764,Medzibrod,1390,17.07643197,2018,SK_508764,official,TRUE
SK_508772,19.78274982344341,48.763838409738284,SK,SK03,SK032,508772,Michalová,1361,14.33461213,2018,SK_508772,official,TRUE
SK_508781,19.22856505073348,48.71328307894583,SK,SK03,SK032,508781,Môlča,371,9.40257313,2018,SK_508781,official,TRUE
SK_508799,19.29032958764357,48.811506663235825,SK,SK03,SK032,508799,Moštenica,235,13.41901531,2018,SK_508799,official,TRUE
SK_508802,19.17560550795673,48.85885240047723,SK,SK03,SK032,508802,Motyčky,115,13.07720945,2018,SK_508802,official,TRUE
SK_508811,19.628812782049717,48.853186622134025,SK,SK03,SK032,508811,Mýto pod Ďumbierom,511,10.37180272,2018,SK_508811,official,TRUE
SK_508829,19.426411015639346,48.81254665365757,SK,SK03,SK032,508829,Nemecká,1790,24.63701377,2018,SK_508829,official,TRUE
SK_508837,19.266983701364442,48.687035050791245,SK,SK03,SK032,508837,Oravce,182,4.72705565,2018,SK_508837,official,TRUE
SK_508845,19.527166154278873,48.75715057734567,SK,SK03,SK032,508845,Osrblie,373,24.02663207,2018,SK_508845,official,TRUE
SK_508853,19.52719385220003,48.811161960834994,SK,SK03,SK032,508853,Podbrezová,3882,18.5747668,2018,SK_508853,official,TRUE
SK_508861,19.260419342874084,48.79752177400514,SK,SK03,SK032,508861,Podkonice,907,28.48234044,2018,SK_508861,official,TRUE
SK_508870,20.016386806967216,48.86121061335965,SK,SK03,SK032,508870,Pohorelá,2212,46.9577942,2018,SK_508870,official,TRUE
SK_508888,19.800384867595078,48.75874377571179,SK,SK03,SK032,508888,Pohronská Polhora,1730,35.77109135,2018,SK_508888,official,TRUE
SK_508896,19.377940908995516,48.836052963458286,SK,SK03,SK032,508896,Pohronský Bukovec,111,14.47414203,2018,SK_508896,official,TRUE
SK_508900,19.851879703034168,48.853424997158335,SK,SK03,SK032,508900,Polomka,2982,94.03261605,2018,SK_508900,official,TRUE
SK_508918,19.291514508538995,48.711147502253205,SK,SK03,SK032,508918,Poniky,1572,58.98262049,2018,SK_508918,official,TRUE
SK_508926,19.36836187726395,48.71583892103759,SK,SK03,SK032,508926,Povrazník,141,3.34176719,2018,SK_508926,official,TRUE
SK_508934,19.457278847502995,48.816974807129114,SK,SK03,SK032,508934,Predajná,1328,23.20607561,2018,SK_508934,official,TRUE
SK_508942,19.22993774800951,48.78172680457138,SK,SK03,SK032,508942,Priechod,949,11.19709432,2018,SK_508942,official,TRUE
SK_508951,19.402183693408453,48.821635731332464,SK,SK03,SK032,508951,Ráztoka,290,8.07314337,2018,SK_508951,official,TRUE
SK_508969,19.07459459786235,48.75802789570876,SK,SK03,SK032,508969,Riečka,804,6.82165891,2018,SK_508969,official,TRUE
SK_508977,19.243844559029792,48.63635369935378,SK,SK03,SK032,508977,Sebedín-Bečov,366,9.63786041,2018,SK_508977,official,TRUE
SK_508985,19.201894184069026,48.762137523741245,SK,SK03,SK032,508985,Selce,2159,19.99742144,2018,SK_508985,official,TRUE
SK_508993,19.64487400660426,48.65462814269804,SK,SK03,SK032,508993,Sihla,184,26.83858225,2018,SK_508993,official,TRUE
SK_509001,19.27430490825021,48.76529522441113,SK,SK03,SK032,509001,Slovenská Ľupča,3253,32.33174325,2018,SK_509001,official,TRUE
SK_509019,19.116411540180053,48.83646144610613,SK,SK03,SK032,509019,Staré Hory,551,41.57464741,2018,SK_509019,official,TRUE
SK_509027,19.394546008245793,48.72267505408826,SK,SK03,SK032,509027,Strelníky,762,17.46972381,2018,SK_509027,official,TRUE
SK_509035,19.12947423158142,48.80609276143305,SK,SK03,SK032,509035,Špania Dolina,213,12.73182808,2018,SK_509035,official,TRUE
SK_509043,20.132959891243072,48.83843311902564,SK,SK03,SK032,509043,Šumiac,1272,81.77455173,2018,SK_509043,official,TRUE
SK_509051,20.182656394888507,48.85113781003184,SK,SK03,SK032,509051,Telgárt,1532,55.99617912,2018,SK_509051,official,TRUE
SK_509060,19.06237542792196,48.74544888245599,SK,SK03,SK032,509060,Tajov,642,9.28704832,2018,SK_509060,official,TRUE
SK_509086,19.56955111957211,48.80793172366066,SK,SK03,SK032,509086,Valaská,3726,63.32722746,2018,SK_509086,official,TRUE
SK_509094,20.063753461502092,48.836044618456626,SK,SK03,SK032,509094,Vaľkovňa,430,14.8442488,2018,SK_509094,official,TRUE
SK_509124,19.916155669459528,48.85002863966609,SK,SK03,SK032,509124,Závadka nad Hronom,2326,41.19122974,2018,SK_509124,official,TRUE
SK_509132,18.77441941856337,49.43467453974757,SK,SK03,SK031,509132,Čadca,24315,56.7774316,2018,SK_509132,official,TRUE
SK_509159,18.83510853980547,49.500048114114094,SK,SK03,SK031,509159,Čierne,4402,20.83206173,2018,SK_509159,official,TRUE
SK_509167,18.64344719256866,49.38492662283774,SK,SK03,SK031,509167,Dlhá nad Kysucou,612,12.26343247,2018,SK_509167,official,TRUE
SK_509175,18.849364242021895,49.267301576349695,SK,SK03,SK031,509175,Dolný Vadičov,480,5.95492907,2018,SK_509175,official,TRUE
SK_509183,18.81846182286333,49.359204054913505,SK,SK03,SK031,509183,Dunajov,1173,6.06050981,2018,SK_509183,official,TRUE
SK_509205,18.87923362078186,49.266266300670964,SK,SK03,SK031,509205,Horný Vadičov,1619,20.81044741,2018,SK_509205,official,TRUE
SK_509213,18.589728855382685,49.46461359459455,SK,SK03,SK031,509213,Klokočov,2313,51.18030342,2018,SK_509213,official,TRUE
SK_509221,18.89388909381519,49.35285560014327,SK,SK03,SK031,509221,Klubina,546,15.57103254,2018,SK_509221,official,TRUE
SK_509230,18.55699465471869,49.41484169412492,SK,SK03,SK031,509230,Korňa,2014,25.31934388,2018,SK_509230,official,TRUE
SK_509248,18.83425194050402,49.394001030541595,SK,SK03,SK031,509248,Krásno nad Kysucou,6783,27.76865843,2018,SK_509248,official,TRUE
SK_509256,18.787436158667838,49.30482847734395,SK,SK03,SK031,509256,Kysucké Nové Mesto,15132,26.41938053,2018,SK_509256,official,TRUE
SK_509264,18.818226472143486,49.34100872175255,SK,SK03,SK031,509264,Kysucký Lieskovec,2354,12.31868004,2018,SK_509264,official,TRUE
SK_509272,18.864139081625034,49.3363573453016,SK,SK03,SK031,509272,Lodno,1001,8.85101506,2018,SK_509272,official,TRUE
SK_509281,18.82994693244541,49.277578884128275,SK,SK03,SK031,509281,Lopušné Pažite,452,4.27133219,2018,SK_509281,official,TRUE
SK_509299,18.476560733952955,49.36758478885999,SK,SK03,SK031,509299,Makov,1720,46.04625112,2018,SK_509299,official,TRUE
SK_509302,18.744783412651877,49.312681330256,SK,SK03,SK031,509302,Nesluša,3153,25.47649409,2018,SK_509302,official,TRUE
SK_509311,19.01614581793361,49.34856059955988,SK,SK03,SK031,509311,Nová Bystrica,2775,125.35611792,2018,SK_509311,official,TRUE
SK_509329,18.78863408001043,49.35098981213705,SK,SK03,SK031,509329,Ochodnica,1934,18.06069822,2018,SK_509329,official,TRUE
SK_509337,18.664961866376128,49.42539396123783,SK,SK03,SK031,509337,Olešná,1939,19.77549307,2018,SK_509337,official,TRUE
SK_509345,18.874401258675753,49.43145825074327,SK,SK03,SK031,509345,Oščadnica,5701,58.63735993,2018,SK_509345,official,TRUE
SK_509361,18.666271106666468,49.41329822350505,SK,SK03,SK031,509361,Podvysoká,1339,5.60340076,2018,SK_509361,official,TRUE
SK_509370,18.818877159753523,49.312714655365255,SK,SK03,SK031,509370,Povina,1171,19.12690465,2018,SK_509370,official,TRUE
SK_509396,18.943186309786753,49.32406241014129,SK,SK03,SK031,509396,Radôstka,819,13.17388066,2018,SK_509396,official,TRUE
SK_509400,18.732313036952693,49.44255452629422,SK,SK03,SK031,509400,Raková,5507,41.50936057,2018,SK_509400,official,TRUE
SK_509426,18.738454660707298,49.28780001744192,SK,SK03,SK031,509426,Rudina,1802,6.28035189,2018,SK_509426,official,TRUE
SK_509434,18.754697906925664,49.28112458324986,SK,SK03,SK031,509434,Rudinka,382,3.13524663,2018,SK_509434,official,TRUE
SK_509442,18.719434708147475,49.31156946494139,SK,SK03,SK031,509442,Rudinská,985,10.76938411,2018,SK_509442,official,TRUE
SK_509451,18.90855111173412,49.49761664563191,SK,SK03,SK031,509451,Skalité,5248,33.16865758,2018,SK_509451,official,TRUE
SK_509469,18.78608799878731,49.265223746493525,SK,SK03,SK031,509469,Snežnica,1009,5.52058648,2018,SK_509469,official,TRUE
SK_509477,18.935717214570744,49.3467431480716,SK,SK03,SK031,509477,Stará Bystrica,2759,36.90988389,2018,SK_509477,official,TRUE
SK_509485,18.695468180661308,49.42626621685116,SK,SK03,SK031,509485,Staškov,2785,21.84718637,2018,SK_509485,official,TRUE
SK_509493,18.79186343489128,49.47964512082841,SK,SK03,SK031,509493,Svrčinovec,3517,15.72750504,2018,SK_509493,official,TRUE
SK_509507,18.623242184763694,49.40356194290141,SK,SK03,SK031,509507,Turzovka,7559,34.89506415,2018,SK_509507,official,TRUE
SK_509515,18.530760481062732,49.382831545913874,SK,SK03,SK031,509515,Vysoká nad Kysucou,2659,43.87600083,2018,SK_509515,official,TRUE
SK_509523,18.72522497814703,49.405061207379205,SK,SK04,SK042,509523,Zákopčie,1761,29.62579084,2018,SK_509523,official,TRUE
SK_509531,18.884040177971134,49.38084808308757,SK,SK03,SK031,509531,Zborov nad Bystricou,2253,18.71027331,2018,SK_509531,official,TRUE
SK_509540,19.29359399910294,49.21188787436783,SK,SK03,SK031,509540,Dolný Kubín,18905,55.01403413,2018,SK_509540,official,TRUE
SK_509558,19.37947529502513,49.331235308526296,SK,SK03,SK031,509558,Babín,1449,17.37662493,2018,SK_509558,official,TRUE
SK_509566,19.339769262521443,49.43345149654333,SK,SK03,SK031,509566,Beňadovo,862,6.70022815,2018,SK_509566,official,TRUE
SK_509582,19.53618759257772,49.42761029789037,SK,SK03,SK031,509582,Bobrov,1821,25.63621481,2018,SK_509582,official,TRUE
SK_509591,19.384390184738496,49.386677953064996,SK,SK03,SK031,509591,Breza,1626,22.52607813,2018,SK_509591,official,TRUE
SK_509604,19.655646582174484,49.34326095666282,SK,SK03,SK031,509604,Brezovica,1339,19.20324484,2018,SK_509604,official,TRUE
SK_509639,19.44637716683719,49.262326557882126,SK,SK03,SK031,509639,Dlhá nad Oravou,1415,24.29294342,2018,SK_509639,official,TRUE
SK_509655,19.610053540345383,49.27494203841928,SK,SK03,SK031,509655,Habovka,1392,29.09409528,2018,SK_509655,official,TRUE
SK_509663,19.758177068155586,49.3706598699427,SK,SK03,SK031,509663,Hladovka,1041,18.09374679,2018,SK_509663,official,TRUE
SK_509671,19.402346092481356,49.25625243767939,SK,SK03,SK031,509671,Horná Lehota,551,15.30411951,2018,SK_509671,official,TRUE
SK_509680,19.346582441723324,49.324289953711286,SK,SK03,SK031,509680,Hruštín,3155,36.44994752,2018,SK_509680,official,TRUE
SK_509698,19.46701703810124,49.23205103609922,SK,SK03,SK031,509698,Chlebnice,1622,25.30113683,2018,SK_509698,official,TRUE
SK_509701,19.225907625757788,49.2088804070098,SK,SK03,SK031,509701,Istebné,1360,11.28778784,2018,SK_509701,official,TRUE
SK_509710,19.292815856157908,49.17484484192997,SK,SK03,SK031,509710,Jasenová,420,11.93094854,2018,SK_509710,official,TRUE
SK_509728,19.487953111116415,49.44024808997312,SK,SK03,SK031,509728,Klin,2428,12.74893175,2018,SK_509728,official,TRUE
SK_509744,19.13200662229815,49.151925506401035,SK,SK03,SK031,509744,Kraľovany,432,18.81258804,2018,SK_509744,official,TRUE
SK_509761,19.47803810662263,49.28542431686258,SK,SK03,SK031,509761,Krivá,810,18.87864095,2018,SK_509761,official,TRUE
SK_509779,19.338527180740854,49.37564288818708,SK,SK03,SK031,509779,Krušetnica,958,16.58589524,2018,SK_509779,official,TRUE
SK_509787,19.350515443580576,49.18815678643102,SK,SK03,SK031,509787,Leštiny,267,6.93136108,2018,SK_509787,official,TRUE
SK_509795,19.672994397390024,49.36050547627478,SK,SK03,SK031,509795,Liesek,2904,30.85782883,2018,SK_509795,official,TRUE
SK_509809,19.410787435472546,49.36522566569889,SK,SK03,SK031,509809,Lokca,2361,24.19199923,2018,SK_509809,official,TRUE
SK_509817,19.301642826944875,49.36010647937399,SK,SK03,SK031,509817,Lomná,914,21.54320147,2018,SK_509817,official,TRUE
SK_509825,19.43077216395236,49.18609033165155,SK,SK03,SK031,509825,Malatiná,822,19.1441876,2018,SK_509825,official,TRUE
SK_509833,19.34306043935402,49.23426763595244,SK,SK03,SK031,509833,Medzibrodie nad Oravou,527,6.57606688,2018,SK_509833,official,TRUE
SK_509850,19.322086901821372,49.463641721472975,SK,SK03,SK031,509850,Mútne,2990,64.45800804,2018,SK_509850,official,TRUE
SK_509868,19.474106860538694,49.40614166959917,SK,SK03,SK031,509868,Námestovo,7876,44.45901046,2018,SK_509868,official,TRUE
SK_509876,19.520183461727616,49.30947196833224,SK,SK03,SK031,509876,Nižná,4036,27.77856766,2018,SK_509876,official,TRUE
SK_509884,19.266158227727974,49.43098819965616,SK,SK03,SK031,509884,Novoť,3575,37.93537718,2018,SK_509884,official,TRUE
SK_509892,19.43904582801172,49.39054420821164,SK,SK03,SK031,509892,Oravská Jasenica,1859,23.74335455,2018,SK_509892,official,TRUE
SK_509906,19.17715385995643,49.3674426479476,SK,SK03,SK031,509906,Oravská Lesná,3407,65.59125329,2018,SK_509906,official,TRUE
SK_509914,19.447957465368642,49.51898339130933,SK,SK03,SK031,509914,Oravská Polhora,3956,84.4896439,2018,SK_509914,official,TRUE
