gisco_id,longitude,latitude,country,nuts_2,nuts_3,lau_id,lau_name,population,area_km2,year,fid,concordance,pop_weighted
FI_005,23.815102791100067,62.99128513480498,FI,FI19,FI194,005,Alajärvi,9562,1056.57355029,2020,FI_005,official,TRUE
FI_009,24.30779628164925,64.16821058858112,FI,FI1D,FI1D9,009,Alavieska,2519,254.1643892,2020,FI_009,official,TRUE
FI_010,23.638739662211567,62.59490026398887,FI,FI19,FI194,010,Alavus,11468,1151.97672413,2020,FI_010,official,TRUE
FI_016,25.554830786199208,61.169302258121526,FI,FI1C,FI1C3,016,Asikkala,8083,755.18990806,2020,FI_016,official,TRUE
FI_018,25.563941522178396,60.50802430796034,FI,FI1B,FI1B1,018,Askola,4943,218.11008753,2020,FI_018,official,TRUE
FI_019,22.58154067607496,60.64595912320309,FI,FI1C,FI1C1,019,Aura,3941,95.49901128,2020,FI_019,official,TRUE
FI_020,23.83223355854275,61.180555245550025,FI,FI19,FI197,020,Akaa,16475,314.20956475,2020,FI_020,official,TRUE
FI_035,21.046395549141643,60.41453652143505,FI,FI20,FI200,035,Brändö,445,86.39759366,2020,FI_035,official,TRUE
FI_043,19.568423103987733,60.21982352136862,FI,FI20,FI200,043,Eckerö,952,106.66112202,2020,FI_043,official,TRUE
FI_046,28.92160735517395,62.08851677138269,FI,FI1D,FI1D1,046,Enonkoski,1361,419.29998007,2020,FI_046,official,TRUE
FI_047,23.202184688065802,68.45608449823176,FI,FI1D,FI1D7,047,Enontekiö / Enontekis,1838,8391.27120246,2020,FI_047,official,TRUE
FI_049,24.732512795869678,60.18773827039436,FI,FI1B,FI1B1,049,Espoo / Esbo,289731,327.05706049,2020,FI_049,official,TRUE
FI_050,22.139338265491954,61.129229242904806,FI,FI19,FI196,050,Eura,11632,630.44209978,2020,FI_050,official,TRUE
FI_051,21.70273885092864,61.249782458391046,FI,FI19,FI196,051,Eurajoki / Euraåminne,9402,514.44526639,2020,FI_051,official,TRUE
FI_052,23.468524851106732,63.36880497160209,FI,FI19,FI194,052,Evijärvi,2425,388.69970566,2020,FI_052,official,TRUE
FI_060,19.976638993610976,60.233225994360936,FI,FI20,FI200,060,Finström,2593,129.2034733,2020,FI_060,official,TRUE
FI_061,23.623060499159337,60.8139375206884,FI,FI1C,FI1C2,061,Forssa,16901,253.34583932,2020,FI_061,official,TRUE
FI_062,20.416397796969505,60.02925750929553,FI,FI20,FI200,062,Föglö,531,116.56521714,2020,FI_062,official,TRUE
FI_065,19.848533619415843,60.36941246484784,FI,FI20,FI200,065,Geta,496,85.69035747,2020,FI_065,official,TRUE
FI_069,25.323504615428178,63.75382162627621,FI,FI1D,FI1D9,069,Haapajärvi,7010,789.86544116,2020,FI_069,official,TRUE
FI_071,25.365705148277385,64.1392597299016,FI,FI1D,FI1D9,071,Haapavesi,6758,1085.47773739,2020,FI_071,official,TRUE
FI_072,24.731570993527143,65.01622152523606,FI,FI1D,FI1D9,072,Hailuoto / Karlö,959,201.65464123,2020,FI_072,official,TRUE
FI_074,24.17841262048185,63.45348959795463,FI,FI1D,FI1D5,074,Halsua,1127,428.68238803,2020,FI_074,official,TRUE
FI_075,27.173082130652137,60.57295248900917,FI,FI1C,FI1C4,075,Hamina / Fredrikshamn,20111,628.92836554,2020,FI_075,official,TRUE
FI_076,19.736391909641117,60.217034735301404,FI,FI20,FI200,076,Hammarland,1583,136.97670985,2020,FI_076,official,TRUE
FI_077,26.444028547857414,62.35289392419326,FI,FI19,FI193,077,Hankasalmi,4875,687.55889832,2020,FI_077,official,TRUE
FI_078,22.96928052429135,59.83378399335617,FI,FI1B,FI1B1,078,Hanko / Hangö,8199,111.81941654,2020,FI_078,official,TRUE
FI_079,22.147940345442944,61.316531457368384,FI,FI19,FI196,079,Harjavalta,6931,127.74683119,2020,FI_079,official,TRUE
FI_081,26.020622947298776,61.57908288099304,FI,FI1C,FI1C3,081,Hartola,2697,675.50143366,2020,FI_081,official,TRUE
FI_082,24.37571401201463,61.055893488119644,FI,FI1C,FI1C2,082,Hattula,9422,425.68484079,2020,FI_082,official,TRUE
FI_086,24.876236075873273,60.791121816801365,FI,FI1C,FI1C2,086,Hausjärvi,8260,398.73683806,2020,FI_086,official,TRUE
FI_090,28.63687653418443,62.4246654742793,FI,FI1D,FI1D1,090,Heinävesi,3254,1318.99571728,2020,FI_090,official,TRUE
FI_091,24.973588002365258,60.20387317430847,FI,FI1B,FI1B1,091,Helsinki / Helsingfors,653835,210.50512173,2020,FI_091,official,TRUE
FI_092,24.98798587804068,60.29386730379414,FI,FI1B,FI1B1,092,Vantaa / Vanda,233775,240.40282044,2020,FI_092,official,TRUE
FI_097,26.777507205083367,61.64652722919994,FI,FI1D,FI1D1,097,Hirvensalmi,2136,746.66655956,2020,FI_097,official,TRUE
FI_098,25.51527318913041,60.991170415897585,FI,FI1C,FI1C3,098,Hollola,23410,727.98637492,2020,FI_098,official,TRUE
FI_099,22.26986042840917,61.99483167765504,FI,FI19,FI196,099,Honkajoki,1620,334.4905427,2020,FI_099,official,TRUE
FI_102,22.703172743702577,61.17845671376415,FI,FI19,FI196,102,Huittinen,10044,538.97432254,2020,FI_102,official,TRUE
FI_103,23.368852428765166,60.925888352485046,FI,FI1C,FI1C2,103,Humppila,2184,148.55286175,2020,FI_103,official,TRUE
FI_105,28.48422251341588,64.6766067852745,FI,FI1D,FI1D8,105,Hyrynsalmi,2271,1522.145912,2020,FI_105,official,TRUE
FI_106,24.85828689909738,60.627105256561414,FI,FI1B,FI1B1,106,Hyvinkää / Hyvinge,46470,336.7278649,2020,FI_106,official,TRUE
FI_108,23.18913447236107,61.65635841103886,FI,FI19,FI197,108,Hämeenkyrö / Tavastkyro,10404,504.66373018,2020,FI_108,official,TRUE
FI_109,24.46079823650441,60.99718917026512,FI,FI1C,FI1C2,109,Hämeenlinna / Tavastehus,67633,2034.29105865,2020,FI_109,official,TRUE
FI_111,26.034507795407965,61.204373855696666,FI,FI1C,FI1C3,111,Heinola,18667,839.75144909,2020,FI_111,official,TRUE
FI_139,25.365541188826757,65.3388232848654,FI,FI1D,FI1D9,139,Ii,9844,1661.3435558,2020,FI_139,official,TRUE
FI_140,27.201523789948638,63.56139804557979,FI,FI1D,FI1D2,140,Iisalmi / Idensalmi,21368,872.66724557,2020,FI_140,official,TRUE
FI_142,26.341605912843693,60.891158376405066,FI,FI1C,FI1C4,142,Iitti,6711,686.86999517,2020,FI_142,official,TRUE
FI_143,23.070227940364735,61.76871019627134,FI,FI19,FI197,143,Ikaalinen / Ikalis,6942,843.68196908,2020,FI_143,official,TRUE
FI_145,22.596821220785294,62.73741575216273,FI,FI19,FI194,145,Ilmajoki,12269,579.40207254,2020,FI_145,official,TRUE
FI_146,30.92841923425288,62.671179446743245,FI,FI1D,FI1D3,146,Ilomantsi / Ilomants,4857,3172.5556186,2020,FI_146,official,TRUE
FI_148,27.501503242580828,68.66960337436139,FI,FI1D,FI1D7,148,Inari / Enare,6907,17331.397499,2020,FI_148,official,TRUE
FI_149,24.014542969990746,60.051718975387345,FI,FI1B,FI1B1,149,Inkoo / Ingå,5386,348.21312169,2020,FI_149,official,TRUE
FI_151,21.946835335510634,62.11904978889617,FI,FI19,FI194,151,Isojoki / Storå,1951,647.60225303,2020,FI_151,official,TRUE
FI_152,22.29674372586491,62.99660370568328,FI,FI19,FI195,152,Isokyrö / Storkyro,4522,356.94491907,2020,FI_152,official,TRUE
FI_153,28.784721589925326,61.186594602489656,FI,FI1C,FI1C5,153,Imatra,26508,191.19467345,2020,FI_153,official,TRUE
FI_165,24.646499306455357,60.89647145801539,FI,FI1C,FI1C2,165,Janakkala,16413,585.68561054,2020,FI_165,official,TRUE
FI_167,29.77868041903598,62.604516486653296,FI,FI1D,FI1D3,167,Joensuu,76850,2752.2716597,2020,FI_167,official,TRUE
FI_169,23.489850731486822,60.80056083337063,FI,FI1C,FI1C2,169,Jokioinen / Jockis,5133,181.8698101,2020,FI_169,official,TRUE
FI_170,19.946860094575314,60.13599623890245,FI,FI20,FI200,170,Jomala,5233,141.48859933,2020,FI_170,official,TRUE
FI_171,27.832383360637063,62.195086428079506,FI,FI1D,FI1D1,171,Joroinen / Jorois,4767,711.89774343,2020,FI_171,official,TRUE
FI_172,26.11569509240501,61.75520355171799,FI,FI19,FI193,172,Joutsa,4377,1065.74027224,2020,FI_172,official,TRUE
FI_176,29.251098280259782,63.23906635117877,FI,FI1D,FI1D3,176,Juuka,4606,1847.14960466,2020,FI_176,official,TRUE
FI_177,24.387437657153193,61.79930500810705,FI,FI19,FI197,177,Juupajoki,1844,274.95940658,2020,FI_177,official,TRUE
FI_178,27.85689574590321,61.89768158037981,FI,FI1D,FI1D1,178,Juva,6116,1345.50680595,2020,FI_178,official,TRUE
FI_179,25.749106769164737,62.24556097240002,FI,FI19,FI193,179,Jyväskylä,142400,1465.43450493,2020,FI_179,official,TRUE
FI_181,22.686272512279682,61.82323978703948,FI,FI19,FI196,181,Jämijärvi,1739,224.49847385,2020,FI_181,official,TRUE
FI_182,25.17892970647256,61.880565028016385,FI,FI19,FI193,182,Jämsä,20182,1823.35946272,2020,FI_182,official,TRUE
FI_186,25.09261600585061,60.47779429735556,FI,FI1B,FI1B1,186,Järvenpää / Träskända,43711,40.13338132,2020,FI_186,official,TRUE
FI_202,22.370220116737684,60.41705826202721,FI,FI1C,FI1C1,202,Kaarina / S:t Karins,33937,151.17881189,2020,FI_202,official,TRUE
FI_204,28.48245755084428,62.97495114809693,FI,FI1D,FI1D2,204,Kaavi,2893,789.33588856,2020,FI_204,official,TRUE
FI_205,27.73200246866692,64.22165919933025,FI,FI1D,FI1D8,205,Kajaani / Kajana,36709,2263.35546877,2020,FI_205,official,TRUE
FI_208,23.924940456099865,64.2320487970354,FI,FI1D,FI1D9,208,Kalajoki,12373,925.81346384,2020,FI_208,official,TRUE
FI_211,24.0198647935094,61.474487106824945,FI,FI19,FI197,211,Kangasala,31868,870.95520122,2020,FI_211,official,TRUE
FI_213,26.64350910587605,61.985823562401436,FI,FI1D,FI1D1,213,Kangasniemi,5356,1326.89872622,2020,FI_213,official,TRUE
FI_214,22.389348543597215,61.803395009955146,FI,FI19,FI196,214,Kankaanpää,11286,704.46946747,2020,FI_214,official,TRUE
FI_216,25.264075153591442,62.975166338016116,FI,FI19,FI193,216,Kannonkoski,1339,550.09494406,2020,FI_216,official,TRUE
FI_217,23.926881220097314,63.89625131226095,FI,FI1D,FI1D5,217,Kannus,5464,470.45078931,2020,FI_217,official,TRUE
FI_218,21.688976100400485,62.314420621566036,FI,FI19,FI194,218,Karijoki / Bötom,1245,186.41667836,2020,FI_218,official,TRUE
FI_224,24.217738409692718,60.533474802407554,FI,FI1B,FI1B1,224,Karkkila / Högfors,8714,255.24058487,2020,FI_224,official,TRUE
FI_226,24.809419528074063,62.878900206049146,FI,FI19,FI193,226,Karstula,3949,963.05213913,2020,FI_226,official,TRUE
FI_230,22.57426585992691,62.14153010576038,FI,FI19,FI196,230,Karvia,2342,520.01584133,2020,FI_230,official,TRUE
FI_231,21.227638907518887,62.382849072094416,FI,FI19,FI195,231,Kaskinen / Kaskö,1246,9.61112244,2020,FI_231,official,TRUE
FI_232,22.173708064946773,62.426768086385884,FI,FI19,FI194,232,Kauhajoki,13184,1314.29380615,2020,FI_232,official,TRUE
FI_233,22.9880026370766,63.13678021277227,FI,FI19,FI194,233,Kauhava,15726,1326.80012543,2020,FI_233,official,TRUE
FI_235,24.71126573708754,60.21264690734489,FI,FI1B,FI1B1,235,Kauniainen / Grankulla,9797,6.10021357,2020,FI_235,official,TRUE
FI_236,23.701763891869685,63.55466356224569,FI,FI1D,FI1D5,236,Kaustinen / Kaustby,4261,362.3293971,2020,FI_236,official,TRUE
FI_239,26.347138346612436,63.177872244631324,FI,FI1D,FI1D2,239,Keitele,2202,578.50347537,2020,FI_239,official,TRUE
FI_240,24.58534316176976,65.73749698992489,FI,FI1D,FI1D7,240,Kemi,20707,100.21888127,2020,FI_240,official,TRUE
FI_241,24.53321153903136,65.80110533216902,FI,FI1D,FI1D7,241,Keminmaa,8079,647.03257335,2020,FI_241,official,TRUE
FI_244,25.521458914825,64.91261043359414,FI,FI1D,FI1D9,244,Kempele,18355,110.58940838,2020,FI_244,official,TRUE
FI_245,25.10150788233524,60.40397856764496,FI,FI1B,FI1B1,245,Kerava / Kervo,36756,31.10794416,2020,FI_245,official,TRUE
FI_249,24.698025133715767,62.26134066765407,FI,FI19,FI193,249,Keuruu,9605,1430.26005594,2020,FI_249,official,TRUE
FI_250,23.177120380303986,62.20131494961206,FI,FI19,FI197,250,Kihniö,1865,390.4253404,2020,FI_250,official,TRUE
FI_256,24.974885197013247,63.36344309129708,FI,FI19,FI193,256,Kinnula,1620,495.40391548,2020,FI_256,official,TRUE
FI_257,24.45834243558523,60.14650156336776,FI,FI1B,FI1B1,257,Kirkkonummi / Kyrkslätt,39586,387.26791644,2020,FI_257,official,TRUE
FI_260,30.11353374199522,62.080744463177446,FI,FI1D,FI1D3,260,Kitee,10136,1723.65507348,2020,FI_260,official,TRUE
FI_261,24.89519863607111,67.67262195398776,FI,FI1D,FI1D7,261,Kittilä,6453,8261.60128641,2020,FI_261,official,TRUE
FI_263,26.61659016606948,63.649165616898294,FI,FI1D,FI1D2,263,Kiuruvesi,7998,1422.89247226,2020,FI_263,official,TRUE
FI_265,25.07982948036616,63.12357151613291,FI,FI19,FI193,265,Kivijärvi,1096,600.2274019,2020,FI_265,official,TRUE
FI_271,22.34190113547519,61.260969971677035,FI,FI19,FI196,271,Kokemäki / Kumo,7103,530.63991212,2020,FI_271,official,TRUE
FI_272,23.138188151864412,63.84005168636286,FI,FI1D,FI1D5,272,Kokkola / Karleby,47681,1475.72316732,2020,FI_272,official,TRUE
FI_273,23.905772760493445,67.38639391575425,FI,FI1D,FI1D7,273,Kolari,3846,2618.6961737,2020,FI_273,official,TRUE
FI_275,26.286653519894006,62.627481931336305,FI,FI19,FI193,275,Konnevesi,2627,681.18741089,2020,FI_275,official,TRUE
FI_276,29.822035867838697,62.69286398384706,FI,FI1D,FI1D3,276,Kontiolahti,14821,1028.8733309,2020,FI_276,official,TRUE
FI_280,21.215418931321928,62.79939085910776,FI,FI19,FI195,280,Korsnäs,2077,233.8002741,2020,FI_280,official,TRUE
FI_284,23.13728605693248,60.65584952626405,FI,FI1C,FI1C1,284,Koski Tl,2308,192.24014919,2020,FI_284,official,TRUE
FI_285,26.927052245511188,60.482333593963624,FI,FI1C,FI1C4,285,Kotka,52126,273.11516376,2020,FI_285,official,TRUE
FI_286,26.697584626479955,60.86957546855423,FI,FI1C,FI1C4,286,Kouvola,82113,2882.05879377,2020,FI_286,official,TRUE
FI_287,21.406640822666976,62.267091105294384,FI,FI19,FI195,287,Kristiinankaupunki / Kristinestad,6486,694.21215482,2020,FI_287,official,TRUE
FI_288,23.225597671296352,63.667085399042605,FI,FI19,FI195,288,Kruunupyy / Kronoby,6428,750.32230922,2020,FI_288,official,TRUE
FI_290,29.520799947241297,64.12436615210828,FI,FI1D,FI1D8,290,Kuhmo,8190,5456.67891589,2020,FI_290,official,TRUE
FI_291,25.175801299936545,61.56124258892428,FI,FI19,FI193,291,Kuhmoinen,2206,936.4462692,2020,FI_291,official,TRUE
FI_295,20.780211392638165,60.26208941651172,FI,FI20,FI200,295,Kumlinge,314,85.05398012,2020,FI_295,official,TRUE
FI_297,27.675458653568224,62.88777906316106,FI,FI1D,FI1D2,297,Kuopio,119282,4324.85424933,2020,FI_297,official,TRUE
FI_300,23.513609814344854,62.80327069354858,FI,FI19,FI194,300,Kuortane,3551,484.05137713,2020,FI_300,official,TRUE
FI_301,22.475549567183553,62.58175867121936,FI,FI19,FI194,301,Kurikka,20678,1742.66478147,2020,FI_301,official,TRUE
FI_304,21.35946461007085,60.544214339980016,FI,FI1C,FI1C1,304,Kustavi / Gustavs,949,159.45019001,2020,FI_304,official,TRUE
FI_305,29.178657113522373,65.97157326192405,FI,FI1D,FI1D9,305,Kuusamo,15134,5808.58999051,2020,FI_305,official,TRUE
FI_309,29.02558299965492,62.726157542036006,FI,FI1D,FI1D3,309,Outokumpu,6688,583.90919338,2020,FI_309,official,TRUE
FI_312,24.578952354123984,63.04610231038185,FI,FI19,FI193,312,Kyyjärvi,1313,470.08970849,2020,FI_312,official,TRUE
FI_316,25.266836584669868,60.87257163395323,FI,FI1C,FI1C3,316,Kärkölä,4368,259.14502520999997,2020,FI_316,official,TRUE
FI_317,25.769554707831073,63.97605659823305,FI,FI1D,FI1D9,317,Kärsämäki,2576,702.28008797,2020,FI_317,official,TRUE
FI_318,20.92214648887064,59.931474498500904,FI,FI20,FI200,318,Kökar,232,42.51767152,2020,FI_318,official,TRUE
FI_320,27.427722407959898,66.71367674259831,FI,FI1D,FI1D7,320,Kemijärvi,7274,3930.77843349,2020,FI_320,official,TRUE
FI_322,22.64061830224971,60.11760041312925,FI,FI1C,FI1C1,322,Kemiönsaari / Kimitoön,6640,661.1680121,2020,FI_322,official,TRUE
FI_398,25.667898014925758,60.98213268867326,FI,FI1C,FI1C3,398,Lahti / Lahtis,119823,517.2858724,2020,FI_398,official,TRUE
FI_399,22.024483099410674,62.976689835699965,FI,FI19,FI195,399,Laihia / Laihela,8017,508.12876624,2020,FI_399,official,TRUE
FI_400,21.698901959582123,60.88223680616044,FI,FI1C,FI1C1,400,Laitila,8588,545.42325705,2020,FI_400,official,TRUE
FI_402,27.443727093614108,63.357227198299036,FI,FI1D,FI1D2,402,Lapinlahti,9485,1244.93047032,2020,FI_402,official,TRUE
FI_403,23.626429729600655,63.21375173989357,FI,FI19,FI194,403,Lappajärvi,2996,524.09195951,2020,FI_403,official,TRUE
FI_405,28.18920588627346,61.060101174180986,FI,FI1C,FI1C5,405,Lappeenranta / Villmanstrand,72634,1723.85552741,2020,FI_405,official,TRUE
FI_407,26.18974549939034,60.62922466865966,FI,FI1B,FI1B1,407,Lapinjärvi / Lappträsk,2606,339.29109524,2020,FI_407,official,TRUE
FI_408,23.018848482709622,62.96967106759635,FI,FI19,FI194,408,Lapua / Lappo,14278,752.24334822,2020,FI_408,official,TRUE
FI_410,25.939627358787057,62.37351928256832,FI,FI19,FI193,410,Laukaa,18903,826.33153617,2020,FI_410,official,TRUE
FI_416,27.897393573291332,61.07120533725004,FI,FI1C,FI1C5,416,Lemi,2971,262.54782378,2020,FI_416,official,TRUE
FI_417,20.09417311953063,60.06696843511057,FI,FI20,FI200,417,Lemland,2053,109.27865085,2020,FI_417,official,TRUE
FI_418,23.760252023700282,61.35095951896077,FI,FI19,FI197,418,Lempäälä,23523,307.53432142,2020,FI_418,official,TRUE
FI_420,27.78234444851977,62.49039832878629,FI,FI1D,FI1D2,420,Leppävirta,9454,1519.82977831,2020,FI_420,official,TRUE
FI_421,24.670957305320336,63.51998046190193,FI,FI1D,FI1D5,421,Lestijärvi,719,558.28036116,2020,FI_421,official,TRUE
FI_422,30.027847386561,63.32277626566559,FI,FI1D,FI1D3,422,Lieksa,10884,4067.51491776,2020,FI_422,official,TRUE
FI_423,22.44827388289839,60.50285149887093,FI,FI1C,FI1C1,423,Lieto / Lundo,19994,302.56641266,2020,FI_423,official,TRUE
FI_425,25.439085694171716,64.8267668830232,FI,FI1D,FI1D9,425,Liminka / Limingo,10191,640.51128844,2020,FI_425,official,TRUE
FI_426,29.48722521367984,62.60426389585147,FI,FI1D,FI1D3,426,Liperi,12084,1161.16458416,2020,FI_426,official,TRUE
FI_430,23.027649504834645,60.8597446416932,FI,FI1C,FI1C1,430,Loimaa,15875,851.66709438,2020,FI_430,official,TRUE
FI_433,24.5033031696972,60.716391235745334,FI,FI1C,FI1C2,433,Loppi,7828,656.97777213,2020,FI_433,official,TRUE
FI_434,26.216999192614754,60.45464971430559,FI,FI1B,FI1B1,434,Loviisa / Lovisa,14772,834.35580029,2020,FI_434,official,TRUE
FI_435,25.743066035386946,61.807571517271136,FI,FI19,FI193,435,Luhanka,690,313.07872665,2020,FI_435,official,TRUE
FI_436,25.19138299528685,64.83312781545213,FI,FI1D,FI1D9,436,Lumijoki,2020,211.31264681,2020,FI_436,official,TRUE
FI_438,20.25554805354312,60.1173752384085,FI,FI20,FI200,438,Lumparland,366,35.25281024,2020,FI_438,official,TRUE
FI_440,22.781071416008793,63.76483110688188,FI,FI19,FI195,440,Luoto / Larsmo,5417,173.12851458,2020,FI_440,official,TRUE
FI_441,27.605908927747645,60.9282105989504,FI,FI1C,FI1C5,441,Luumäki,4636,860.36629247,2020,FI_441,official,TRUE
FI_444,24.05507511765751,60.246896339978456,FI,FI1B,FI1B1,444,Lohja / Lojo,45965,1109.73289353,2020,FI_444,official,TRUE
FI_445,22.30865029765525,60.30464207771186,FI,FI1C,FI1C1,445,Parainen / Pargas,15132,810.50518023,2020,FI_445,official,TRUE
FI_475,21.564594164575777,62.9232662590233,FI,FI19,FI195,475,Maalahti / Malax,5475,516.68773657,2020,FI_475,official,TRUE
FI_478,19.943359930393612,60.10141209964954,FI,FI20,FI200,478,Maarianhamina - Mariehamn / Mariehamn,11679,11.63506208,2020,FI_478,official,TRUE
FI_480,22.893264268902065,60.58758561067638,FI,FI1C,FI1C1,480,Marttila,2013,195.72506578,2020,FI_480,official,TRUE
FI_481,22.08703521996216,60.56195238951985,FI,FI1C,FI1C1,481,Masku,9534,175.84094466,2020,FI_481,official,TRUE
FI_483,24.438450950978467,64.29883376541066,FI,FI1D,FI1D9,483,Merijärvi,1089,232.93013649,2020,FI_483,official,TRUE
FI_484,21.508224807108892,61.85981388998079,FI,FI19,FI196,484,Merikarvia / Sastmola,3067,444.97965623,2020,FI_484,official,TRUE
FI_489,27.69902758564531,60.673378498433955,FI,FI1C,FI1C4,489,Miehikkälä,1857,440.06379097,2020,FI_489,official,TRUE
FI_491,27.26903129987174,61.68553889827598,FI,FI1D,FI1D1,491,Mikkeli / S:t Michel,53134,3229.70577812,2020,FI_491,official,TRUE
FI_494,25.982289689357994,64.81586051876793,FI,FI1D,FI1D9,494,Muhos,8908,799.57221697,2020,FI_494,official,TRUE
FI_495,24.797532617295715,62.4119464708996,FI,FI19,FI193,495,Multia,1566,763.79328573,2020,FI_495,official,TRUE
FI_498,23.680799706004926,67.95692814880847,FI,FI1D,FI1D7,498,Muonio,2308,2039.5975545,2020,FI_498,official,TRUE
FI_499,21.701169078211706,63.113102563772365,FI,FI19,FI195,499,Mustasaari / Korsholm,19448,847.36578342,2020,FI_499,official,TRUE
FI_500,25.68573858822256,62.135970535943,FI,FI19,FI193,500,Muurame,10164,194.21711663,2020,FI_500,official,TRUE
FI_503,21.97980161404161,60.6753977580991,FI,FI1C,FI1C1,503,Mynämäki,7654,522.76463803,2020,FI_503,official,TRUE
FI_504,25.850286353173136,60.66847946417331,FI,FI1B,FI1B1,504,Myrskylä / Mörskom,1882,206.35297163,2020,FI_504,official,TRUE
FI_505,25.29823044273961,60.629081546526535,FI,FI1B,FI1B1,505,Mäntsälä,20721,596.81341552,2020,FI_505,official,TRUE
FI_507,26.872577881684666,61.41965697012564,FI,FI1D,FI1D1,507,Mäntyharju,5791,1210.62804301,2020,FI_507,official,TRUE
FI_508,24.583910713557522,62.033184621221466,FI,FI19,FI197,508,Mänttä-Vilppula,9855,658.0830582,2020,FI_508,official,TRUE
FI_529,22.039724206120987,60.47852300732754,FI,FI1C,FI1C1,529,Naantali / Nådendal,19314,303.90134292,2020,FI_529,official,TRUE
FI_531,22.00908785820546,61.36810603429352,FI,FI19,FI196,531,Nakkila,5329,184.57119346,2020,FI_531,official,TRUE
FI_535,24.967641461564074,63.92204077020071,FI,FI1D,FI1D9,535,Nivala,10639,535.02616254,2020,FI_535,official,TRUE
FI_536,23.502205316644762,61.47829915457808,FI,FI19,FI197,536,Nokia,33929,347.90374779,2020,FI_536,official,TRUE
FI_538,22.097212341810994,60.60829723554306,FI,FI1C,FI1C1,538,Nousiainen / Nousis,4715,198.60667485,2020,FI_538,official,TRUE
FI_541,29.134157553366162,63.55214698261652,FI,FI1D,FI1D3,541,Nurmes,9552,2691.78664014,2020,FI_541,official,TRUE
FI_543,24.7614610889488,60.429579324365555,FI,FI1B,FI1B1,543,Nurmijärvi,42993,366.86265844,2020,FI_543,official,TRUE
FI_545,21.349159442454564,62.48836398664339,FI,FI19,FI195,545,Närpiö / Närpes,9479,981.71367674,2020,FI_545,official,TRUE
FI_560,25.73419363854914,60.80655284747856,FI,FI1C,FI1C3,560,Orimattila,16003,814.2937466,2020,FI_560,official,TRUE
FI_561,22.696238545729003,60.85841361858478,FI,FI1C,FI1C1,561,Oripää,1329,118.38613934,2020,FI_561,official,TRUE
FI_562,24.35960795404988,61.671003858299486,FI,FI19,FI197,562,Orivesi,9158,960.24989235,2020,FI_562,official,TRUE
FI_563,24.817889161092314,64.26760341434066,FI,FI1D,FI1D9,563,Oulainen,7288,597.42153755,2020,FI_563,official,TRUE
FI_564,25.48886897256291,65.02543745550497,FI,FI1D,FI1D9,564,Oulu / Uleåborg,205489,3046.21480239,2020,FI_564,official,TRUE
FI_576,25.268877631857194,61.34967892936514,FI,FI1C,FI1C3,576,Padasjoki,2896,729.27079864,2020,FI_576,official,TRUE
FI_577,22.698228778222067,60.44913057742811,FI,FI1C,FI1C1,577,Paimio / Pemar,10850,240.31907566,2020,FI_577,official,TRUE
FI_578,27.867360530161136,64.39575412183467,FI,FI1D,FI1D8,578,Paltamo,3273,1140.97739841,2020,FI_578,official,TRUE
FI_580,29.52375763593667,61.57241807859208,FI,FI1C,FI1C5,580,Parikkala,4734,761.30391578,2020,FI_580,official,TRUE
FI_581,23.021702867273895,62.008958565029516,FI,FI19,FI197,581,Parkano,6404,909.31241616,2020,FI_581,official,TRUE
FI_583,27.493063442126978,67.10956887233102,FI,FI1D,FI1D7,583,Pelkosenniemi,939,1881.023586,2020,FI_583,official,TRUE
FI_584,24.422656307505214,63.211044558015246,FI,FI1D,FI1D5,584,Perho,2759,774.86810744,2020,FI_584,official,TRUE
FI_588,26.47000132539449,61.491706195313995,FI,FI1D,FI1D1,588,Pertunmaa,1690,454.5316803,2020,FI_588,official,TRUE
FI_592,25.19404058712073,62.26379919045745,FI,FI19,FI193,592,Petäjävesi,3841,495.32927554,2020,FI_592,official,TRUE
FI_593,27.147017356263227,62.29973197316777,FI,FI1D,FI1D1,593,Pieksämäki,17682,1836.78275852,2020,FI_593,official,TRUE
FI_595,26.757487622053738,63.23623429576283,FI,FI1D,FI1D2,595,Pielavesi,4391,1406.52406646,2020,FI_595,official,TRUE
FI_598,22.700903468814978,63.67431046866867,FI,FI19,FI195,598,Pietarsaari / Jakobstad,19208,90.79087251,2020,FI_598,official,TRUE
FI_599,22.83866426155951,63.623989849219114,FI,FI19,FI195,599,Pedersören kunta,11081,825.72162782,2020,FI_599,official,TRUE
FI_601,25.56908033589518,63.37272923901445,FI,FI19,FI193,601,Pihtipudas,4032,1247.47508564,2020,FI_601,official,TRUE
FI_604,23.678831939440148,61.46632049744636,FI,FI19,FI197,604,Pirkkala / Birkala,19623,104.13306036,2020,FI_604,official,TRUE
FI_607,29.381291998608937,62.85483897399526,FI,FI1D,FI1D3,607,Polvijärvi,4246,958.33527599,2020,FI_607,official,TRUE
FI_608,22.014253572308547,61.69531352575337,FI,FI19,FI196,608,Pomarkku / Påmark,2089,332.32570312,2020,FI_608,official,TRUE
FI_609,21.79221017279473,61.48801856675028,FI,FI19,FI196,609,Pori / Björneborg,83934,1210.00036477,2020,FI_609,official,TRUE
FI_611,25.37580457482342,60.47567228671002,FI,FI1B,FI1B1,611,Pornainen / Borgnäs,5035,149.71639894,2020,FI_611,official,TRUE
FI_614,28.165425393690338,66.11512577709071,FI,FI1D,FI1D7,614,Posio,3183,3543.34883103,2020,FI_614,official,TRUE
FI_615,27.008505542815502,65.3622182692549,FI,FI1D,FI1D9,615,Pudasjärvi,7873,5866.56094875,2020,FI_615,official,TRUE
FI_616,25.57411098388809,60.64639182481199,FI,FI1B,FI1B1,616,Pukkila,1860,145.41699676,2020,FI_616,official,TRUE
FI_619,23.11048929107547,61.115388118859585,FI,FI19,FI197,619,Punkalaidun,2828,363.6992251,2020,FI_619,official,TRUE
FI_620,27.672876891232036,64.86919582148062,FI,FI1D,FI1D8,620,Puolanka,2528,2597.08974132,2020,FI_620,official,TRUE
FI_623,28.178867988593318,61.52428578081379,FI,FI1D,FI1D1,623,Puumala,2151,1237.8264414,2020,FI_623,official,TRUE
FI_624,26.72155596158775,60.48879093010417,FI,FI1C,FI1C4,624,Pyhtää / Pyttis,5140,333.3281224,2020,FI_624,official,TRUE
FI_625,24.25275396543078,64.4634258631363,FI,FI1D,FI1D9,625,Pyhäjoki,3077,547.01003119,2020,FI_625,official,TRUE
FI_626,25.972880605971387,63.67831984035863,FI,FI1D,FI1D9,626,Pyhäjärvi,5131,1458.77075697,2020,FI_626,official,TRUE
FI_630,26.338047474446142,64.10293920730001,FI,FI1D,FI1D9,630,Pyhäntä,1578,847.21422734,2020,FI_630,official,TRUE
FI_631,21.519571912377668,60.987192460106165,FI,FI1C,FI1C1,631,Pyhäranta,2004,146.11692835,2020,FI_631,official,TRUE
FI_635,24.328824738907755,61.335710558134565,FI,FI19,FI197,635,Pälkäne,6435,737.61651751,2020,FI_635,official,TRUE
FI_636,22.63703225578713,60.742162765882746,FI,FI1C,FI1C1,636,Pöytyä,8276,773.26581354,2020,FI_636,official,TRUE
FI_638,25.65838948784275,60.38869877104203,FI,FI1B,FI1B1,638,Porvoo / Borgå,50380,655.38803914,2020,FI_638,official,TRUE
FI_678,24.51796584368611,64.68076769533393,FI,FI1D,FI1D9,678,Raahe / Brahestad,24679,1020.45382589,2020,FI_678,official,TRUE
FI_680,22.158753918428978,60.4838707744498,FI,FI1C,FI1C1,680,Raisio / Reso,24056,49.2388575,2020,FI_680,official,TRUE
FI_681,28.30123340541797,62.06529147492424,FI,FI1D,FI1D1,681,Rantasalmi,3431,925.13443834,2020,FI_681,official,TRUE
FI_683,26.523518854936658,65.92811308904706,FI,FI1D,FI1D7,683,Ranua,3783,3695.1750235,2020,FI_683,official,TRUE
FI_684,21.512145145521636,61.12944590981217,FI,FI19,FI196,684,Rauma / Raumo,39205,505.80807633,2020,FI_684,official,TRUE
FI_686,26.827970382864653,62.62576235257222,FI,FI1D,FI1D2,686,Rautalampi,3121,760.9044863,2020,FI_686,official,TRUE
FI_687,28.29699860540469,63.49301791426741,FI,FI1D,FI1D2,687,Rautavaara,1602,1235.22122975,2020,FI_687,official,TRUE
FI_689,29.350561795262852,61.427376587294695,FI,FI1C,FI1C5,689,Rautjärvi,3226,401.51219299,2020,FI_689,official,TRUE
FI_691,24.935931326031625,63.606600535106494,FI,FI1D,FI1D9,691,Reisjärvi,2718,503.41373322,2020,FI_691,official,TRUE
FI_694,24.773052855118383,60.73845707238261,FI,FI1C,FI1C2,694,Riihimäki,28793,125.44730192,2020,FI_694,official,TRUE
FI_697,28.21137410793482,64.50482293962519,FI,FI1D,FI1D8,697,Ristijärvi,1272,897.84649112,2020,FI_697,official,TRUE
FI_698,25.72087801841175,66.502395558361,FI,FI1D,FI1D7,698,Rovaniemi,63042,8017.68063797,2020,FI_698,official,TRUE
FI_700,28.828750850994876,61.28825836320349,FI,FI1C,FI1C5,700,Ruokolahti,4994,1220.5269866,2020,FI_700,official,TRUE
FI_702,24.06448008599919,61.986084413708184,FI,FI19,FI197,702,Ruovesi,4283,950.29446963,2020,FI_702,official,TRUE
FI_704,22.25285753708769,60.55476251631042,FI,FI1C,FI1C1,704,Rusko,6327,127.77672503,2020,FI_704,official,TRUE
FI_707,29.636416908577228,62.31082838098212,FI,FI1D,FI1D3,707,Rääkkylä,2126,700.23950359,2020,FI_707,official,TRUE
FI_710,23.536066282007518,60.02129621570157,FI,FI1B,FI1B1,710,Raasepori / Raseborg,27536,1183.33637081,2020,FI_710,official,TRUE
FI_729,25.238659527926433,62.70793687690252,FI,FI19,FI193,729,Saarijärvi,9309,1424.15951373,2020,FI_729,official,TRUE
FI_732,28.666209886654613,66.82526781454153,FI,FI1D,FI1D7,732,Salla,3400,5874.05645716,2020,FI_732,official,TRUE
FI_734,23.138762370816984,60.38746662008919,FI,FI1C,FI1C1,734,Salo,51833,2059.88817319,2020,FI_734,official,TRUE
FI_736,20.022257430116376,60.28300851669464,FI,FI20,FI200,736,Saltvik,1849,154.54341126,2020,FI_736,official,TRUE
FI_738,22.693723581252222,60.346769537570644,FI,FI1C,FI1C1,738,Sauvo / Sagu,2945,252.78716495,2020,FI_738,official,TRUE
FI_739,27.682149175129812,61.19494128310309,FI,FI1C,FI1C5,739,Savitaipale,3383,690.68408432,2020,FI_739,official,TRUE
FI_740,28.917401271870695,61.8698919503505,FI,FI1D,FI1D1,740,Savonlinna / Nyslott,32974,3597.68555596,2020,FI_740,official,TRUE
FI_742,28.16750409801748,67.30561911197809,FI,FI1D,FI1D7,742,Savukoski,1005,6496.5824704,2020,FI_742,official,TRUE
FI_743,22.85254953473019,62.78149340974085,FI,FI19,FI194,743,Seinäjoki,63781,1467.66151467,2020,FI_743,official,TRUE
FI_746,24.51146079072726,63.90491683140827,FI,FI1D,FI1D9,746,Sievi,4910,799.75570836,2020,FI_746,official,TRUE
FI_747,21.837869173119834,61.87203720645893,FI,FI19,FI196,747,Siikainen,1437,490.67193222,2020,FI_747,official,TRUE
FI_748,25.068471061064145,64.67121365409247,FI,FI1D,FI1D9,748,Siikajoki,5145,1062.72685735,2020,FI_748,official,TRUE
FI_749,27.681300342029967,63.04435148643085,FI,FI1D,FI1D2,749,Siilinjärvi,21423,507.94708873,2020,FI_749,official,TRUE
FI_751,24.95669670229734,65.66887099218148,FI,FI1D,FI1D7,751,Simo,2988,1464.2384831,2020,FI_751,official,TRUE
FI_753,25.273604264575166,60.3524304450355,FI,FI1B,FI1B1,753,Sipoo / Sibbo,21170,339.02740418,2020,FI_753,official,TRUE
FI_755,24.22568053065681,60.139500792219806,FI,FI1B,FI1B1,755,Siuntio / Sjundeå,6145,249.24891826,2020,FI_755,official,TRUE
FI_758,26.582615764668038,67.42315044650135,FI,FI1D,FI1D7,758,Sodankylä,8303,12413.72185448,2020,FI_758,official,TRUE
FI_759,24.207654577193374,62.871635530967616,FI,FI19,FI194,759,Soini,2052,576.327619,2020,FI_759,official,TRUE
FI_761,23.516481103632497,60.62783336325794,FI,FI1C,FI1C1,761,Somero,8711,697.9627303,2020,FI_761,official,TRUE
FI_762,27.51210981497737,63.68581754363166,FI,FI1D,FI1D2,762,Sonkajärvi,3897,1576.48898269,2020,FI_762,official,TRUE
FI_765,28.36656211262565,64.13882929323152,FI,FI1D,FI1D8,765,Sotkamo,10336,2952.27361037,2020,FI_765,official,TRUE
FI_766,20.663005460568126,60.1320724176109,FI,FI20,FI200,766,Sottunga,88,21.97715384,2020,FI_766,official,TRUE
FI_768,28.3670898623136,61.78654062857102,FI,FI1D,FI1D1,768,Sulkava,2492,768.96621482,2020,FI_768,official,TRUE
FI_771,20.13271053820012,60.23135985984649,FI,FI20,FI200,771,Sund,1023,110.50956261,2020,FI_771,official,TRUE
FI_777,28.917677799002377,64.8836819438719,FI,FI1D,FI1D8,777,Suomussalmi,7727,5857.79101234,2020,FI_777,official,TRUE
FI_778,27.116843495394136,62.62479348106434,FI,FI1D,FI1D2,778,Suonenjoki,7064,863.13499814,2020,FI_778,official,TRUE
FI_781,25.680286212315444,61.50356282175619,FI,FI1C,FI1C3,781,Sysmä,3657,936.34414967,2020,FI_781,official,TRUE
FI_783,22.340277146330976,61.05995985977844,FI,FI19,FI196,783,Säkylä,6721,527.48661099,2020,FI_783,official,TRUE
FI_785,26.832187658686433,64.55442407865672,FI,FI1D,FI1D9,785,Vaala,2792,1762.42261487,2020,FI_785,official,TRUE
FI_790,22.90965766279636,61.34674282178204,FI,FI19,FI197,790,Sastamala,24277,1532.10053182,2020,FI_790,official,TRUE
FI_791,25.903967125973267,64.32991944987431,FI,FI1D,FI1D9,791,Siikalatva,5231,2227.87045586,2020,FI_791,official,TRUE
FI_831,28.092879771253102,61.140183395532965,FI,FI1C,FI1C5,831,Taipalsaari,4671,761.96373123,2020,FI_831,official,TRUE
FI_832,28.24007001761327,65.56971616700498,FI,FI1D,FI1D9,832,Taivalkoski,3976,2651.5337395,2020,FI_832,official,TRUE
FI_833,21.61593040691315,60.560392475898915,FI,FI1C,FI1C1,833,Taivassalo / Tövsala,1639,140.37853406,2020,FI_833,official,TRUE
FI_834,23.761207587250222,60.80461137661702,FI,FI1C,FI1C2,834,Tammela,6015,714.27914761,2020,FI_834,official,TRUE
FI_837,23.788642532246556,61.48765608279646,FI,FI19,FI197,837,Tampere / Tammerfors,238140,689.32317013,2020,FI_837,official,TRUE
FI_844,26.76827418960947,62.95504051117798,FI,FI1D,FI1D2,844,Tervo,1520,494.40430016,2020,FI_844,official,TRUE
FI_845,24.829063986982813,66.08710952054169,FI,FI1D,FI1D7,845,Tervola,3001,1592.86127092,2020,FI_845,official,TRUE
FI_846,21.74783348299109,62.484645396978486,FI,FI19,FI194,846,Teuva / Östermark,5076,557.88067214,2020,FI_846,official,TRUE
FI_848,30.33494461224892,62.22670931359404,FI,FI1D,FI1D3,848,Tohmajärvi,4361,894.75973193,2020,FI_848,official,TRUE
FI_849,24.256621867158746,63.766615570253336,FI,FI1D,FI1D5,849,Toholampi,3033,617.47224591,2020,FI_849,official,TRUE
FI_850,26.081647458435853,62.09973429053992,FI,FI19,FI193,850,Toivakka,2388,414.39150589,2020,FI_850,official,TRUE
FI_851,24.16484494152246,65.84544030184706,FI,FI1D,FI1D7,851,Tornio / Torneå,21602,1223.48804651,2020,FI_851,official,TRUE
FI_853,22.270905819884035,60.45145444098668,FI,FI1C,FI1C1,853,Turku / Åbo,192962,248.1593351,2020,FI_853,official,TRUE
FI_854,23.98216130582711,66.77483883958607,FI,FI1D,FI1D7,854,Pello,3373,1863.3601158,2020,FI_854,official,TRUE
FI_857,28.490536598412156,62.807268936043656,FI,FI1D,FI1D2,857,Tuusniemi,2477,700.78227174,2020,FI_857,official,TRUE
FI_858,25.019316350340816,60.431559404748015,FI,FI1B,FI1B1,858,Tuusula / Tusby,38599,225.22892877,2020,FI_858,official,TRUE
FI_859,25.66126445288338,64.7837518212104,FI,FI1D,FI1D9,859,Tyrnävä,6637,494.70716498,2020,FI_859,official,TRUE
FI_886,21.88538732329785,61.4322561641317,FI,FI19,FI196,886,Ulvila / Ulvsby,12871,422.95578991,2020,FI_886,official,TRUE
FI_887,23.55943423049595,61.07914760608361,FI,FI19,FI197,887,Urjala,4688,505.19185609,2020,FI_887,official,TRUE
FI_889,26.429968169219112,64.75784067014402,FI,FI1D,FI1D9,889,Utajärvi,2676,1734.05669504,2020,FI_889,official,TRUE
FI_890,26.912066948745537,69.83067751158555,FI,FI1D,FI1D7,890,Utsjoki,1212,5374.65725096,2020,FI_890,official,TRUE
FI_892,25.498544696631054,62.49878215117485,FI,FI19,FI193,892,Uurainen,3681,372.29690089,2020,FI_892,official,TRUE
FI_893,22.529295017093744,63.51498267066072,FI,FI19,FI195,893,Uusikaarlepyy / Nykarleby,7464,735.3187511,2020,FI_893,official,TRUE
FI_895,21.422604781851685,60.80591312434607,FI,FI1C,FI1C1,895,Uusikaupunki / Nystad,15522,540.54610804,2020,FI_895,official,TRUE
FI_905,21.634001111933,63.09898253651185,FI,FI19,FI195,905,Vaasa / Vasa,67636,365.36689771,2020,FI_905,official,TRUE
FI_908,24.02762979242886,61.27242875114193,FI,FI19,FI197,908,Valkeakoski,20972,371.92234076,2020,FI_908,official,TRUE
FI_915,27.867702014940654,62.316144276184886,FI,FI1D,FI1D2,915,Varkaus,20466,524.40670484,2020,FI_915,official,TRUE
FI_918,21.709727834363154,60.68558776684681,FI,FI1C,FI1C1,918,Vehmaa,2293,195.0670979,2020,FI_918,official,TRUE
FI_921,26.41199431675098,62.92819251442423,FI,FI1D,FI1D2,921,Vesanto,2014,569.41270303,2020,FI_921,official,TRUE
FI_922,23.602606283936478,61.29990334221183,FI,FI19,FI197,922,Vesilahti,4355,354.38017637,2020,FI_922,official,TRUE
FI_924,23.79511339778354,63.467754159338284,FI,FI1D,FI1D5,924,Veteli / Vetil,3114,520.44383673,2020,FI_924,official,TRUE
FI_925,27.006229087159987,63.744616490777055,FI,FI1D,FI1D2,925,Vieremä,3579,973.98399284,2020,FI_925,official,TRUE
FI_927,24.324910421175904,60.34403337659179,FI,FI1B,FI1B1,927,Vihti / Vichtis,29158,567.15125903,2020,FI_927,official,TRUE
FI_931,25.848843946314034,63.07793712088948,FI,FI19,FI193,931,Viitasaari,6176,1589.1987671,2020,FI_931,official,TRUE
FI_934,23.82607632188094,63.15981149629757,FI,FI19,FI194,934,Vimpeli,2827,329.18013691,2020,FI_934,official,TRUE
FI_935,27.683176184033275,60.574458712258306,FI,FI1C,FI1C4,935,Virolahti,3109,374.13021569,2020,FI_935,official,TRUE
FI_936,23.771048849951754,62.24235184368598,FI,FI19,FI197,936,Virrat / Virdois,6544,1298.54278514,2020,FI_936,official,TRUE
FI_941,20.370860673397615,60.245006968575545,FI,FI20,FI200,941,Vårdö,447,91.6653155,2020,FI_941,official,TRUE
FI_946,22.29936219064109,63.2002723019951,FI,FI19,FI195,946,Vöyri / Vörå,6461,783.17450519,2020,FI_946,official,TRUE
FI_976,23.69665316195971,66.32509045438832,FI,FI1D,FI1D7,976,Ylitornio / Övertorneå,3918,2212.27578911,2020,FI_976,official,TRUE
FI_977,24.535480375009406,64.07664644055312,FI,FI1D,FI1D9,977,Ylivieska,15255,575.22009311,2020,FI_977,official,TRUE
FI_980,23.588004661888423,61.56512720431635,FI,FI19,FI197,980,Ylöjärvi,33254,1324.27456901,2020,FI_980,official,TRUE
FI_981,23.276985741515254,60.80639869412047,FI,FI1C,FI1C2,981,Ypäjä,2343,184.15188243,2020,FI_981,official,TRUE
FI_989,24.074662371490064,62.55473779599414,FI,FI19,FI194,989,Ähtäri / Etseri,5616,911.08284701,2020,FI_989,official,TRUE
FI_992,25.753505443975424,62.60089099767996,FI,FI19,FI193,992,Äänekoski,18765,1138.15740847,2020,FI_992,official,TRUE
