gisco_id,longitude,latitude,country,nuts_2,nuts_3,lau_id,lau_name,population,area_km2,year,fid,concordance,pop_weighted
FI_005,23.815102791100067,62.99128513480498,FI,FI19,FI194,005,Alajärvi,9899,1056.57355023,2018,FI_005,official,TRUE
FI_009,24.30779628164925,64.16821058858112,FI,FI1D,FI1D9,009,Alavieska,2639,254.16438905,2018,FI_009,official,TRUE
FI_010,23.638739662211567,62.59490026398887,FI,FI19,FI194,010,Alavus,11907,1151.97672376,2018,FI_010,official,TRUE
FI_016,25.554830786199208,61.169302258121526,FI,FI1C,FI1C3,016,Asikkala,8323,755.1899077,2018,FI_016,official,TRUE
FI_018,25.563941522178396,60.50802430796034,FI,FI1B,FI1B1,018,Askola,5046,218.11008827,2018,FI_018,official,TRUE
FI_019,22.58154067607496,60.64595912320309,FI,FI1C,FI1C1,019,Aura,3984,95.49901144,2018,FI_019,official,TRUE
FI_020,23.83223355854275,61.180555245550025,FI,FI19,FI197,020,Akaa,16923,314.20956473,2018,FI_020,official,TRUE
FI_035,21.046395549141643,60.41453652143505,FI,FI20,FI200,035,Brändö,471,69.65780926,2018,FI_035,official,TRUE
FI_043,19.568423103987733,60.21982352136862,FI,FI20,FI200,043,Eckerö,928,104.94317376,2018,FI_043,official,TRUE
FI_046,28.92160735517395,62.08851677138269,FI,FI1D,FI1D1,046,Enonkoski,1453,419.29997966,2018,FI_046,official,TRUE
FI_047,23.202184688065802,68.45608449823176,FI,FI1D,FI1D7,047,Enontekiö,1872,8391.27120328,2018,FI_047,official,TRUE
FI_049,24.732512795869678,60.18773827039436,FI,FI1B,FI1B1,049,Espoo,274583,324.26504383,2018,FI_049,official,TRUE
FI_050,22.139338265491954,61.129229242904806,FI,FI19,FI196,050,Eura,12004,630.442101,2018,FI_050,official,TRUE
FI_051,21.70273885092864,61.249782458391046,FI,FI19,FI196,051,Eurajoki,9418,512.34447717,2018,FI_051,official,TRUE
FI_052,23.468524851106732,63.36880497160209,FI,FI19,FI194,052,Evijärvi,2535,388.69970574,2018,FI_052,official,TRUE
FI_060,19.976638993610976,60.233225994360936,FI,FI20,FI200,060,Finström,2594,128.18544364,2018,FI_060,official,TRUE
FI_061,23.623060499159337,60.8139375206884,FI,FI1C,FI1C2,061,Forssa,17332,253.34583945,2018,FI_061,official,TRUE
FI_062,20.416397796969505,60.02925750929553,FI,FI20,FI200,062,Föglö,561,107.04122106,2018,FI_062,official,TRUE
FI_065,19.848533619415843,60.36941246484784,FI,FI20,FI200,065,Geta,499,84.13546733,2018,FI_065,official,TRUE
FI_069,25.323504615428178,63.75382162627621,FI,FI1D,FI1D9,069,Haapajärvi,7332,789.86544069,2018,FI_069,official,TRUE
FI_071,25.365705148277385,64.1392597299016,FI,FI1D,FI1D9,071,Haapavesi,7098,1085.4010534,2018,FI_071,official,TRUE
FI_072,24.731570993527143,65.01622152523606,FI,FI1D,FI1D9,072,Hailuoto,994,201.65464122,2018,FI_072,official,TRUE
FI_074,24.17841262048185,63.45348959795463,FI,FI1D,FI1D5,074,Halsua,1219,428.68238812,2018,FI_074,official,TRUE
FI_075,27.173082130652137,60.57295248900917,FI,FI1C,FI1C4,075,Hamina,20636,624.41924467,2018,FI_075,official,TRUE
FI_076,19.736391909641117,60.217034735301404,FI,FI20,FI200,076,Hammarland,1508,132.51651856,2018,FI_076,official,TRUE
FI_077,26.444028547857414,62.35289392419326,FI,FI19,FI193,077,Hankasalmi,5159,687.55889804,2018,FI_077,official,TRUE
FI_078,22.96928052429135,59.83378399335617,FI,FI1B,FI1B1,078,Hanko,8663,108.90655382999999,2018,FI_078,official,TRUE
FI_079,22.147940345442944,61.316531457368384,FI,FI19,FI196,079,Harjavalta,7240,127.74683107,2018,FI_079,official,TRUE
FI_081,26.020622947298776,61.57908288099304,FI,FI1C,FI1C3,081,Hartola,2924,675.50143334,2018,FI_081,official,TRUE
FI_082,24.37571401201463,61.055893488119644,FI,FI1C,FI1C2,082,Hattula,9682,425.68484047,2018,FI_082,official,TRUE
FI_086,24.876236075873273,60.791121816801365,FI,FI1C,FI1C2,086,Hausjärvi,8641,398.73683809,2018,FI_086,official,TRUE
FI_090,28.63687653418443,62.4246654742793,FI,FI1D,FI1D1,090,Heinävesi,3514,1318.99571772,2018,FI_090,official,TRUE
FI_091,24.973588002365258,60.20387317430847,FI,FI1B,FI1B1,091,Helsinki,635181,208.41141039,2018,FI_091,official,TRUE
FI_092,24.98798587804068,60.29386730379414,FI,FI1B,FI1B1,092,Vantaa,219341,240.40281959,2018,FI_092,official,TRUE
FI_097,26.777507205083367,61.64652722919994,FI,FI1D,FI1D1,097,Hirvensalmi,2274,746.66655976,2018,FI_097,official,TRUE
FI_098,25.51527318913041,60.991170415897585,FI,FI1C,FI1C3,098,Hollola,23791,727.98637531,2018,FI_098,official,TRUE
FI_099,22.26986042840917,61.99483167765504,FI,FI19,FI196,099,Honkajoki,1759,334.49054265,2018,FI_099,official,TRUE
FI_102,22.703172743702577,61.17845671376415,FI,FI19,FI196,102,Huittinen,10403,538.97432269,2018,FI_102,official,TRUE
FI_103,23.368852428765166,60.925888352485046,FI,FI1C,FI1C2,103,Humppila,2345,148.55286164,2018,FI_103,official,TRUE
FI_105,28.48422251341588,64.6766067852745,FI,FI1D,FI1D8,105,Hyrynsalmi,2406,1522.14591236,2018,FI_105,official,TRUE
FI_106,24.85828689909738,60.627105256561414,FI,FI1B,FI1B1,106,Hyvinkää,46596,336.72786495,2018,FI_106,official,TRUE
FI_108,23.18913447236107,61.65635841103886,FI,FI19,FI197,108,Hämeenkyrö,10681,504.66373042,2018,FI_108,official,TRUE
FI_109,24.46079823650441,60.99718917026512,FI,FI1C,FI1C2,109,Hämeenlinna,67850,2034.29105935,2018,FI_109,official,TRUE
FI_111,26.034507795407965,61.204373855696666,FI,FI1C,FI1C3,111,Heinola,19350,839.75144847,2018,FI_111,official,TRUE
FI_139,25.365541188826757,65.3388232848654,FI,FI1D,FI1D9,139,Ii,9628,1660.5620356,2018,FI_139,official,TRUE
FI_140,27.201523789948638,63.56139804557979,FI,FI1D,FI1D2,140,Iisalmi,21767,872.66724574,2018,FI_140,official,TRUE
FI_142,26.341605912843693,60.891158376405066,FI,FI1C,FI1C4,142,Iitti,6889,686.87903058,2018,FI_142,official,TRUE
FI_143,23.070227940364735,61.76871019627134,FI,FI19,FI197,143,Ikaalinen,7128,843.68196967,2018,FI_143,official,TRUE
FI_145,22.596821220785294,62.73741575216273,FI,FI19,FI194,145,Ilmajoki,12167,579.40207184,2018,FI_145,official,TRUE
FI_146,30.92841923425288,62.671179446743245,FI,FI1D,FI1D3,146,Ilomantsi,5237,3172.55561958,2018,FI_146,official,TRUE
FI_148,27.501503242580828,68.66960337436139,FI,FI1D,FI1D7,148,Inari,6825,17331.39749708,2018,FI_148,official,TRUE
FI_149,24.014542969990746,60.051718975387345,FI,FI1B,FI1B1,149,Inkoo,5585,337.64638879,2018,FI_149,official,TRUE
FI_151,21.946835335510634,62.11904978889617,FI,FI19,FI194,151,Isojoki,2079,647.6022531,2018,FI_151,official,TRUE
FI_152,22.29674372586491,62.99660370568328,FI,FI19,FI195,152,Isokyrö,4712,356.94491916,2018,FI_152,official,TRUE
FI_153,28.784721589925326,61.186594602489656,FI,FI1C,FI1C5,153,Imatra,27517,191.19467318,2018,FI_153,official,TRUE
FI_165,24.646499306455357,60.89647145801539,FI,FI1C,FI1C2,165,Janakkala,16709,585.68561053,2018,FI_165,official,TRUE
FI_167,29.77868041903598,62.604516486653296,FI,FI1D,FI1D3,167,Joensuu,75848,2752.32418977,2018,FI_167,official,TRUE
FI_169,23.489850731486822,60.80056083337063,FI,FI1C,FI1C2,169,Jokioinen,5341,181.86980998,2018,FI_169,official,TRUE
FI_170,19.946860094575314,60.13599623890245,FI,FI20,FI200,170,Jomala,4757,140.34410797,2018,FI_170,official,TRUE
FI_171,27.832383360637063,62.195086428079506,FI,FI1D,FI1D1,171,Joroinen,5039,711.897743,2018,FI_171,official,TRUE
FI_172,26.11569509240501,61.75520355171799,FI,FI19,FI193,172,Joutsa,4673,1065.74027245,2018,FI_172,official,TRUE
FI_176,29.251098280259782,63.23906635117877,FI,FI1D,FI1D3,176,Juuka,4938,1847.14960408,2018,FI_176,official,TRUE
FI_177,24.387437657153193,61.79930500810705,FI,FI19,FI197,177,Juupajoki,1957,274.95940634,2018,FI_177,official,TRUE
FI_178,27.85689574590321,61.89768158037981,FI,FI1D,FI1D1,178,Juva,6421,1345.5068051,2018,FI_178,official,TRUE
FI_179,25.749106769164737,62.24556097240002,FI,FI19,FI193,179,Jyväskylä,138850,1465.43450515,2018,FI_179,official,TRUE
FI_181,22.686272512279682,61.82323978703948,FI,FI19,FI196,181,Jämijärvi,1915,224.498474,2018,FI_181,official,TRUE
FI_182,25.17892970647256,61.880565028016385,FI,FI19,FI193,182,Jämsä,21259,1823.35946283,2018,FI_182,official,TRUE
FI_186,25.09261600585061,60.47779429735556,FI,FI1B,FI1B1,186,Järvenpää,41529,40.13338123,2018,FI_186,official,TRUE
FI_202,22.370220116737684,60.41705826202721,FI,FI1C,FI1C1,202,Kaarina,32738,150.7087364,2018,FI_202,official,TRUE
FI_204,28.48245755084428,62.97495114809693,FI,FI1D,FI1D2,204,Kaavi,3154,789.33588943,2018,FI_204,official,TRUE
FI_205,27.73200246866692,64.22165919933025,FI,FI1D,FI1D8,205,Kajaani,37521,2263.33920924,2018,FI_205,official,TRUE
FI_208,23.924940456099865,64.2320487970354,FI,FI1D,FI1D9,208,Kalajoki,12586,923.64850336,2018,FI_208,official,TRUE
FI_211,24.0198647935094,61.474487106824945,FI,FI19,FI197,211,Kangasala,31190,870.95520251,2018,FI_211,official,TRUE
FI_213,26.64350910587605,61.985823562401436,FI,FI1D,FI1D1,213,Kangasniemi,5603,1326.89872723,2018,FI_213,official,TRUE
FI_214,22.389348543597215,61.803395009955146,FI,FI19,FI196,214,Kankaanpää,11637,704.46946743,2018,FI_214,official,TRUE
FI_216,25.264075153591442,62.975166338016116,FI,FI19,FI193,216,Kannonkoski,1424,550.09494416,2018,FI_216,official,TRUE
FI_217,23.926881220097314,63.89625131226095,FI,FI1D,FI1D5,217,Kannus,5578,470.45078939,2018,FI_217,official,TRUE
FI_218,21.688976100400485,62.314420621566036,FI,FI19,FI194,218,Karijoki,1349,186.4166787,2018,FI_218,official,TRUE
FI_224,24.217738409692718,60.533474802407554,FI,FI1B,FI1B1,224,Karkkila,8911,255.24058518,2018,FI_224,official,TRUE
FI_226,24.809419528074063,62.878900206049146,FI,FI19,FI193,226,Karstula,4232,963.05213843,2018,FI_226,official,TRUE
FI_230,22.57426585992691,62.14153010576038,FI,FI19,FI196,230,Karvia,2449,520.0158416,2018,FI_230,official,TRUE
FI_231,21.227638907518887,62.382849072094416,FI,FI19,FI195,231,Kaskinen,1296,9.39145226,2018,FI_231,official,TRUE
FI_232,22.173708064946773,62.426768086385884,FI,FI19,FI194,232,Kauhajoki,13772,1314.29380644,2018,FI_232,official,TRUE
FI_233,22.9880026370766,63.13678021277227,FI,FI19,FI194,233,Kauhava,16599,1326.80012503,2018,FI_233,official,TRUE
FI_235,24.71126573708754,60.21264690734489,FI,FI1B,FI1B1,235,Kauniainen,9397,6.1002135,2018,FI_235,official,TRUE
FI_236,23.701763891869685,63.55466356224569,FI,FI1D,FI1D5,236,Kaustinen,4298,362.32939642,2018,FI_236,official,TRUE
FI_239,26.347138346612436,63.177872244631324,FI,FI1D,FI1D2,239,Keitele,2346,578.50347557,2018,FI_239,official,TRUE
FI_240,24.58534316176976,65.73749698992489,FI,FI1D,FI1D7,240,Kemi,21602,98.98262112,2018,FI_240,official,TRUE
FI_241,24.53321153903136,65.80110533216902,FI,FI1D,FI1D7,241,Keminmaa,8316,647.03257321,2018,FI_241,official,TRUE
FI_244,25.521458914825,64.91261043359414,FI,FI1D,FI1D9,244,Kempele,17297,110.58940847,2018,FI_244,official,TRUE
FI_245,25.10150788233524,60.40397856764496,FI,FI1B,FI1B1,245,Kerava,35511,31.10794427,2018,FI_245,official,TRUE
FI_249,24.698025133715767,62.26134066765407,FI,FI19,FI193,249,Keuruu,9992,1430.26005509,2018,FI_249,official,TRUE
FI_250,23.177120380303986,62.20131494961206,FI,FI19,FI197,250,Kihniö,1994,390.42534073,2018,FI_250,official,TRUE
FI_256,24.974885197013247,63.36344309129708,FI,FI19,FI193,256,Kinnula,1699,495.40391563,2018,FI_256,official,TRUE
FI_257,24.45834243558523,60.14650156336776,FI,FI1B,FI1B1,257,Kirkkonummi,39033,381.26307389,2018,FI_257,official,TRUE
FI_260,30.11353374199522,62.080744463177446,FI,FI1D,FI1D3,260,Kitee,10719,1723.65507446,2018,FI_260,official,TRUE
FI_261,24.89519863607111,67.67262195398776,FI,FI1D,FI1D7,261,Kittilä,6383,8261.60128524,2018,FI_261,official,TRUE
FI_263,26.61659016606948,63.649165616898294,FI,FI1D,FI1D2,263,Kiuruvesi,8444,1422.89247239,2018,FI_263,official,TRUE
FI_265,25.07982948036616,63.12357151613291,FI,FI19,FI193,265,Kivijärvi,1161,600.22740237,2018,FI_265,official,TRUE
FI_271,22.34190113547519,61.260969971677035,FI,FI19,FI196,271,Kokemäki,7498,530.63991129,2018,FI_271,official,TRUE
FI_272,23.138188151864412,63.84005168636286,FI,FI1D,FI1D5,272,Kokkola,47723,1471.72695773,2018,FI_272,official,TRUE
FI_273,23.905772760493445,67.38639391575425,FI,FI1D,FI1D7,273,Kolari,3827,2618.69617385,2018,FI_273,official,TRUE
FI_275,26.286653519894006,62.627481931336305,FI,FI19,FI193,275,Konnevesi,2753,681.18741095,2018,FI_275,official,TRUE
FI_276,29.822035867838697,62.69286398384706,FI,FI1D,FI1D3,276,Kontiolahti,14806,1028.87333015,2018,FI_276,official,TRUE
FI_280,21.215418931321928,62.79939085910776,FI,FI19,FI195,280,Korsnäs,2171,232.15336863,2018,FI_280,official,TRUE
FI_284,23.13728605693248,60.65584952626405,FI,FI1C,FI1C1,284,Koski Tl,2416,192.24014868,2018,FI_284,official,TRUE
FI_285,26.927052245511188,60.482333593963624,FI,FI1C,FI1C4,285,Kotka,54187,269.60009322,2018,FI_285,official,TRUE
FI_286,26.697584626479955,60.86957546855423,FI,FI1C,FI1C4,286,Kouvola,85306,2882.04975911,2018,FI_286,official,TRUE
FI_287,21.406640822666976,62.267091105294384,FI,FI19,FI195,287,Kristiinankaupunki,6727,690.16863275,2018,FI_287,official,TRUE
FI_288,23.225597671296352,63.667085399042605,FI,FI19,FI195,288,Kruunupyy,6620,750.32230883,2018,FI_288,official,TRUE
FI_290,29.520799947241297,64.12436615210828,FI,FI1D,FI1D8,290,Kuhmo,8647,5456.67891592,2018,FI_290,official,TRUE
FI_291,25.175801299936545,61.56124258892428,FI,FI19,FI193,291,Kuhmoinen,2286,936.44626811,2018,FI_291,official,TRUE
FI_295,20.780211392638165,60.26208941651172,FI,FI20,FI200,295,Kumlinge,308,72.60477263,2018,FI_295,official,TRUE
FI_297,27.675458653568224,62.88777906316106,FI,FI1D,FI1D2,297,Kuopio,117740,4324.85424852,2018,FI_297,official,TRUE
FI_300,23.513609814344854,62.80327069354858,FI,FI19,FI194,300,Kuortane,3690,484.05137708,2018,FI_300,official,TRUE
FI_301,22.475549567183553,62.58175867121936,FI,FI19,FI194,301,Kurikka,21501,1742.66478056,2018,FI_301,official,TRUE
FI_304,21.35946461007085,60.544214339980016,FI,FI1C,FI1C1,304,Kustavi,908,149.85005953,2018,FI_304,official,TRUE
FI_305,29.178657113522373,65.97157326192405,FI,FI1D,FI1D9,305,Kuusamo,15533,5808.58999037,2018,FI_305,official,TRUE
FI_309,29.02558299965492,62.726157542036006,FI,FI1D,FI1D3,309,Outokumpu,7091,583.90919341,2018,FI_309,official,TRUE
FI_312,24.578952354123984,63.04610231038185,FI,FI19,FI193,312,Kyyjärvi,1375,470.08970871,2018,FI_312,official,TRUE
FI_316,25.266836584669868,60.87257163395323,FI,FI1C,FI1C3,316,Kärkölä,4540,259.14502520999997,2018,FI_316,official,TRUE
FI_317,25.769554707831073,63.97605659823305,FI,FI1D,FI1D9,317,Kärsämäki,2655,702.2800886,2018,FI_317,official,TRUE
FI_318,20.92214648887064,59.931474498500904,FI,FI20,FI200,318,Kökar,246,33.09530551,2018,FI_318,official,TRUE
FI_320,27.427722407959898,66.71367674259831,FI,FI1D,FI1D7,320,Kemijärvi,7661,3930.77843097,2018,FI_320,official,TRUE
FI_322,22.64061830224971,60.11760041312925,FI,FI1C,FI1C1,322,Kemiönsaari,6872,634.39295942,2018,FI_322,official,TRUE
FI_398,25.667898014925758,60.98213268867326,FI,FI1C,FI1C3,398,Lahti,119452,517.28587265,2018,FI_398,official,TRUE
FI_399,22.024483099410674,62.976689835699965,FI,FI19,FI195,399,Laihia,8139,508.12876623,2018,FI_399,official,TRUE
FI_400,21.698901959582123,60.88223680616044,FI,FI1C,FI1C1,400,Laitila,8520,545.42325713,2018,FI_400,official,TRUE
FI_402,27.443727093614108,63.357227198299036,FI,FI1D,FI1D2,402,Lapinlahti,9882,1244.93047043,2018,FI_402,official,TRUE
FI_403,23.626429729600655,63.21375173989357,FI,FI19,FI194,403,Lappajärvi,3176,524.0919596,2018,FI_403,official,TRUE
FI_405,28.18920588627346,61.060101174180986,FI,FI1C,FI1C5,405,Lappeenranta,72872,1723.85552752,2018,FI_405,official,TRUE
FI_407,26.18974549939034,60.62922466865966,FI,FI1B,FI1B1,407,Lapinjärvi,2739,339.29109604,2018,FI_407,official,TRUE
FI_408,23.018848482709622,62.96967106759635,FI,FI19,FI194,408,Lapua,14575,752.24334849,2018,FI_408,official,TRUE
FI_410,25.939627358787057,62.37351928256832,FI,FI19,FI193,410,Laukaa,18970,826.33153607,2018,FI_410,official,TRUE
FI_416,27.897393573291332,61.07120533725004,FI,FI1C,FI1C5,416,Lemi,3076,262.54782379,2018,FI_416,official,TRUE
FI_417,20.09417311953063,60.06696843511057,FI,FI20,FI200,417,Lemland,2012,102.1297566,2018,FI_417,official,TRUE
FI_418,23.760252023700282,61.35095951896077,FI,FI19,FI197,418,Lempäälä,22745,307.53432127,2018,FI_418,official,TRUE
FI_420,27.78234444851977,62.49039832878629,FI,FI1D,FI1D2,420,Leppävirta,9865,1519.82977839,2018,FI_420,official,TRUE
FI_421,24.670957305320336,63.51998046190193,FI,FI1D,FI1D5,421,Lestijärvi,811,558.28036113,2018,FI_421,official,TRUE
FI_422,30.027847386561,63.32277626566559,FI,FI1D,FI1D3,422,Lieksa,11580,4067.46238817,2018,FI_422,official,TRUE
FI_423,22.44827388289839,60.50285149887093,FI,FI1C,FI1C1,423,Lieto,19418,302.56641238,2018,FI_423,official,TRUE
FI_425,25.439085694171716,64.8267668830232,FI,FI1D,FI1D9,425,Liminka,10000,640.51128767,2018,FI_425,official,TRUE
FI_426,29.48722521367984,62.60426389585147,FI,FI1D,FI1D3,426,Liperi,12301,1161.16458395,2018,FI_426,official,TRUE
FI_430,23.027649504834645,60.8597446416932,FI,FI1C,FI1C1,430,Loimaa,16267,851.6670951,2018,FI_430,official,TRUE
FI_433,24.5033031696972,60.716391235745334,FI,FI1C,FI1C2,433,Loppi,8098,656.97777188,2018,FI_433,official,TRUE
FI_434,26.216999192614754,60.45464971430559,FI,FI1B,FI1B1,434,Loviisa,15208,826.86439221,2018,FI_434,official,TRUE
FI_435,25.743066035386946,61.807571517271136,FI,FI19,FI193,435,Luhanka,756,313.07872639,2018,FI_435,official,TRUE
FI_436,25.19138299528685,64.83312781545213,FI,FI1D,FI1D9,436,Lumijoki,2105,210.96900534,2018,FI_436,official,TRUE
FI_438,20.25554805354312,60.1173752384085,FI,FI20,FI200,438,Lumparland,385,34.44131283,2018,FI_438,official,TRUE
FI_440,22.781071416008793,63.76483110688188,FI,FI19,FI195,440,Luoto,5176,168.23109673,2018,FI_440,official,TRUE
FI_441,27.605908927747645,60.9282105989504,FI,FI1C,FI1C5,441,Luumäki,4831,860.3662928,2018,FI_441,official,TRUE
FI_444,24.05507511765751,60.246896339978456,FI,FI1B,FI1B1,444,Lohja,47149,1109.73289329,2018,FI_444,official,TRUE
FI_445,22.30865029765525,60.30464207771186,FI,FI1C,FI1C1,445,Parainen,15398,737.52800881,2018,FI_445,official,TRUE
FI_475,21.564594164575777,62.9232662590233,FI,FI19,FI195,475,Maalahti,5517,509.68054476,2018,FI_475,official,TRUE
FI_478,19.943359930393612,60.10141209964954,FI,FI20,FI200,478,Maarianhamina - Mariehamn,11565,11.6350621,2018,FI_478,official,TRUE
FI_480,22.893264268902065,60.58758561067638,FI,FI1C,FI1C1,480,Marttila,2021,195.72506582,2018,FI_480,official,TRUE
FI_481,22.08703521996216,60.56195238951985,FI,FI1C,FI1C1,481,Masku,9675,174.6726541,2018,FI_481,official,TRUE
FI_483,24.438450950978467,64.29883376541066,FI,FI1D,FI1D9,483,Merijärvi,1131,232.93013633,2018,FI_483,official,TRUE
FI_484,21.508224807108892,61.85981388998079,FI,FI19,FI196,484,Merikarvia,3169,442.08465026,2018,FI_484,official,TRUE
FI_489,27.69902758564531,60.673378498433955,FI,FI1C,FI1C4,489,Miehikkälä,2034,440.06379089,2018,FI_489,official,TRUE
FI_491,27.26903129987174,61.68553889827598,FI,FI1D,FI1D1,491,Mikkeli,54517,3229.67545268,2018,FI_491,official,TRUE
FI_494,25.982289689357994,64.81586051876793,FI,FI1D,FI1D9,494,Muhos,8995,799.572217,2018,FI_494,official,TRUE
FI_495,24.797532617295715,62.4119464708996,FI,FI19,FI193,495,Multia,1663,763.79328571,2018,FI_495,official,TRUE
FI_498,23.680799706004926,67.95692814880847,FI,FI1D,FI1D7,498,Muonio,2350,2039.59755381,2018,FI_498,official,TRUE
FI_499,21.701169078211706,63.113102563772365,FI,FI19,FI195,499,Mustasaari,19380,836.51884757,2018,FI_499,official,TRUE
FI_500,25.68573858822256,62.135970535943,FI,FI19,FI193,500,Muurame,9941,194.21711712,2018,FI_500,official,TRUE
FI_503,21.97980161404161,60.6753977580991,FI,FI1C,FI1C1,503,Mynämäki,7842,522.76463753,2018,FI_503,official,TRUE
FI_504,25.850286353173136,60.66847946417331,FI,FI1B,FI1B1,504,Myrskylä,1986,206.35297102,2018,FI_504,official,TRUE
FI_505,25.29823044273961,60.629081546526535,FI,FI1B,FI1B1,505,Mäntsälä,20853,596.81341591,2018,FI_505,official,TRUE
FI_507,26.872577881684666,61.41965697012564,FI,FI1D,FI1D1,507,Mäntyharju,6097,1210.65836792,2018,FI_507,official,TRUE
FI_508,24.583910713557522,62.033184621221466,FI,FI19,FI197,508,Mänttä-Vilppula,10448,658.0830583,2018,FI_508,official,TRUE
FI_529,22.039724206120987,60.47852300732754,FI,FI1C,FI1C1,529,Naantali,19068,295.11991226,2018,FI_529,official,TRUE
FI_531,22.00908785820546,61.36810603429352,FI,FI19,FI196,531,Nakkila,5548,184.57119349,2018,FI_531,official,TRUE
FI_535,24.967641461564074,63.92204077020071,FI,FI1D,FI1D9,535,Nivala,10889,535.02616227,2018,FI_535,official,TRUE
FI_536,23.502205316644762,61.47829915457808,FI,FI19,FI197,536,Nokia,33210,347.83501488,2018,FI_536,official,TRUE
FI_538,22.097212341810994,60.60829723554306,FI,FI1C,FI1C1,538,Nousiainen,4815,198.60667602,2018,FI_538,official,TRUE
FI_541,29.134157553366162,63.55214698261652,FI,FI1D,FI1D3,541,Nurmes,7885,1854.57902381,2018,FI_541,official,TRUE
FI_543,24.7614610889488,60.429579324365555,FI,FI1B,FI1B1,543,Nurmijärvi,42010,366.86265876,2018,FI_543,official,TRUE
FI_545,21.349159442454564,62.48836398664339,FI,FI19,FI195,545,Närpiö,9439,976.60288494,2018,FI_545,official,TRUE
FI_560,25.73419363854914,60.80655284747856,FI,FI1C,FI1C3,560,Orimattila,16279,814.29374656,2018,FI_560,official,TRUE
FI_561,22.696238545729003,60.85841361858478,FI,FI1C,FI1C1,561,Oripää,1363,118.38613976,2018,FI_561,official,TRUE
FI_562,24.35960795404988,61.671003858299486,FI,FI19,FI197,562,Orivesi,9312,960.24989191,2018,FI_562,official,TRUE
FI_563,24.817889161092314,64.26760341434066,FI,FI1D,FI1D9,563,Oulainen,7514,597.42153744,2018,FI_563,official,TRUE
FI_564,25.48886897256291,65.02543745550497,FI,FI1D,FI1D9,564,Oulu,200526,3045.41849259,2018,FI_564,official,TRUE
FI_576,25.268877631857194,61.34967892936514,FI,FI1C,FI1C3,576,Padasjoki,3073,729.27079945,2018,FI_576,official,TRUE
FI_577,22.698228778222067,60.44913057742811,FI,FI1C,FI1C1,577,Paimio,10713,240.31907594,2018,FI_577,official,TRUE
FI_578,27.867360530161136,64.39575412183467,FI,FI1D,FI1D8,578,Paltamo,3491,1140.97739776,2018,FI_578,official,TRUE
FI_580,29.52375763593667,61.57241807859208,FI,FI1C,FI1C5,580,Parikkala,5126,761.30391562,2018,FI_580,official,TRUE
FI_581,23.021702867273895,62.008958565029516,FI,FI19,FI197,581,Parkano,6692,909.31241533,2018,FI_581,official,TRUE
FI_583,27.493063442126978,67.10956887233102,FI,FI1D,FI1D7,583,Pelkosenniemi,951,1881.14343629,2018,FI_583,official,TRUE
FI_584,24.422656307505214,63.211044558015246,FI,FI1D,FI1D5,584,Perho,2907,774.86810744,2018,FI_584,official,TRUE
FI_588,26.47000132539449,61.491706195313995,FI,FI1D,FI1D1,588,Pertunmaa,1796,454.53168033,2018,FI_588,official,TRUE
FI_592,25.19404058712073,62.26379919045745,FI,FI19,FI193,592,Petäjävesi,3981,495.32927654,2018,FI_592,official,TRUE
FI_593,27.147017356263227,62.29973197316777,FI,FI1D,FI1D1,593,Pieksämäki,18475,1836.7827584,2018,FI_593,official,TRUE
FI_595,26.757487622053738,63.23623429576283,FI,FI1D,FI1D2,595,Pielavesi,4697,1406.52406668,2018,FI_595,official,TRUE
FI_598,22.700903468814978,63.67431046866867,FI,FI19,FI195,598,Pietarsaari,19377,89.68426002,2018,FI_598,official,TRUE
FI_599,22.83866426155951,63.623989849219114,FI,FI19,FI195,599,Pedersören kunta,11067,825.72162864,2018,FI_599,official,TRUE
FI_601,25.56908033589518,63.37272923901445,FI,FI19,FI193,601,Pihtipudas,4202,1247.47508591,2018,FI_601,official,TRUE
FI_604,23.678831939440148,61.46632049744636,FI,FI19,FI197,604,Pirkkala,19163,104.2017925,2018,FI_604,official,TRUE
FI_607,29.381291998608937,62.85483897399526,FI,FI1D,FI1D3,607,Polvijärvi,4514,958.33527638,2018,FI_607,official,TRUE
FI_608,22.014253572308547,61.69531352575337,FI,FI19,FI196,608,Pomarkku,2233,332.32570277,2018,FI_608,official,TRUE
FI_609,21.79221017279473,61.48801856675028,FI,FI19,FI196,609,Pori,85059,1205.35955071,2018,FI_609,official,TRUE
FI_611,25.37580457482342,60.47567228671002,FI,FI1B,FI1B1,611,Pornainen,5108,149.71639894,2018,FI_611,official,TRUE
FI_614,28.165425393690338,66.11512577709071,FI,FI1D,FI1D7,614,Posio,3424,3543.34883072,2018,FI_614,official,TRUE
FI_615,27.008505542815502,65.3622182692549,FI,FI1D,FI1D9,615,Pudasjärvi,8187,5866.56094822,2018,FI_615,official,TRUE
FI_616,25.57411098388809,60.64639182481199,FI,FI1B,FI1B1,616,Pukkila,1988,145.41699673,2018,FI_616,official,TRUE
FI_619,23.11048929107547,61.115388118859585,FI,FI19,FI197,619,Punkalaidun,3003,363.69922435,2018,FI_619,official,TRUE
FI_620,27.672876891232036,64.86919582148062,FI,FI1D,FI1D8,620,Puolanka,2735,2597.08974273,2018,FI_620,official,TRUE
FI_623,28.178867988593318,61.52428578081379,FI,FI1D,FI1D1,623,Puumala,2234,1237.82642771,2018,FI_623,official,TRUE
FI_624,26.72155596158775,60.48879093010417,FI,FI1C,FI1C4,624,Pyhtää,5340,330.93576466,2018,FI_624,official,TRUE
FI_625,24.25275396543078,64.4634258631363,FI,FI1D,FI1D9,625,Pyhäjoki,3188,547.0100311,2018,FI_625,official,TRUE
FI_626,25.972880605971387,63.67831984035863,FI,FI1D,FI1D9,626,Pyhäjärvi,5446,1458.77075667,2018,FI_626,official,TRUE
FI_630,26.338047474446142,64.10293920730001,FI,FI1D,FI1D9,630,Pyhäntä,1579,847.21422712,2018,FI_630,official,TRUE
FI_631,21.519571912377668,60.987192460106165,FI,FI1C,FI1C1,631,Pyhäranta,2075,145.73232766,2018,FI_631,official,TRUE
FI_635,24.328824738907755,61.335710558134565,FI,FI19,FI197,635,Pälkäne,6627,737.61651718,2018,FI_635,official,TRUE
FI_636,22.63703225578713,60.742162765882746,FI,FI1C,FI1C1,636,Pöytyä,8503,773.26581335,2018,FI_636,official,TRUE
FI_638,25.65838948784275,60.38869877104203,FI,FI1B,FI1B1,638,Porvoo,50144,646.39422317,2018,FI_638,official,TRUE
FI_678,24.51796584368611,64.68076769533393,FI,FI1D,FI1D9,678,Raahe,25010,1019.54670533,2018,FI_678,official,TRUE
FI_680,22.158753918428978,60.4838707744498,FI,FI1C,FI1C1,680,Raisio,24283,49.22996057,2018,FI_680,official,TRUE
FI_681,28.30123340541797,62.06529147492424,FI,FI1D,FI1D1,681,Rantasalmi,3649,925.13443865,2018,FI_681,official,TRUE
FI_683,26.523518854936658,65.92811308904706,FI,FI1D,FI1D7,683,Ranua,4023,3695.17502214,2018,FI_683,official,TRUE
FI_684,21.512145145521636,61.12944590981217,FI,FI19,FI196,684,Rauma,39614,500.5746673,2018,FI_684,official,TRUE
FI_686,26.827970382864653,62.62576235257222,FI,FI1D,FI1D2,686,Rautalampi,3288,760.90288912,2018,FI_686,official,TRUE
FI_687,28.29699860540469,63.49301791426741,FI,FI1D,FI1D2,687,Rautavaara,1723,1235.22122953,2018,FI_687,official,TRUE
FI_689,29.350561795262852,61.427376587294695,FI,FI1C,FI1C5,689,Rautjärvi,3473,401.51219304,2018,FI_689,official,TRUE
FI_691,24.935931326031625,63.606600535106494,FI,FI1D,FI1D9,691,Reisjärvi,2854,503.41373343,2018,FI_691,official,TRUE
FI_694,24.773052855118383,60.73845707238261,FI,FI1C,FI1C2,694,Riihimäki,29160,125.44730152,2018,FI_694,official,TRUE
FI_697,28.21137410793482,64.50482293962519,FI,FI1D,FI1D8,697,Ristijärvi,1345,897.84649093,2018,FI_697,official,TRUE
FI_698,25.72087801841175,66.502395558361,FI,FI1D,FI1D7,698,Rovaniemi,62231,8017.6806393,2018,FI_698,official,TRUE
FI_700,28.828750850994876,61.28825836320349,FI,FI1C,FI1C5,700,Ruokolahti,5245,1220.52698564,2018,FI_700,official,TRUE
FI_702,24.06448008599919,61.986084413708184,FI,FI19,FI197,702,Ruovesi,4565,950.29446989,2018,FI_702,official,TRUE
FI_704,22.25285753708769,60.55476251631042,FI,FI1C,FI1C1,704,Rusko,6137,127.77672503,2018,FI_704,official,TRUE
FI_707,29.636416908577228,62.31082838098212,FI,FI1D,FI1D3,707,Rääkkylä,2268,700.2395035,2018,FI_707,official,TRUE
FI_710,23.536066282007518,60.02129621570157,FI,FI1B,FI1B1,710,Raasepori,28077,1163.21468183,2018,FI_710,official,TRUE
FI_729,25.238659527926433,62.70793687690252,FI,FI19,FI193,729,Saarijärvi,9690,1424.15951465,2018,FI_729,official,TRUE
FI_732,28.666209886654613,66.82526781454153,FI,FI1D,FI1D7,732,Salla,3653,5874.00667758,2018,FI_732,official,TRUE
FI_734,23.138762370816984,60.38746662008919,FI,FI1C,FI1C1,734,Salo,53546,2059.097405,2018,FI_734,official,TRUE
FI_736,20.022257430116376,60.28300851669464,FI,FI20,FI200,736,Saltvik,1839,147.19411675,2018,FI_736,official,TRUE
FI_738,22.693723581252222,60.346769537570644,FI,FI1C,FI1C1,738,Sauvo,3047,252.39266558,2018,FI_738,official,TRUE
FI_739,27.682149175129812,61.19494128310309,FI,FI1C,FI1C5,739,Savitaipale,3534,690.6840839,2018,FI_739,official,TRUE
FI_740,28.917401271870695,61.8698919503505,FI,FI1D,FI1D1,740,Savonlinna,35242,3597.68555639,2018,FI_740,official,TRUE
FI_742,28.16750409801748,67.30561911197809,FI,FI1D,FI1D7,742,Savukoski,1044,6496.63224795,2018,FI_742,official,TRUE
FI_743,22.85254953473019,62.78149340974085,FI,FI19,FI194,743,Seinäjoki,62052,1467.66151542,2018,FI_743,official,TRUE
FI_746,24.51146079072726,63.90491683140827,FI,FI1D,FI1D9,746,Sievi,5069,799.72521368,2018,FI_746,official,TRUE
FI_747,21.837869173119834,61.87203720645893,FI,FI19,FI196,747,Siikainen,1494,490.67193165,2018,FI_747,official,TRUE
FI_748,25.068471061064145,64.67121365409247,FI,FI1D,FI1D9,748,Siikajoki,5366,1062.72685647,2018,FI_748,official,TRUE
FI_749,27.681300342029967,63.04435148643085,FI,FI1D,FI1D2,749,Siilinjärvi,21768,507.94708837,2018,FI_749,official,TRUE
FI_751,24.95669670229734,65.66887099218148,FI,FI1D,FI1D7,751,Simo,3170,1461.43994778,2018,FI_751,official,TRUE
FI_753,25.273604264575166,60.3524304450355,FI,FI1B,FI1B1,753,Sipoo,19922,334.19271288,2018,FI_753,official,TRUE
FI_755,24.22568053065681,60.139500792219806,FI,FI1B,FI1B1,755,Siuntio,6178,248.76933246,2018,FI_755,official,TRUE
FI_758,26.582615764668038,67.42315044650135,FI,FI1D,FI1D7,758,Sodankylä,8653,12413.60200946,2018,FI_758,official,TRUE
FI_759,24.207654577193374,62.871635530967616,FI,FI19,FI194,759,Soini,2186,576.32761913,2018,FI_759,official,TRUE
FI_761,23.516481103632497,60.62783336325794,FI,FI1C,FI1C1,761,Somero,9027,697.96273145,2018,FI_761,official,TRUE
FI_762,27.51210981497737,63.68581754363166,FI,FI1D,FI1D2,762,Sonkajärvi,4199,1576.39793655,2018,FI_762,official,TRUE
FI_765,28.36656211262565,64.13882929323152,FI,FI1D,FI1D8,765,Sotkamo,10471,2952.27361105,2018,FI_765,official,TRUE
FI_766,20.663005460568126,60.1320724176109,FI,FI20,FI200,766,Sottunga,96,14.08450617,2018,FI_766,official,TRUE
FI_768,28.3670898623136,61.78654062857102,FI,FI1D,FI1D1,768,Sulkava,2661,768.96621468,2018,FI_768,official,TRUE
FI_771,20.13271053820012,60.23135985984649,FI,FI20,FI200,771,Sund,1006,109.8984568,2018,FI_771,official,TRUE
FI_777,28.917677799002377,64.8836819438719,FI,FI1D,FI1D8,777,Suomussalmi,8187,5857.79101195,2018,FI_777,official,TRUE
FI_778,27.116843495394136,62.62479348106434,FI,FI1D,FI1D2,778,Suonenjoki,7312,863.13659575,2018,FI_778,official,TRUE
FI_781,25.680286212315444,61.50356282175619,FI,FI1C,FI1C3,781,Sysmä,3953,936.34415031,2018,FI_781,official,TRUE
FI_783,22.340277146330976,61.05995985977844,FI,FI19,FI196,783,Säkylä,6988,527.48661038,2018,FI_783,official,TRUE
FI_785,26.832187658686433,64.55442407865672,FI,FI1D,FI1D9,785,Vaala,3040,1762.4226145,2018,FI_785,official,TRUE
FI_790,22.90965766279636,61.34674282178204,FI,FI19,FI197,790,Sastamala,25062,1532.10053268,2018,FI_790,official,TRUE
FI_791,25.903967125973267,64.32991944987431,FI,FI1D,FI1D9,791,Siikalatva,5583,2227.87045546,2018,FI_791,official,TRUE
FI_831,28.092879771253102,61.140183395532965,FI,FI1C,FI1C5,831,Taipalsaari,4832,761.96374536,2018,FI_831,official,TRUE
FI_832,28.24007001761327,65.56971616700498,FI,FI1D,FI1D9,832,Taivalkoski,4133,2651.53374132,2018,FI_832,official,TRUE
FI_833,21.61593040691315,60.560392475898915,FI,FI1C,FI1C1,833,Taivassalo,1622,138.45393266,2018,FI_833,official,TRUE
FI_834,23.761207587250222,60.80461137661702,FI,FI1C,FI1C2,834,Tammela,6241,714.27914778,2018,FI_834,official,TRUE
FI_837,23.788642532246556,61.48765608279646,FI,FI19,FI197,837,Tampere,228274,689.32316987,2018,FI_837,official,TRUE
FI_844,26.76827418960947,62.95504051117798,FI,FI1D,FI1D2,844,Tervo,1611,494.40430043,2018,FI_844,official,TRUE
FI_845,24.829063986982813,66.08710952054169,FI,FI1D,FI1D7,845,Tervola,3099,1592.86127025,2018,FI_845,official,TRUE
FI_846,21.74783348299109,62.484645396978486,FI,FI19,FI194,846,Teuva,5363,557.8806722,2018,FI_846,official,TRUE
FI_848,30.33494461224892,62.22670931359404,FI,FI1D,FI1D3,848,Tohmajärvi,4653,894.75973113,2018,FI_848,official,TRUE
FI_849,24.256621867158746,63.766615570253336,FI,FI1D,FI1D5,849,Toholampi,3232,617.47224557,2018,FI_849,official,TRUE
FI_850,26.081647458435853,62.09973429053992,FI,FI19,FI193,850,Toivakka,2432,414.39150475,2018,FI_850,official,TRUE
FI_851,24.16484494152246,65.84544030184706,FI,FI1D,FI1D7,851,Tornio,22117,1221.5541322,2018,FI_851,official,TRUE
FI_853,22.270905819884035,60.45145444098668,FI,FI1C,FI1C1,853,Turku,187604,246.49500986,2018,FI_853,official,TRUE
FI_854,23.98216130582711,66.77483883958607,FI,FI1D,FI1D7,854,Pello,3565,1863.36011507,2018,FI_854,official,TRUE
FI_857,28.490536598412156,62.807268936043656,FI,FI1D,FI1D2,857,Tuusniemi,2643,700.78227151,2018,FI_857,official,TRUE
FI_858,25.019316350340816,60.431559404748015,FI,FI1B,FI1B1,858,Tuusula,38588,225.22892845,2018,FI_858,official,TRUE
FI_859,25.66126445288338,64.7837518212104,FI,FI1D,FI1D9,859,Tyrnävä,6750,494.70716476,2018,FI_859,official,TRUE
FI_886,21.88538732329785,61.4322561641317,FI,FI19,FI196,886,Ulvila,13312,422.95578938,2018,FI_886,official,TRUE
FI_887,23.55943423049595,61.07914760608361,FI,FI19,FI197,887,Urjala,4858,505.1918562,2018,FI_887,official,TRUE
FI_889,26.429968169219112,64.75784067014402,FI,FI1D,FI1D9,889,Utajärvi,2824,1734.02893244,2018,FI_889,official,TRUE
FI_890,26.912066948745537,69.83067751158555,FI,FI1D,FI1D7,890,Utsjoki,1241,5374.65725328,2018,FI_890,official,TRUE
FI_892,25.498544696631054,62.49878215117485,FI,FI19,FI193,892,Uurainen,3717,372.29690021,2018,FI_892,official,TRUE
FI_893,22.529295017093744,63.51498267066072,FI,FI19,FI195,893,Uusikaarlepyy,7516,732.10716164,2018,FI_893,official,TRUE
FI_895,21.422604781851685,60.80591312434607,FI,FI1C,FI1C1,895,Uusikaupunki,15404,529.87234769,2018,FI_895,official,TRUE
FI_905,21.634001111933,63.09898253651185,FI,FI19,FI195,905,Vaasa,67620,361.30265463,2018,FI_905,official,TRUE
FI_908,24.02762979242886,61.27242875114193,FI,FI19,FI197,908,Valkeakoski,21346,371.922341,2018,FI_908,official,TRUE
FI_911,28.812693880601024,63.68013959740741,FI,FI1D,FI1D3,911,Valtimo,2245,837.2076153,2018,FI_911,official,TRUE
FI_915,27.867702014940654,62.316144276184886,FI,FI1D,FI1D2,915,Varkaus,21468,524.4067049,2018,FI_915,official,TRUE
FI_918,21.709727834363154,60.68558776684681,FI,FI1C,FI1C1,918,Vehmaa,2277,195.06709779,2018,FI_918,official,TRUE
FI_921,26.41199431675098,62.92819251442423,FI,FI1D,FI1D2,921,Vesanto,2148,569.412703,2018,FI_921,official,TRUE
FI_922,23.602606283936478,61.29990334221183,FI,FI19,FI197,922,Vesilahti,4462,354.38017627,2018,FI_922,official,TRUE
FI_924,23.79511339778354,63.467754159338284,FI,FI1D,FI1D5,924,Veteli,3259,520.44383675,2018,FI_924,official,TRUE
FI_925,27.006229087159987,63.744616490777055,FI,FI1D,FI1D2,925,Vieremä,3721,974.09129951,2018,FI_925,official,TRUE
FI_927,24.324910421175904,60.34403337659179,FI,FI1B,FI1B1,927,Vihti,28967,567.15125839,2018,FI_927,official,TRUE
FI_931,25.848843946314034,63.07793712088948,FI,FI19,FI193,931,Viitasaari,6607,1589.1987668,2018,FI_931,official,TRUE
FI_934,23.82607632188094,63.15981149629757,FI,FI19,FI194,934,Vimpeli,3025,329.18013718,2018,FI_934,official,TRUE
FI_935,27.683176184033275,60.574458712258306,FI,FI1C,FI1C4,935,Virolahti,3267,370.15986858,2018,FI_935,official,TRUE
FI_936,23.771048849951754,62.24235184368598,FI,FI19,FI197,936,Virrat,6917,1298.54278496,2018,FI_936,official,TRUE
FI_941,20.370860673397615,60.245006968575545,FI,FI20,FI200,941,Vårdö,439,79.07705766,2018,FI_941,official,TRUE
FI_946,22.29936219064109,63.2002723019951,FI,FI19,FI195,946,Vöyri,6684,776.75851654,2018,FI_946,official,TRUE
FI_976,23.69665316195971,66.32509045438832,FI,FI1D,FI1D7,976,Ylitornio,4200,2212.27578957,2018,FI_976,official,TRUE
FI_977,24.535480375009406,64.07664644055312,FI,FI1D,FI1D9,977,Ylivieska,15199,575.22009235,2018,FI_977,official,TRUE
FI_980,23.588004661888423,61.56512720431635,FI,FI19,FI197,980,Ylöjärvi,32799,1324.27456897,2018,FI_980,official,TRUE
FI_981,23.276985741515254,60.80639869412047,FI,FI1C,FI1C2,981,Ypäjä,2382,184.15188152,2018,FI_981,official,TRUE
FI_989,24.074662371490064,62.55473779599414,FI,FI19,FI194,989,Ähtäri,5985,911.08284681,2018,FI_989,official,TRUE
FI_992,25.753505443975424,62.60089099767996,FI,FI19,FI193,992,Äänekoski,19374,1138.15740885,2018,FI_992,official,TRUE
