gisco_id,longitude,latitude,country,nuts_2,nuts_3,lau_id,lau_name,population,area_km2,year,fid,concordance,pop_weighted
LT_11,24.023402967643978,54.3982383415728,LT,LT02,LT021,11,Alytaus miesto savivaldybė,49895,39.47808077,2020,LT_11,official,TRUE
LT_12,24.02764999485882,54.60270559429123,LT,LT02,LT022,12,Birštono savivaldybė,4066,121.75734943,2020,LT_12,official,TRUE
LT_13,25.250416058791124,54.70570725107919,LT,LT01,LT011,13,Vilniaus miesto savivaldybė,561836,400.54144788,2020,LT_13,official,TRUE
LT_15,23.992840731397425,54.01935136637996,LT,LT02,LT021,15,Druskininkų savivaldybė,19122,453.3542671,2020,LT_15,official,TRUE
LT_18,23.3534112758394,54.56240707163904,LT,LT02,LT024,18,Marijampolės savivaldybė,53772,755.1208708,2020,LT_18,official,TRUE
LT_19,23.94098307329104,54.91734625111547,LT,LT02,LT022,19,Kauno miesto savivaldybė,289364,156.93881151,2020,LT_19,official,TRUE
LT_21,21.172966839469918,55.680669593778894,LT,LT02,LT023,21,Klaipėdos miesto savivaldybė,149116,88.28280593,2020,LT_21,official,TRUE
LT_23,21.00100578129157,55.310180180966114,LT,LT02,LT023,23,Neringos savivaldybė,3530,89.41296782,2020,LT_23,official,TRUE
LT_25,21.08513410950777,55.92095759643613,LT,LT02,LT023,25,Palangos miesto savivaldybė,16038,78.87774561,2020,LT_25,official,TRUE
LT_27,24.34346257898292,55.72843094629952,LT,LT02,LT025,27,Panevėžio miesto savivaldybė,85885,50.16938928,2020,LT_27,official,TRUE
LT_29,23.27778020199842,55.91704110105333,LT,LT02,LT026,29,Šiaulių miesto savivaldybė,101511,81.1181071,2020,LT_29,official,TRUE
LT_30,26.43401849535268,55.5988469641304,LT,LT02,LT029,30,Visagino savivaldybė,18243,58.0510019,2020,LT_30,official,TRUE
LT_32,22.839472621871014,56.29198465905774,LT,LT02,LT026,32,Akmenės rajono savivaldybė,18772,843.98692575,2020,LT_32,official,TRUE
LT_33,23.991428588773655,54.40939012586141,LT,LT02,LT021,33,Alytaus rajono savivaldybė,25885,1403.93912154,2020,LT_33,official,TRUE
LT_34,25.102252132437354,55.52480277083133,LT,LT02,LT029,34,Anykščių rajono savivaldybė,23038,1764.6227019,2020,LT_34,official,TRUE
LT_36,24.75772664941478,56.1940878919515,LT,LT02,LT025,36,Biržų rajono savivaldybė,22719,1476.05101938,2020,LT_36,official,TRUE
LT_38,24.56534942781428,54.214148916903035,LT,LT02,LT021,38,Varėnos rajono savivaldybė,20844,2216.86431442,2020,LT_38,official,TRUE
LT_39,23.00292223041118,54.64913429312457,LT,LT02,LT024,39,Vilkaviškio rajono savivaldybė,34666,1263.23265733,2020,LT_39,official,TRUE
LT_41,25.37659872474255,54.656705596685796,LT,LT01,LT011,41,Vilniaus rajono savivaldybė,100146,2129.45171201,2020,LT_41,official,TRUE
LT_42,24.684578309090327,54.78218614396575,LT,LT01,LT011,42,Elektrėnų savivaldybė,23984,508.87011784,2020,LT_42,official,TRUE
LT_43,26.232759520030037,55.73273968461309,LT,LT02,LT029,43,Zarasų rajono savivaldybė,14915,1331.12862931,2020,LT_43,official,TRUE
LT_45,26.18741089485284,55.345151348978376,LT,LT02,LT029,45,Ignalinos rajono savivaldybė,14430,1440.63097438,2020,LT_45,official,TRUE
LT_46,24.273270812254825,55.077026788857424,LT,LT02,LT022,46,Jonavos rajono savivaldybė,41151,943.92719573,2020,LT_46,official,TRUE
LT_47,23.587866792663966,56.245627555483956,LT,LT02,LT026,47,Joniškio rajono savivaldybė,20730,1152.08360368,2020,LT_47,official,TRUE
LT_48,23.22719924060729,54.41501167608559,LT,LT02,LT024,48,Kalvarijos savivaldybė,10187,440.32819547,2020,LT_48,official,TRUE
LT_49,24.434789403860815,54.85350641583437,LT,LT02,LT022,49,Kaišiadorių rajono savivaldybė,29526,1087.05599323,2020,LT_49,official,TRUE
LT_52,23.86413347214525,54.88795979105175,LT,LT02,LT022,52,Kauno rajono savivaldybė,96423,1496.04597199,2020,LT_52,official,TRUE
LT_53,23.96327039824871,55.288376147791624,LT,LT02,LT022,53,Kėdainių rajono savivaldybė,45275,1677.24858035,2020,LT_53,official,TRUE
LT_54,22.941697927535376,55.6369714107908,LT,LT02,LT026,54,Kelmės rajono savivaldybė,25383,1705.13154102,2020,LT_54,official,TRUE
LT_55,21.379561610933056,55.70715420255221,LT,LT02,LT023,55,Klaipėdos rajono savivaldybė,60124,1237.53890415,2020,LT_55,official,TRUE
LT_56,21.258176048061653,55.89593511517275,LT,LT02,LT023,56,Kretingos rajono savivaldybė,37425,989.04459943,2020,LT_56,official,TRUE
LT_57,24.981154077448384,55.833826271300154,LT,LT02,LT025,57,Kupiškio rajono savivaldybė,16356,1080.39750535,2020,LT_57,official,TRUE
LT_58,23.487736690918933,54.75220695645839,LT,LT02,LT024,58,Kazlų Rūdos savivaldybė,11339,554.73877054,2020,LT_58,official,TRUE
LT_59,23.55013311967408,54.21964341966865,LT,LT02,LT021,59,Lazdijų rajono savivaldybė,18324,1306.82734964,2020,LT_59,official,TRUE
LT_61,22.33297326428562,56.30484860986553,LT,LT02,LT028,61,Mažeikių rajono savivaldybė,51056,1219.49164134,2020,LT_61,official,TRUE
LT_62,25.412062325189915,55.22396921214744,LT,LT02,LT029,62,Molėtų rajono savivaldybė,17153,1367.0850067,2020,LT_62,official,TRUE
LT_63,21.93171949660481,55.14658992031238,LT,LT02,LT027,63,Pagėgių savivaldybė,7285,535.08541737,2020,LT_63,official,TRUE
LT_65,23.868934485979988,55.99989190415685,LT,LT02,LT026,65,Pakruojo rajono savivaldybė,18607,1315.6506449,2020,LT_65,official,TRUE
LT_66,24.331141258250245,55.66997667486585,LT,LT02,LT025,66,Panevėžio rajono savivaldybė,35328,2177.98433277,2020,LT_66,official,TRUE
LT_67,24.383357229846084,56.05796560132856,LT,LT02,LT025,67,Pasvalio rajono savivaldybė,22829,1289.3784879,2020,LT_67,official,TRUE
LT_68,21.83631145336755,55.90836333102967,LT,LT02,LT028,68,Plungės rajono savivaldybė,32991,1105.43169006,2020,LT_68,official,TRUE
LT_69,23.94648879228877,54.6433842854843,LT,LT02,LT022,69,Prienų rajono savivaldybė,25806,1032.98894195,2020,LT_69,official,TRUE
LT_71,23.5601714034387,55.79856273600124,LT,LT02,LT026,71,Radviliškio rajono savivaldybė,35002,1634.68630973,2020,LT_71,official,TRUE
LT_72,23.1586747669207,55.369901437155775,LT,LT02,LT022,72,Raseinių rajono savivaldybė,31230,1573.36548665,2020,LT_72,official,TRUE
LT_73,25.585359950142472,55.95398364334723,LT,LT02,LT025,73,Rokiškio rajono savivaldybė,28072,1806.67819131,2020,LT_73,official,TRUE
LT_74,21.937481105634607,55.72629158275967,LT,LT02,LT028,74,Rietavo savivaldybė,7260,585.62268256,2020,LT_74,official,TRUE
LT_75,21.547493592152016,56.263077075805725,LT,LT02,LT023,75,Skuodo rajono savivaldybė,16084,911.04110225,2020,LT_75,official,TRUE
LT_77,22.300991188751055,55.25458155193098,LT,LT02,LT027,77,Tauragės rajono savivaldybė,37803,1178.7977663,2020,LT_77,official,TRUE
LT_78,22.255874392344452,55.97847374596755,LT,LT02,LT028,78,Telšių rajono savivaldybė,39306,1438.77971698,2020,LT_78,official,TRUE
LT_79,25.00206350104115,54.63505458339306,LT,LT01,LT011,79,Trakų rajono savivaldybė,32541,1207.72945584,2020,LT_79,official,TRUE
LT_81,24.77523594712833,55.24800458035691,LT,LT01,LT011,81,Ukmergės rajono savivaldybė,33482,1395.2627257,2020,LT_81,official,TRUE
LT_82,25.60247582152926,55.50388763943782,LT,LT02,LT029,82,Utenos rajono savivaldybė,37184,1230.33815246,2020,LT_82,official,TRUE
LT_84,23.04383798401023,54.96096857741145,LT,LT02,LT024,84,Šakių rajono savivaldybė,26707,1454.17821659,2020,LT_84,official,TRUE
LT_85,25.314083237046958,54.303241379773134,LT,LT01,LT011,85,Šalčininkų rajono savivaldybė,30521,1493.14447727,2020,LT_85,official,TRUE
LT_86,26.01702393370793,55.11964681987655,LT,LT01,LT011,86,Švenčionių rajono savivaldybė,22929,1691.232262,2020,LT_86,official,TRUE
LT_87,22.175226100787746,55.50089271766122,LT,LT02,LT027,87,Šilalės rajono savivaldybė,21899,1188.17978483,2020,LT_87,official,TRUE
LT_88,21.480372121991753,55.34817330476336,LT,LT02,LT023,88,Šilutės rajono savivaldybė,37641,1425.46251875,2020,LT_88,official,TRUE
LT_89,24.952014476738785,55.03949869849548,LT,LT01,LT011,89,Širvintų rajono savivaldybė,15072,905.72885754,2020,LT_89,official,TRUE
LT_91,23.099405994736962,55.9742592614422,LT,LT02,LT026,91,Šiaulių rajono savivaldybė,41447,1807.39341259,2020,LT_91,official,TRUE
LT_94,22.788826279602166,55.08860456433418,LT,LT02,LT027,94,Jurbarko rajono savivaldybė,24835,1506.43853602,2020,LT_94,official,TRUE
