gisco_id,longitude,latitude,country,nuts_2,nuts_3,lau_id,lau_name,population,area_km2,year,fid,concordance,pop_weighted
PL_1001121200101,20.42658689643337,49.96871809525798,PL,PL21,PL214,1001121200101,Bochnia,29718,29.88896232,2020,PL_1001121200101,official,TRUE
PL_1001121200102,20.390087191808732,49.985915643262906,PL,PL21,PL214,1001121200102,Bochnia,20024,130.82923482,2020,PL_1001121200102,official,TRUE
PL_1001121200103,20.449040836893843,50.084259703879475,PL,PL21,PL214,1001121200103,Drwinia,6534,108.53563242,2020,PL_1001121200103,official,TRUE
PL_1001121200104,20.511791346718887,49.84117695545107,PL,PL21,PL214,1001121200104,Lipnica Murowana,5659,60.32733709,2020,PL_1001121200104,official,TRUE
PL_1001121200105,20.294316321444516,49.863868763259326,PL,PL21,PL214,1001121200105,Łapanów,8197,71.70621,2020,PL_1001121200105,official,TRUE
PL_1001121200106,20.464382521076473,49.90947733189083,PL,PL21,PL214,1001121200106,Nowy Wiśnicz,14177,82.1619643,2020,PL_1001121200106,official,TRUE
PL_1001121200107,20.518465054300915,49.99849729747176,PL,PL21,PL214,1001121200107,Rzezawa,11348,86.36414207,2020,PL_1001121200107,official,TRUE
PL_1001121200108,20.376999181880482,49.841112593828406,PL,PL21,PL214,1001121200108,Trzciana,5641,44.09496974,2020,PL_1001121200108,official,TRUE
PL_1001121200109,20.4291550130421,49.81401033000735,PL,PL21,PL214,1001121200109,Żegocina,5560,34.88186801,2020,PL_1001121200109,official,TRUE
PL_1001121200601,19.6545986396698,50.01734635597891,PL,PL21,PL214,1001121200601,Czernichów,14712,84.21582128,2020,PL_1001121200601,official,TRUE
PL_1001121200602,20.252290429380686,50.1001303508791,PL,PL21,PL214,1001121200602,Igołomia-Wawrzeńczyce,7698,62.7885184,2020,PL_1001121200602,official,TRUE
PL_1001121200603,19.96828501088172,50.21977641499492,PL,PL21,PL214,1001121200603,Iwanowice,9164,71.09474382,2020,PL_1001121200603,official,TRUE
PL_1001121200604,19.711111431948154,50.21775716400444,PL,PL21,PL214,1001121200604,Jerzmanowice-Przeginia,10964,68.14572233,2020,PL_1001121200604,official,TRUE
PL_1001121200605,20.106672670015996,50.14508160323445,PL,PL21,PL214,1001121200605,Kocmyrzów-Luborzyca,15776,82.92742927,2020,PL_1001121200605,official,TRUE
PL_1001121200606,19.625227808205256,50.13466885541504,PL,PL21,PL214,1001121200606,Krzeszowice,32129,139.02488079,2020,PL_1001121200606,official,TRUE
PL_1001121200607,19.76363939362942,50.038237319525635,PL,PL21,PL214,1001121200607,Liszki,17447,72.0583576,2020,PL_1001121200607,official,TRUE
PL_1001121200608,19.985231086836198,50.153508664170424,PL,PL21,PL214,1001121200608,Michałowice,10762,51.11903528,2020,PL_1001121200608,official,TRUE
PL_1001121200609,19.892910944518988,49.95200323008878,PL,PL21,PL214,1001121200609,Mogilany,14233,43.71397124,2020,PL_1001121200609,official,TRUE
PL_1001121200610,19.85454769393239,50.22916603530514,PL,PL21,PL214,1001121200610,Skała,10579,74.82748158,2020,PL_1001121200610,official,TRUE
PL_1001121200611,19.802034405995183,49.973599858863075,PL,PL21,PL214,1001121200611,Skawina,43586,99.81143484,2020,PL_1001121200611,official,TRUE
PL_1001121200612,20.08219423394544,50.24188939813445,PL,PL21,PL214,1001121200612,Słomniki,13638,110.82279439,2020,PL_1001121200612,official,TRUE
PL_1001121200613,19.752037511599376,50.2590588617288,PL,PL21,PL214,1001121200613,Sułoszowa,5835,53.3731753,2020,PL_1001121200613,official,TRUE
PL_1001121200614,19.963481372322345,49.94320646189403,PL,PL21,PL214,1001121200614,Świątniki Górne,10195,20.34732304,2020,PL_1001121200614,official,TRUE
PL_1001121200615,19.845555038640892,50.144014561837466,PL,PL21,PL214,1001121200615,Wielka Wieś,12721,48.26949123,2020,PL_1001121200615,official,TRUE
PL_1001121200616,19.78781773025553,50.116140022058,PL,PL21,PL214,1001121200616,Zabierzów,26708,99.42172257,2020,PL_1001121200616,official,TRUE
PL_1001121200617,19.949294257711177,50.12648147480472,PL,PL21,PL214,1001121200617,Zielonki,23092,48.5845155,2020,PL_1001121200617,official,TRUE
PL_1001121200801,19.938643184750127,50.40096624838262,PL,PL21,PL214,1001121200801,Charsznica,7441,78.472329,2020,PL_1001121200801,official,TRUE
PL_1001121200802,19.912700725929323,50.33236302332931,PL,PL21,PL214,1001121200802,Gołcza,6047,90.01919048,2020,PL_1001121200802,official,TRUE
PL_1001121200803,20.01144598611963,50.47273454414981,PL,PL21,PL214,1001121200803,Kozłów,4582,85.76094629,2020,PL_1001121200803,official,TRUE
PL_1001121200804,20.14563323756087,50.43818507055867,PL,PL21,PL214,1001121200804,Książ Wielki,5073,137.83341688,2020,PL_1001121200804,official,TRUE
PL_1001121200805,20.03075052471667,50.35562608706752,PL,PL21,PL214,1001121200805,Miechów,19645,148.34462384,2020,PL_1001121200805,official,TRUE
PL_1001121200806,20.23357101031957,50.3267989260838,PL,PL21,PL214,1001121200806,Racławice,2508,59.09963013,2020,PL_1001121200806,official,TRUE
PL_1001121200807,20.236847043668657,50.38282388289975,PL,PL21,PL214,1001121200807,Słaboszów,3522,76.78229551,2020,PL_1001121200807,official,TRUE
PL_1001121200901,20.09341125175287,49.882279862908945,PL,PL21,PL214,1001121200901,Dobczyce,15321,66.38820018,2020,PL_1001121200901,official,TRUE
PL_1001121200902,19.95044740815746,49.68106177752323,PL,PL21,PL214,1001121200902,Lubień,10076,75.09009068,2020,PL_1001121200902,official,TRUE
PL_1001121200903,19.937970608360153,49.836498662578315,PL,PL21,PL214,1001121200903,Myślenice,44444,153.4223061,2020,PL_1001121200903,official,TRUE
PL_1001121200904,19.941501193691188,49.76832991019419,PL,PL21,PL214,1001121200904,Pcim,11131,88.96403935,2020,PL_1001121200904,official,TRUE
PL_1001121200905,20.154612097553738,49.84119278775667,PL,PL21,PL214,1001121200905,Raciechowice,6413,61.14877667,2020,PL_1001121200905,official,TRUE
PL_1001121200906,19.983167830959577,49.900260919472714,PL,PL21,PL214,1001121200906,Siepraw,9001,31.8425719,2020,PL_1001121200906,official,TRUE
PL_1001121200907,19.805208094792743,49.84341604027741,PL,PL21,PL214,1001121200907,Sułkowice,14982,60.37725838,2020,PL_1001121200907,official,TRUE
PL_1001121200908,19.873821858975692,49.73319502867597,PL,PL21,PL214,1001121200908,Tokarnia,8820,68.62002167,2020,PL_1001121200908,official,TRUE
PL_1001121200909,20.107358812425463,49.78355296202388,PL,PL21,PL214,1001121200909,Wiśniowa,7412,67.09518748,2020,PL_1001121200909,official,TRUE
PL_1001121201401,20.230095551099446,50.156931846390094,PL,PL21,PL214,1001121201401,Koniusza,9007,88.51505869,2020,PL_1001121201401,official,TRUE
PL_1001121201402,20.571072760417547,50.16891844872267,PL,PL21,PL214,1001121201402,Koszyce,5454,66.05532652,2020,PL_1001121201402,official,TRUE
PL_1001121201403,20.390890012343583,50.13736237390371,PL,PL21,PL214,1001121201403,Nowe Brzesko,5712,54.4120806,2020,PL_1001121201403,official,TRUE
PL_1001121201404,20.308031094139317,50.277215868998006,PL,PL21,PL214,1001121201404,Pałecznica,3568,47.86568915,2020,PL_1001121201404,official,TRUE
PL_1001121201405,20.298196569158616,50.19412508657445,PL,PL21,PL214,1001121201405,Proszowice,16139,100.03494658,2020,PL_1001121201405,official,TRUE
PL_1001121201406,20.217940293034374,50.25500673145641,PL,PL21,PL214,1001121201406,Radziemice,3342,57.98466647,2020,PL_1001121201406,official,TRUE
PL_1001121201901,20.13901901500659,49.96690212772697,PL,PL21,PL214,1001121201901,Biskupice,10450,41.13340235,2020,PL_1001121201901,official,TRUE
PL_1001121201902,20.21425166141395,49.91760860057223,PL,PL21,PL214,1001121201902,Gdów,18296,108.71809127,2020,PL_1001121201902,official,TRUE
PL_1001121201903,20.283420271958867,49.98970805152294,PL,PL21,PL214,1001121201903,Kłaj,10768,64.78284527,2020,PL_1001121201903,official,TRUE
PL_1001121201904,20.209096052919406,50.02735361863097,PL,PL21,PL214,1001121201904,Niepołomice,29141,96.29326735,2020,PL_1001121201904,official,TRUE
PL_1001121201905,20.06161924984002,49.98661810091448,PL,PL21,PL214,1001121201905,Wieliczka,60481,99.6740557,2020,PL_1001121201905,official,TRUE
PL_1001121216101,19.974161008776935,50.065494772326424,PL,PL21,PL213,1001121216101,Kraków,779115,326.84517251,2020,PL_1001121216101,official,TRUE
PL_1001121220501,21.159110845589385,49.659502258283204,PL,PL21,PL218,1001121220501,Gorlice,27357,23.53815872,2020,PL_1001121220501,official,TRUE
PL_1001121220502,21.24156532186153,49.72836376036705,PL,PL21,PL218,1001121220502,Biecz,16808,98.22937316,2020,PL_1001121220502,official,TRUE
PL_1001121220503,20.94836761467924,49.70811590863527,PL,PL21,PL218,1001121220503,Bobowa,9798,49.79849858,2020,PL_1001121220503,official,TRUE
PL_1001121220504,21.142379971092538,49.64742137992402,PL,PL21,PL218,1001121220504,Gorlice,17278,102.86706004,2020,PL_1001121220504,official,TRUE
PL_1001121220505,21.290713206716603,49.67406173698952,PL,PL21,PL218,1001121220505,Lipinki,6792,66.4655259,2020,PL_1001121220505,official,TRUE
PL_1001121220506,21.044767892159086,49.6989195555944,PL,PL21,PL218,1001121220506,Łużna,8535,56.29856326,2020,PL_1001121220506,official,TRUE
PL_1001121220507,21.085689412406662,49.73247253529675,PL,PL21,PL218,1001121220507,Moszczenica,4983,37.61700636,2020,PL_1001121220507,official,TRUE
PL_1001121220508,21.04578019215569,49.59074586870236,PL,PL21,PL218,1001121220508,Ropa,5507,49.09860981,2020,PL_1001121220508,official,TRUE
PL_1001121220509,21.207348552124618,49.61687098630448,PL,PL21,PL218,1001121220509,Sękowa,4980,194.82945585,2020,PL_1001121220509,official,TRUE
PL_1001121220510,21.127920220175188,49.49397948119516,PL,PL21,PL218,1001121220510,Uście Gorlickie,6848,287.58406301,2020,PL_1001121220510,official,TRUE
PL_1001121220701,20.417920912381035,49.7083904207586,PL,PL21,PL218,1001121220701,Limanowa,15162,18.69967823,2020,PL_1001121220701,official,TRUE
PL_1001121220702,20.07119463031919,49.678372822847024,PL,PL21,PL218,1001121220702,Mszana Dolna,7889,27.0992339,2020,PL_1001121220702,official,TRUE
PL_1001121220703,20.230069781040566,49.70987592483572,PL,PL21,PL218,1001121220703,Dobra,9983,109.79913797,2020,PL_1001121220703,official,TRUE
PL_1001121220704,20.23281848114919,49.783498629199705,PL,PL21,PL218,1001121220704,Jodłownik,8690,72.19300796,2020,PL_1001121220704,official,TRUE
PL_1001121220705,20.334890188240966,49.58531200733186,PL,PL21,PL218,1001121220705,Kamienica,7850,95.24140479,2020,PL_1001121220705,official,TRUE
PL_1001121220706,20.491282134423127,49.76085961861633,PL,PL21,PL218,1001121220706,Laskowa,8206,72.48691982,2020,PL_1001121220706,official,TRUE
PL_1001121220707,20.450013672079162,49.70658612869058,PL,PL21,PL218,1001121220707,Limanowa,25607,152.23894812,2020,PL_1001121220707,official,TRUE
PL_1001121220708,20.494560953401262,49.61093703860805,PL,PL21,PL218,1001121220708,Łukowica,10062,69.63590284,2020,PL_1001121220708,official,TRUE
PL_1001121220709,20.099897186250207,49.666758257870015,PL,PL21,PL218,1001121220709,Mszana Dolna,17623,170.06448413,2020,PL_1001121220709,official,TRUE
PL_1001121220710,20.092325743144915,49.61625278651657,PL,PL21,PL218,1001121220710,Niedźwiedź,7337,74.2373589,2020,PL_1001121220710,official,TRUE
PL_1001121220711,20.34787673713714,49.68937836509295,PL,PL21,PL218,1001121220711,Słopnice,6764,56.82823158,2020,PL_1001121220711,official,TRUE
PL_1001121220712,20.318375933141244,49.731431851462055,PL,PL21,PL218,1001121220712,Tymbark,6591,32.70528369,2020,PL_1001121220712,official,TRUE
PL_1001121221001,20.950758279978857,49.62220239459435,PL,PL21,PL218,1001121221001,Grybów,6026,16.96351879,2020,PL_1001121221001,official,TRUE
PL_1001121221002,20.6640472269332,49.64179789005507,PL,PL21,PL218,1001121221002,Chełmiec,28834,111.9276948,2020,PL_1001121221002,official,TRUE
PL_1001121221003,20.730739309622894,49.750358650639654,PL,PL21,PL218,1001121221003,Gródek nad Dunajcem,9252,88.18658017,2020,PL_1001121221003,official,TRUE
PL_1001121221004,20.940271978689243,49.62814195704165,PL,PL21,PL218,1001121221004,Grybów,25579,153.15802566,2020,PL_1001121221004,official,TRUE
PL_1001121221005,20.803685724343463,49.58426496023404,PL,PL21,PL218,1001121221005,Kamionka Wielka,10432,65.01459701,2020,PL_1001121221005,official,TRUE
PL_1001121221006,20.82673250281363,49.680001004316935,PL,PL21,PL218,1001121221006,Korzenna,14497,106.92476394,2020,PL_1001121221006,official,TRUE
PL_1001121221007,20.960420991333347,49.412000033583496,PL,PL21,PL218,1001121221007,Krynica-Zdrój,16680,145.30495679,2020,PL_1001121221007,official,TRUE
PL_1001121221008,20.864146665040582,49.51374543395034,PL,PL21,PL218,1001121221008,Łabowa,6089,119.13209417,2020,PL_1001121221008,official,TRUE
PL_1001121221009,20.455546233290825,49.5523341189606,PL,PL21,PL218,1001121221009,Łącko,16522,132.96500621,2020,PL_1001121221009,official,TRUE
PL_1001121221010,20.632470320114013,49.7273496766182,PL,PL21,PL218,1001121221010,Łososina Dolna,11144,84.74987558,2020,PL_1001121221010,official,TRUE
PL_1001121221011,20.89823905344743,49.35768724883366,PL,PL21,PL218,1001121221011,Muszyna,11566,141.46698638,2020,PL_1001121221011,official,TRUE
PL_1001121221012,20.741998185778467,49.55293513940826,PL,PL21,PL218,1001121221012,Nawojowa,8730,50.20270461,2020,PL_1001121221012,official,TRUE
PL_1001121221013,20.71542525987793,49.443224231289854,PL,PL21,PL218,1001121221013,Piwniczna-Zdrój,10588,126.46900576,2020,PL_1001121221013,official,TRUE
PL_1001121221014,20.586817778965628,49.5884763183994,PL,PL21,PL218,1001121221014,Podegrodzie,13279,64.73713827,2020,PL_1001121221014,official,TRUE
PL_1001121221015,20.672667470841205,49.48705946879074,PL,PL21,PL218,1001121221015,Rytro,3777,41.92297922,2020,PL_1001121221015,official,TRUE
PL_1001121221016,20.625052044912398,49.55183244647858,PL,PL21,PL218,1001121221016,Stary Sącz,23801,100.88623107,2020,PL_1001121221016,official,TRUE
PL_1001121226201,20.706764032163004,49.618310273296636,PL,PL21,PL218,1001121226201,Nowy Sącz,83794,57.57023938,2020,PL_1001121226201,official,TRUE
PL_1001121230301,19.539669119221266,50.063794176804954,PL,PL21,PL21A,1001121230301,Alwernia,12529,73.83754842,2020,PL_1001121230301,official,TRUE
PL_1001121230302,19.426822607037227,50.070099733761545,PL,PL21,PL21A,1001121230302,Babice,9097,54.24938758,2020,PL_1001121230302,official,TRUE
PL_1001121230303,19.40872084241166,50.13924252520893,PL,PL21,PL21A,1001121230303,Chrzanów,46787,79.44595556,2020,PL_1001121230303,official,TRUE
PL_1001121230304,19.325539892415176,50.101512607150504,PL,PL21,PL21A,1001121230304,Libiąż,22342,56.91797754,2020,PL_1001121230304,official,TRUE
PL_1001121230305,19.468201835906942,50.17096554890693,PL,PL21,PL21A,1001121230305,Trzebinia,33781,105.33073339,2020,PL_1001121230305,official,TRUE
PL_1001121231201,19.45968492705184,50.265985887426844,PL,PL21,PL21A,1001121231201,Bukowno,10106,64.50807672,2020,PL_1001121231201,official,TRUE
PL_1001121231203,19.46346544809677,50.30254843007909,PL,PL21,PL21A,1001121231203,Bolesław,7745,40.76241423,2020,PL_1001121231203,official,TRUE
PL_1001121231204,19.56611921210312,50.345481077655265,PL,PL21,PL21A,1001121231204,Klucze,14973,119.48634246,2020,PL_1001121231204,official,TRUE
PL_1001121231205,19.571302609346944,50.269200061776026,PL,PL21,PL21A,1001121231205,Olkusz,48601,150.89383068,2020,PL_1001121231205,official,TRUE
PL_1001121231206,19.77427865242891,50.306016576701595,PL,PL21,PL21A,1001121231206,Trzyciąż,7039,95.74183532,2020,PL_1001121231206,official,TRUE
PL_1001121231207,19.763353992230712,50.382026272476054,PL,PL21,PL21A,1001121231207,Wolbrom,22753,146.77478032,2020,PL_1001121231207,official,TRUE
PL_1001121231301,19.227611067835063,50.035206898630605,PL,PL21,PL21A,1001121231301,Oświęcim,38005,30.13695257,2020,PL_1001121231301,official,TRUE
PL_1001121231302,19.138553267998944,49.97030358310042,PL,PL21,PL21A,1001121231302,Brzeszcze,21214,45.6463353,2020,PL_1001121231302,official,TRUE
PL_1001121231303,19.25889335258587,50.09748588499709,PL,PL21,PL21A,1001121231303,Chełmek,12990,27.2956535,2020,PL_1001121231303,official,TRUE
PL_1001121231304,19.218386863232748,49.88139617839034,PL,PL21,PL21A,1001121231304,Kęty,34157,76.441677,2020,PL_1001121231304,official,TRUE
PL_1001121231305,19.276026677311076,49.947466290154836,PL,PL21,PL21A,1001121231305,Osiek,8224,40.92417775,2020,PL_1001121231305,official,TRUE
PL_1001121231306,19.235176582409228,50.01799258629364,PL,PL21,PL21A,1001121231306,Oświęcim,18505,74.81650341,2020,PL_1001121231306,official,TRUE
PL_1001121231307,19.311710818517792,49.98279867954422,PL,PL21,PL21A,1001121231307,Polanka Wielka,4313,23.88804514,2020,PL_1001121231307,official,TRUE
PL_1001121231308,19.367269910639166,50.00011935976436,PL,PL21,PL21A,1001121231308,Przeciszów,6761,35.43970241,2020,PL_1001121231308,official,TRUE
PL_1001121231309,19.43439768448496,49.99521655443638,PL,PL21,PL21A,1001121231309,Zator,9317,51.64756828,2020,PL_1001121231309,official,TRUE
PL_1001121231801,19.349826753601317,49.854620907532286,PL,PL21,PL21A,1001121231801,Andrychów,43477,100.3571056,2020,PL_1001121231801,official,TRUE
PL_1001121231802,19.620162161501284,49.962689240970064,PL,PL21,PL21A,1001121231802,Brzeźnica,10426,66.45190333,2020,PL_1001121231802,official,TRUE
PL_1001121231803,19.679082965624247,49.87769410066176,PL,PL21,PL21A,1001121231803,Kalwaria Zebrzydowska,20012,75.28315284,2020,PL_1001121231803,official,TRUE
PL_1001121231804,19.736028221951916,49.84972563175406,PL,PL21,PL21A,1001121231804,Lanckorona,6245,40.44100676,2020,PL_1001121231804,official,TRUE
PL_1001121231805,19.533500868475564,49.81781389362361,PL,PL21,PL21A,1001121231805,Mucharz,4122,37.28318985,2020,PL_1001121231805,official,TRUE
PL_1001121231806,19.52123231925578,49.986478536125325,PL,PL21,PL21A,1001121231806,Spytkowice,10365,51.42058529,2020,PL_1001121231806,official,TRUE
PL_1001121231807,19.619422484077013,49.81942743045094,PL,PL21,PL21A,1001121231807,Stryszów,6865,45.91223479,2020,PL_1001121231807,official,TRUE
PL_1001121231808,19.48326770042852,49.91671167591278,PL,PL21,PL21A,1001121231808,Tomice,8174,41.54459524,2020,PL_1001121231808,official,TRUE
PL_1001121231809,19.495217254816676,49.878972644197766,PL,PL21,PL21A,1001121231809,Wadowice,37888,112.8237116,2020,PL_1001121231809,official,TRUE
PL_1001121231810,19.361658456530215,49.88213490353842,PL,PL21,PL21A,1001121231810,Wieprz,12432,74.44066039,2020,PL_1001121231810,official,TRUE
PL_1001121240201,20.70481741526724,50.04869916293236,PL,PL21,PL217,1001121240201,Borzęcin,8337,102.78170248,2020,PL_1001121240201,official,TRUE
PL_1001121240202,20.606705612857503,49.973927679311025,PL,PL21,PL217,1001121240202,Brzesko,36291,102.65401171,2020,PL_1001121240202,official,TRUE
PL_1001121240203,20.675717716012826,49.84901315231592,PL,PL21,PL217,1001121240203,Czchów,9828,66.42587793,2020,PL_1001121240203,official,TRUE
PL_1001121240204,20.715310694833345,49.95622146722674,PL,PL21,PL217,1001121240204,Dębno,14746,81.59588896,2020,PL_1001121240204,official,TRUE
PL_1001121240205,20.61113120646033,49.901104793821155,PL,PL21,PL217,1001121240205,Gnojnik,8029,55.00607844,2020,PL_1001121240205,official,TRUE
PL_1001121240206,20.58279891445711,49.80949586207081,PL,PL21,PL217,1001121240206,Iwkowa,6483,47.19845886,2020,PL_1001121240206,official,TRUE
PL_1001121240207,20.625275699874553,50.1206323303735,PL,PL21,PL217,1001121240207,Szczurowa,9487,134.92436867,2020,PL_1001121240207,official,TRUE
PL_1001121240401,20.882949531390903,50.27090439729207,PL,PL21,PL217,1001121240401,Bolesław,2607,35.69048691,2020,PL_1001121240401,official,TRUE
PL_1001121240402,20.98908189573109,50.17372953437815,PL,PL21,PL217,1001121240402,Dąbrowa Tarnowska,21256,116.43495046,2020,PL_1001121240402,official,TRUE
PL_1001121240403,20.792470420969387,50.2474749766505,PL,PL21,PL217,1001121240403,Gręboszów,3333,48.51035319,2020,PL_1001121240403,official,TRUE
PL_1001121240404,20.96215935723241,50.27832463475957,PL,PL21,PL217,1001121240404,Mędrzechów,3433,44.39725112,2020,PL_1001121240404,official,TRUE
PL_1001121240405,20.924279920601318,50.208012935566444,PL,PL21,PL217,1001121240405,Olesno,7966,77.61411244,2020,PL_1001121240405,official,TRUE
PL_1001121240406,21.107568747065173,50.192760410626164,PL,PL21,PL217,1001121240406,Radgoszcz,7424,88.13700118,2020,PL_1001121240406,official,TRUE
PL_1001121240407,21.082880966019736,50.30706172415949,PL,PL21,PL217,1001121240407,Szczucin,13155,119.47417515,2020,PL_1001121240407,official,TRUE
PL_1001121241601,20.953851166874703,49.78093422384128,PL,PL21,PL217,1001121241601,Ciężkowice,11209,103.3841343,2020,PL_1001121241601,official,TRUE
PL_1001121241602,20.955451485607824,49.83952578682659,PL,PL21,PL217,1001121241602,Gromnik,8922,69.75685009,2020,PL_1001121241602,official,TRUE
PL_1001121241603,21.040349774648867,50.08161149392921,PL,PL21,PL217,1001121241603,Lisia Góra,15402,104.73744144,2020,PL_1001121241603,official,TRUE
PL_1001121241604,20.936134323853803,49.93111933876922,PL,PL21,PL217,1001121241604,Pleśna,11944,83.06807649,2020,PL_1001121241604,official,TRUE
PL_1001121241605,20.842302840373726,50.100791795454214,PL,PL21,PL217,1001121241605,Radłów,9666,86.17775586,2020,PL_1001121241605,official,TRUE
PL_1001121241606,21.155086447426157,49.902906053401544,PL,PL21,PL217,1001121241606,Ryglice,11652,117.09409319,2020,PL_1001121241606,official,TRUE
PL_1001121241607,21.09376079817028,49.793635032037685,PL,PL21,PL217,1001121241607,Rzepiennik Strzyżewski,6738,70.6968621,2020,PL_1001121241607,official,TRUE
PL_1001121241608,21.08826123208515,49.989122270796,PL,PL21,PL217,1001121241608,Skrzyszów,14303,86.02759001,2020,PL_1001121241608,official,TRUE
PL_1001121241609,20.943449401244514,49.97953119323981,PL,PL21,PL217,1001121241609,Tarnów,26202,82.70936593,2020,PL_1001121241609,official,TRUE
PL_1001121241610,21.051055597264778,49.892589293292126,PL,PL21,PL217,1001121241610,Tuchów,17916,99.85429096,2020,PL_1001121241610,official,TRUE
PL_1001121241611,20.866304193795305,50.01721401634248,PL,PL21,PL217,1001121241611,Wierzchosławice,10857,75.05413742,2020,PL_1001121241611,official,TRUE
PL_1001121241612,20.752976589818385,50.18093062974446,PL,PL21,PL217,1001121241612,Wietrzychowice,3938,48.41433965,2020,PL_1001121241612,official,TRUE
PL_1001121241613,20.82615533194124,49.95515807941771,PL,PL21,PL217,1001121241613,Wojnicz,13443,79.29271121,2020,PL_1001121241613,official,TRUE
PL_1001121241614,20.798637009685734,49.85020778813615,PL,PL21,PL217,1001121241614,Zakliczyn,12488,122.06179548,2020,PL_1001121241614,official,TRUE
PL_1001121241615,20.892645953022924,50.12287703185173,PL,PL21,PL217,1001121241615,Żabno,18874,101.56024823,2020,PL_1001121241615,official,TRUE
PL_1001121241616,21.221525547239185,49.81172136162764,PL,PL21,PL217,1001121241616,Szerzyny,7943,82.01392077,2020,PL_1001121241616,official,TRUE
PL_1001121246301,20.99314264887896,50.01725519299336,PL,PL21,PL217,1001121246301,Tarnów,108470,72.36925863,2020,PL_1001121246301,official,TRUE
PL_1001121691101,20.02998909508037,49.474539507022705,PL,PL21,PL219,1001121691101,Nowy Targ,33293,51.05880424,2020,PL_1001121691101,official,TRUE
PL_1001121691102,20.49051798202936,49.42223868777308,PL,PL21,PL219,1001121691102,Szczawnica,7204,87.90716555,2020,PL_1001121691102,official,TRUE
PL_1001121691103,19.851450247529375,49.43260355112647,PL,PL21,PL219,1001121691103,Czarny Dunajec,22626,217.35037222,2020,PL_1001121691103,official,TRUE
PL_1001121691104,20.29485750936096,49.45179687349893,PL,PL21,PL219,1001121691104,Czorsztyn,7663,62.07754345,2020,PL_1001121691104,official,TRUE
PL_1001121691105,19.6787119290097,49.51311954861197,PL,PL21,PL219,1001121691105,Jabłonka,18664,212.7074766,2020,PL_1001121691105,official,TRUE
PL_1001121691106,20.403161376457977,49.443010379610264,PL,PL21,PL219,1001121691106,Krościenko nad Dunajcem,6802,57.17003358,2020,PL_1001121691106,official,TRUE
PL_1001121691107,19.604692169374896,49.49900183964165,PL,PL21,PL219,1001121691107,Lipnica Wielka,6015,67.38550813,2020,PL_1001121691107,official,TRUE
PL_1001121691108,20.242898070749,49.41414530405936,PL,PL21,PL219,1001121691108,Łapsze Niżne,9379,125.80782061,2020,PL_1001121691108,official,TRUE
PL_1001121691109,20.06625324996531,49.47340612599727,PL,PL21,PL219,1001121691109,Nowy Targ,24070,207.74774376,2020,PL_1001121691109,official,TRUE
PL_1001121691110,20.3506793253105,49.51165194088941,PL,PL21,PL219,1001121691110,Ochotnica Dolna,8513,141.17885312,2020,PL_1001121691110,official,TRUE
PL_1001121691111,19.892881621501616,49.57459894334675,PL,PL21,PL219,1001121691111,Raba Wyżna,14750,89.00683651,2020,PL_1001121691111,official,TRUE
PL_1001121691112,19.962413006187145,49.60564994618903,PL,PL21,PL219,1001121691112,Rabka-Zdrój,17091,69.16890935,2020,PL_1001121691112,official,TRUE
PL_1001121691113,19.822174961957217,49.57736214131013,PL,PL21,PL219,1001121691113,Spytkowice,4609,32.21106818,2020,PL_1001121691113,official,TRUE
PL_1001121691114,20.00710175271332,49.42230712134226,PL,PL21,PL219,1001121691114,Szaflary,11103,54.28969903,2020,PL_1001121691114,official,TRUE
PL_1001121691501,19.835671485742353,49.651492316506555,PL,PL21,PL219,1001121691501,Jordanów,5366,21.02980893,2020,PL_1001121691501,official,TRUE
PL_1001121691502,19.589464118759064,49.738467519536165,PL,PL21,PL219,1001121691502,Sucha Beskidzka,9088,27.65887236,2020,PL_1001121691502,official,TRUE
PL_1001121691503,19.707648613493696,49.7783395387117,PL,PL21,PL219,1001121691503,Budzów,8945,73.55890798,2020,PL_1001121691503,official,TRUE
PL_1001121691504,19.753838431584274,49.6276015836814,PL,PL21,PL219,1001121691504,Bystra-Sidzina,6920,80.51955846,2020,PL_1001121691504,official,TRUE
PL_1001121691505,19.82927433442368,49.677662333858265,PL,PL21,PL219,1001121691505,Jordanów,11180,92.47958092,2020,PL_1001121691505,official,TRUE
PL_1001121691506,19.678750537494746,49.7231605735438,PL,PL21,PL219,1001121691506,Maków Podhalański,16077,108.65764044,2020,PL_1001121691506,official,TRUE
PL_1001121691507,19.499594902430015,49.727995759516375,PL,PL21,PL219,1001121691507,Stryszawa,11940,113.78102099,2020,PL_1001121691507,official,TRUE
PL_1001121691508,19.581985343474187,49.66253144107654,PL,PL21,PL219,1001121691508,Zawoja,9086,128.74991749,2020,PL_1001121691508,official,TRUE
PL_1001121691509,19.591873799649886,49.77590330010121,PL,PL21,PL219,1001121691509,Zembrzyce,5630,39.18420966,2020,PL_1001121691509,official,TRUE
PL_1001121691701,19.958130026607684,49.29579604984701,PL,PL21,PL219,1001121691701,Zakopane,27010,84.2686222,2020,PL_1001121691701,official,TRUE
PL_1001121691702,20.007726883320707,49.36924384600956,PL,PL21,PL219,1001121691702,Biały Dunajec,7179,35.20727649,2020,PL_1001121691702,official,TRUE
PL_1001121691703,20.107349640320365,49.366992064247185,PL,PL21,PL219,1001121691703,Bukowina Tatrzańska,13387,131.90078703,2020,PL_1001121691703,official,TRUE
PL_1001121691704,19.876762767258928,49.30769577625367,PL,PL21,PL219,1001121691704,Kościelisko,8846,136.65808423,2020,PL_1001121691704,official,TRUE
PL_1001121691705,19.99325832161583,49.33174719932848,PL,PL21,PL219,1001121691705,Poronin,11650,83.60386313,2020,PL_1001121691705,official,TRUE
PL_1001241440201,19.01792762327792,49.71432917402755,PL,PL22,PL225,1001241440201,Szczyrk,5751,39.05825124,2020,PL_1001241440201,official,TRUE
PL_1001241440202,19.057356821669828,49.91214067171551,PL,PL22,PL225,1001241440202,Bestwina,11909,37.70678152,2020,PL_1001241440202,official,TRUE
PL_1001241440203,19.081484990391317,49.7267170731111,PL,PL22,PL225,1001241440203,Buczkowice,11227,19.41356984,2020,PL_1001241440203,official,TRUE
PL_1001241440204,19.00166141112644,49.91567663466467,PL,PL22,PL225,1001241440204,Czechowice-Dziedzice,45489,66.48294701,2020,PL_1001241440204,official,TRUE
PL_1001241440205,18.927986576490877,49.82948408766028,PL,PL22,PL225,1001241440205,Jasienica,24419,91.65825488,2020,PL_1001241440205,official,TRUE
PL_1001241440206,18.9494371299754,49.793991153277155,PL,PL22,PL225,1001241440206,Jaworze,7395,21.23381274,2020,PL_1001241440206,official,TRUE
PL_1001241440207,19.142970578090086,49.845717906928066,PL,PL22,PL225,1001241440207,Kozy,13024,26.67367007,2020,PL_1001241440207,official,TRUE
PL_1001241440208,19.228689331877018,49.84446075527091,PL,PL22,PL225,1001241440208,Porąbka,15630,64.52642037,2020,PL_1001241440208,official,TRUE
PL_1001241440209,19.142994606100658,49.90471690368378,PL,PL22,PL225,1001241440209,Wilamowice,17695,56.78439764,2020,PL_1001241440209,official,TRUE
PL_1001241440210,19.084539995566963,49.759120674976806,PL,PL22,PL225,1001241440210,Wilkowice,13421,34.48769922,2020,PL_1001241440210,official,TRUE
PL_1001241440301,18.637153311896125,49.75026491916375,PL,PL22,PL225,1001241440301,Cieszyn,34424,28.58372378,2020,PL_1001241440301,official,TRUE
PL_1001241440302,18.808018013572656,49.724841109807976,PL,PL22,PL225,1001241440302,Ustroń,16067,59.0278553,2020,PL_1001241440302,official,TRUE
PL_1001241440303,18.87245727442237,49.6440568888686,PL,PL22,PL225,1001241440303,Wisła,11096,110.15921478,2020,PL_1001241440303,official,TRUE
PL_1001241440304,18.882149084674072,49.75104542076262,PL,PL22,PL225,1001241440304,Brenna,11285,95.62745966,2020,PL_1001241440304,official,TRUE
PL_1001241440305,18.812912416963297,49.891770104012295,PL,PL22,PL225,1001241440305,Chybie,9825,31.74868515,2020,PL_1001241440305,official,TRUE
PL_1001241440306,18.727234093104162,49.79769650091161,PL,PL22,PL225,1001241440306,Dębowiec,5833,42.65812375,2020,PL_1001241440306,official,TRUE
PL_1001241440307,18.736480742714605,49.73321202854214,PL,PL22,PL225,1001241440307,Goleszów,13142,65.87927448,2020,PL_1001241440307,official,TRUE
PL_1001241440308,18.612088843047292,49.80778806805102,PL,PL22,PL225,1001241440308,Hażlach,10915,48.78060337,2020,PL_1001241440308,official,TRUE
PL_1001241440309,18.90576305698233,49.55351036637483,PL,PL22,PL225,1001241440309,Istebna,12159,84.33967812,2020,PL_1001241440309,official,TRUE
PL_1001241440310,18.788041865141274,49.799245292626296,PL,PL22,PL225,1001241440310,Skoczów,26910,63.5378582,2020,PL_1001241440310,official,TRUE
PL_1001241440311,18.749565149139585,49.905486202543685,PL,PL22,PL225,1001241440311,Strumień,13272,58.51681248,2020,PL_1001241440311,official,TRUE
PL_1001241440312,18.61002426753575,49.863358835403766,PL,PL22,PL225,1001241440312,Zebrzydowice,13263,41.41525433,2020,PL_1001241440312,official,TRUE
PL_1001241441701,19.20647856250765,49.68413120378261,PL,PL22,PL225,1001241441701,Żywiec,31091,50.48730063,2020,PL_1001241441701,official,TRUE
PL_1001241441702,19.198436295969667,49.77238436587441,PL,PL22,PL225,1001241441702,Czernichów,6740,56.28176689,2020,PL_1001241441702,official,TRUE
PL_1001241441703,19.303058096176148,49.70951022260338,PL,PL22,PL225,1001241441703,Gilowice,6251,28.09777572,2020,PL_1001241441703,official,TRUE
PL_1001241441704,19.329461968284843,49.62702747678977,PL,PL22,PL225,1001241441704,Jeleśnia,13275,170.89005337,2020,PL_1001241441704,official,TRUE
PL_1001241441705,19.409144383960275,49.653127756676845,PL,PL22,PL225,1001241441705,Koszarawa,2367,31.40835981,2020,PL_1001241441705,official,TRUE
PL_1001241441706,19.11750212983516,49.677054906288376,PL,PL22,PL225,1001241441706,Lipowa,10846,58.71788565,2020,PL_1001241441706,official,TRUE
PL_1001241441707,19.26493675752446,49.72824234126829,PL,PL22,PL225,1001241441707,Łękawica,4552,42.72544178,2020,PL_1001241441707,official,TRUE
PL_1001241441708,19.149711257751264,49.71888259301053,PL,PL22,PL225,1001241441708,Łodygowice,14567,35.89674019,2020,PL_1001241441708,official,TRUE
PL_1001241441709,19.076745264765712,49.55995680920589,PL,PL22,PL225,1001241441709,Milówka,10067,98.44988473,2020,PL_1001241441709,official,TRUE
PL_1001241441710,19.161223164015883,49.641424743641345,PL,PL22,PL225,1001241441710,Radziechowy-Wieprz,13079,64.88078102,2020,PL_1001241441710,official,TRUE
PL_1001241441711,19.080483956877163,49.497183722195565,PL,PL22,PL225,1001241441711,Rajcza,8810,131.72753731,2020,PL_1001241441711,official,TRUE
PL_1001241441712,19.374677650099166,49.721660691640786,PL,PL22,PL225,1001241441712,Ślemień,3531,44.95779202,2020,PL_1001241441712,official,TRUE
PL_1001241441713,19.26545928509761,49.66472872602409,PL,PL22,PL225,1001241441713,Świnna,8070,39.15638648,2020,PL_1001241441713,official,TRUE
PL_1001241441714,19.140818846691605,49.48127185921939,PL,PL22,PL225,1001241441714,Ujsoły,4430,109.90148998,2020,PL_1001241441714,official,TRUE
PL_1001241441715,19.124608434497326,49.60202829194137,PL,PL22,PL225,1001241441715,Węgierska Górka,15080,76.50209251,2020,PL_1001241441715,official,TRUE
PL_1001241446101,19.03839985069747,49.81324953762174,PL,PL22,PL225,1001241446101,Bielsko-Biała,170663,124.43127976,2020,PL_1001241446101,official,TRUE
PL_1001241450701,18.68301108096147,50.669383052022994,PL,PL22,PL228,1001241450701,Lubliniec,23757,89.35961951,2020,PL_1001241450701,official,TRUE
PL_1001241450702,18.907524965794337,50.67272864769321,PL,PL22,PL228,1001241450702,Boronów,3436,57.46870944,2020,PL_1001241450702,official,TRUE
PL_1001241450703,18.614424594939003,50.76878141793508,PL,PL22,PL228,1001241450703,Ciasna,7454,134.01710423,2020,PL_1001241450703,official,TRUE
PL_1001241450704,18.845622362836348,50.735178214822774,PL,PL22,PL228,1001241450704,Herby,6797,85.88550315,2020,PL_1001241450704,official,TRUE
PL_1001241450705,18.713536959226317,50.70525925255325,PL,PL22,PL228,1001241450705,Kochanowice,6938,79.94385084,2020,PL_1001241450705,official,TRUE
PL_1001241450706,18.842603384053746,50.63126970094327,PL,PL22,PL228,1001241450706,Koszęcin,11815,128.87572265,2020,PL_1001241450706,official,TRUE
PL_1001241450707,18.569205686681293,50.692393293021084,PL,PL22,PL228,1001241450707,Pawonków,6635,119.03097713,2020,PL_1001241450707,official,TRUE
PL_1001241450708,19.031605736763062,50.59894170137602,PL,PL22,PL228,1001241450708,Woźniki,9619,127.57623296,2020,PL_1001241450708,official,TRUE
PL_1001241451301,18.88787173433778,50.561704425523445,PL,PL22,PL228,1001241451301,Kalety,8589,76.38350835,2020,PL_1001241451301,official,TRUE
PL_1001241451302,18.916052857859135,50.49028231377176,PL,PL22,PL228,1001241451302,Miasteczko Śląskie,7442,67.94025931,2020,PL_1001241451302,official,TRUE
PL_1001241451303,18.90049219084082,50.39734880785595,PL,PL22,PL228,1001241451303,Radzionków,16873,13.21871807,2020,PL_1001241451303,official,TRUE
PL_1001241451304,18.844015854358663,50.44557951652236,PL,PL22,PL228,1001241451304,Tarnowskie Góry,61686,83.79872643,2020,PL_1001241451304,official,TRUE
PL_1001241451305,18.63900685906496,50.571648871753034,PL,PL22,PL228,1001241451305,Krupski Młyn,3185,39.15140543,2020,PL_1001241451305,official,TRUE
PL_1001241451306,19.055026712110198,50.46749544014683,PL,PL22,PL228,1001241451306,Ożarowice,5795,45.56143729,2020,PL_1001241451306,official,TRUE
PL_1001241451307,18.917572326790356,50.439868230617755,PL,PL22,PL228,1001241451307,Świerklaniec,12401,44.69702663,2020,PL_1001241451307,official,TRUE
PL_1001241451308,18.729607815692347,50.524118311795114,PL,PL22,PL228,1001241451308,Tworóg,8287,125.26174988,2020,PL_1001241451308,official,TRUE
PL_1001241451309,18.760831489955176,50.39033478990924,PL,PL22,PL228,1001241451309,Zbrosławice,16261,148.22046371,2020,PL_1001241451309,official,TRUE
PL_1001241456201,18.89958887527272,50.35353985384657,PL,PL22,PL228,1001241456201,Bytom,165263,69.48205433,2020,PL_1001241456201,official,TRUE
PL_1001241457101,18.957566496332095,50.38297965746027,PL,PL22,PL228,1001241457101,Piekary Śląskie,55030,39.87499051,2020,PL_1001241457101,official,TRUE
PL_1001241460401,18.968852912225085,50.7821868204116,PL,PL22,PL224,1001241460401,Blachownia,12930,66.60528231,2020,PL_1001241460401,official,TRUE
PL_1001241460402,19.57067188439135,50.84940450862285,PL,PL22,PL224,1001241460402,Dąbrowa Zielona,3860,100.17839913,2020,PL_1001241460402,official,TRUE
PL_1001241460403,19.438894339415732,50.72114769985521,PL,PL22,PL224,1001241460403,Janów,5984,146.44642182,2020,PL_1001241460403,official,TRUE
PL_1001241460404,19.14332482399724,50.6820392406895,PL,PL22,PL224,1001241460404,Kamienica Polska,5567,46.45650979,2020,PL_1001241460404,official,TRUE
PL_1001241460405,19.35778983200238,50.90954583556559,PL,PL22,PL224,1001241460405,Kłomnice,13471,147.68186541,2020,PL_1001241460405,official,TRUE
PL_1001241460406,19.692409812461698,50.78080778064668,PL,PL22,PL224,1001241460406,Koniecpol,9408,146.62243805,2020,PL_1001241460406,official,TRUE
PL_1001241460407,19.006412150359203,50.72498369776852,PL,PL22,PL224,1001241460407,Konopiska,10736,78.59978889,2020,PL_1001241460407,official,TRUE
PL_1001241460408,19.316630452606773,50.97122873783064,PL,PL22,PL224,1001241460408,Kruszyna,4806,93.30168352,2020,PL_1001241460408,official,TRUE
PL_1001241460409,19.62731526780097,50.695562070654496,PL,PL22,PL224,1001241460409,Lelów,4824,123.74050359,2020,PL_1001241460409,official,TRUE
PL_1001241460410,19.287431116721745,50.826974143269275,PL,PL22,PL224,1001241460410,Mstów,10834,119.52112202,2020,PL_1001241460410,official,TRUE
PL_1001241460411,19.153704605327956,50.91132498751241,PL,PL22,PL224,1001241460411,Mykanów,15104,141.54944222,2020,PL_1001241460411,official,TRUE
PL_1001241460412,19.27475908765061,50.74672145506142,PL,PL22,PL224,1001241460412,Olsztyn,7810,109.08952694,2020,PL_1001241460412,official,TRUE
PL_1001241460413,19.13979892345856,50.730934292205156,PL,PL22,PL224,1001241460413,Poczesna,12707,59.93640165,2020,PL_1001241460413,official,TRUE
PL_1001241460414,19.52051747041824,50.78990563928785,PL,PL22,PL224,1001241460414,Przyrów,3752,80.72808686,2020,PL_1001241460414,official,TRUE
PL_1001241460415,19.22493021665934,50.868551164638006,PL,PL22,PL224,1001241460415,Rędziny,9933,41.22946816,2020,PL_1001241460415,official,TRUE
PL_1001241460416,19.06314182138481,50.66937103033904,PL,PL22,PL224,1001241460416,Starcza,2829,20.11846802,2020,PL_1001241460416,official,TRUE
PL_1001241460601,18.944117480917512,50.90599159159303,PL,PL22,PL224,1001241460601,Kłobuck,20327,130.02535988,2020,PL_1001241460601,official,TRUE
PL_1001241460602,18.717386529267873,50.97075947965422,PL,PL22,PL224,1001241460602,Krzepice,9111,78.95701857,2020,PL_1001241460602,official,TRUE
PL_1001241460603,18.79108541417911,51.022583507502084,PL,PL22,PL224,1001241460603,Lipie,6224,99.04701549,2020,PL_1001241460603,official,TRUE
PL_1001241460604,19.01190010133651,50.97444206233522,PL,PL22,PL224,1001241460604,Miedźno,7548,112.7727117,2020,PL_1001241460604,official,TRUE
PL_1001241460605,18.833646784848266,50.94004932876671,PL,PL22,PL224,1001241460605,Opatów,6818,73.47262433,2020,PL_1001241460605,official,TRUE
PL_1001241460606,18.75176054771394,50.88610936091586,PL,PL22,PL224,1001241460606,Panki,5039,54.93753576,2020,PL_1001241460606,official,TRUE
PL_1001241460607,18.92733565266396,51.03335153738808,PL,PL22,PL224,1001241460607,Popów,5874,102.28248897,2020,PL_1001241460607,official,TRUE
PL_1001241460608,18.685874168880826,50.88169099822971,PL,PL22,PL224,1001241460608,Przystajń,5876,88.78732369,2020,PL_1001241460608,official,TRUE
PL_1001241460609,18.90232779095625,50.842389181088755,PL,PL22,PL224,1001241460609,Wręczyca Wielka,17774,148.29596814,2020,PL_1001241460609,official,TRUE
PL_1001241460901,19.33676058200099,50.574745709294405,PL,PL22,PL224,1001241460901,Myszków,31585,73.59100543,2020,PL_1001241460901,official,TRUE
PL_1001241460902,19.178455513896097,50.58790331965108,PL,PL22,PL224,1001241460902,Koziegłowy,14320,159.6318611,2020,PL_1001241460902,official,TRUE
PL_1001241460903,19.5071993622355,50.65000193035936,PL,PL22,PL224,1001241460903,Niegowa,5608,87.96880505,2020,PL_1001241460903,official,TRUE
PL_1001241460904,19.22747964471746,50.666862288041564,PL,PL22,PL224,1001241460904,Poraj,10914,57.06184264,2020,PL_1001241460904,official,TRUE
PL_1001241460905,19.36176388693443,50.62929132780398,PL,PL22,PL224,1001241460905,Żarki,8453,101.04384053,2020,PL_1001241460905,official,TRUE
PL_1001241466401,19.12720218810076,50.80836916994913,PL,PL22,PL224,1001241466401,Częstochowa,220433,159.73367819,2020,PL_1001241466401,official,TRUE
PL_1001241470501,18.658681766530023,50.22463715094844,PL,PL22,PL229,1001241470501,Knurów,38112,33.86362233,2020,PL_1001241470501,official,TRUE
PL_1001241470502,18.62571448904996,50.40251650214821,PL,PL22,PL229,1001241470502,Pyskowice,18429,31.21081186,2020,PL_1001241470502,official,TRUE
PL_1001241470503,18.74419715951037,50.23047318204469,PL,PL22,PL229,1001241470503,Gierałtowice,12183,38.29992958,2020,PL_1001241470503,official,TRUE
PL_1001241470504,18.582685945198016,50.22065532810383,PL,PL22,PL229,1001241470504,Pilchowice,12013,69.93988788,2020,PL_1001241470504,official,TRUE
PL_1001241470505,18.478931554933588,50.36844152201556,PL,PL22,PL229,1001241470505,Rudziniec,10643,158.82547384,2020,PL_1001241470505,official,TRUE
PL_1001241470506,18.528955388312742,50.27047179369255,PL,PL22,PL229,1001241470506,Sośnicowice,8909,116.57010136,2020,PL_1001241470506,official,TRUE
PL_1001241470507,18.522280874570598,50.45234726066027,PL,PL22,PL229,1001241470507,Toszek,9383,99.87779209,2020,PL_1001241470507,official,TRUE
PL_1001241470508,18.57550241991325,50.50763379277987,PL,PL22,PL229,1001241470508,Wielowieś,5856,116.13671369,2020,PL_1001241470508,official,TRUE
PL_1001241476601,18.673126231457488,50.29583069246947,PL,PL22,PL229,1001241476601,Gliwice,178603,133.86809848,2020,PL_1001241476601,official,TRUE
PL_1001241477801,18.785467912151837,50.3109949881673,PL,PL22,PL229,1001241477801,Zabrze,172360,80.4228132,2020,PL_1001241477801,official,TRUE
PL_1001241486301,18.947884292526293,50.29202488021031,PL,PL22,PL22A,1001241486301,Chorzów,107807,33.31160003,2020,PL_1001241486301,official,TRUE
PL_1001241486901,19.01253606560356,50.2499085896704,PL,PL22,PL22A,1001241486901,Katowice,292774,164.74048205,2020,PL_1001241486901,official,TRUE
PL_1001241487001,19.132769675565324,50.23436747846501,PL,PL22,PL22A,1001241487001,Mysłowice,74618,65.6621198,2020,PL_1001241487001,official,TRUE
PL_1001241487201,18.86985237728227,50.27784377923116,PL,PL22,PL22A,1001241487201,Ruda Śląska,137360,77.63570307,2020,PL_1001241487201,official,TRUE
PL_1001241487401,19.012946835090787,50.306748250429955,PL,PL22,PL22A,1001241487401,Siemianowice Śląskie,66841,25.50794336,2020,PL_1001241487401,official,TRUE
PL_1001241487601,18.915230823265876,50.298220231742796,PL,PL22,PL22A,1001241487601,Świętochłowice,49557,13.30786177,2020,PL_1001241487601,official,TRUE
PL_1001241491101,18.211954179487083,50.0880075509223,PL,PL22,PL227,1001241491101,Racibórz,54739,75.01074165,2020,PL_1001241491101,official,TRUE
PL_1001241491102,18.311714082939943,50.076787073479245,PL,PL22,PL227,1001241491102,Kornowac,5159,26.21683875,2020,PL_1001241491102,official,TRUE
PL_1001241491103,18.138316138086083,50.02258727106997,PL,PL22,PL227,1001241491103,Krzanowice,5742,47.17477428,2020,PL_1001241491103,official,TRUE
PL_1001241491104,18.263776837678332,49.979398284705674,PL,PL22,PL227,1001241491104,Krzyżanowice,11274,69.39387999,2020,PL_1001241491104,official,TRUE
PL_1001241491105,18.326092344234542,50.19959803988067,PL,PL22,PL227,1001241491105,Kuźnia Raciborska,11768,126.62478531,2020,PL_1001241491105,official,TRUE
PL_1001241491106,18.3058492738974,50.155554357227935,PL,PL22,PL227,1001241491106,Nędza,7453,57.18874485,2020,PL_1001241491106,official,TRUE
PL_1001241491107,18.09600781885572,50.0898040978571,PL,PL22,PL227,1001241491107,Pietrowice Wielkie,6883,67.89328558,2020,PL_1001241491107,official,TRUE
PL_1001241491108,18.189981525125297,50.151127342794474,PL,PL22,PL227,1001241491108,Rudnik,5193,73.91096609,2020,PL_1001241491108,official,TRUE
PL_1001241491201,18.651795726258385,50.14424984798585,PL,PL22,PL227,1001241491201,Czerwionka-Leszczyny,42121,114.61804217,2020,PL_1001241491201,official,TRUE
PL_1001241491202,18.428908952086445,50.09953298670012,PL,PL22,PL227,1001241491202,Gaszowice,9798,19.61992458,2020,PL_1001241491202,official,TRUE
PL_1001241491203,18.472779682759096,50.107529294624356,PL,PL22,PL227,1001241491203,Jejkowice,4154,7.63277023,2020,PL_1001241491203,official,TRUE
PL_1001241491204,18.38043908468575,50.12375413435261,PL,PL22,PL227,1001241491204,Lyski,9654,57.64324387,2020,PL_1001241491204,official,TRUE
PL_1001241491205,18.579687183727103,50.03005722930674,PL,PL22,PL227,1001241491205,Świerklany,12486,24.20700088,2020,PL_1001241491205,official,TRUE
PL_1001241491501,18.39866696272478,50.04158915257608,PL,PL22,PL227,1001241491501,Pszów,13844,20.44604785,2020,PL_1001241491501,official,TRUE
PL_1001241491502,18.476585248554805,50.048772554198145,PL,PL22,PL227,1001241491502,Radlin,17759,12.53852765,2020,PL_1001241491502,official,TRUE
PL_1001241491503,18.42263291266727,50.068994384669146,PL,PL22,PL227,1001241491503,Rydułtowy,21514,14.93608237,2020,PL_1001241491503,official,TRUE
PL_1001241491504,18.46224152262029,50.008702923290116,PL,PL22,PL227,1001241491504,Wodzisław Śląski,47813,49.43351654,2020,PL_1001241491504,official,TRUE
PL_1001241491505,18.49052455120485,49.93317342245588,PL,PL22,PL227,1001241491505,Godów,13813,38.03251442,2020,PL_1001241491505,official,TRUE
PL_1001241491506,18.39302315450596,49.9734434203245,PL,PL22,PL227,1001241491506,Gorzyce,21338,64.82709231,2020,PL_1001241491506,official,TRUE
PL_1001241491507,18.31630932003439,50.03012715114846,PL,PL22,PL227,1001241491507,Lubomia,7912,41.94727901,2020,PL_1001241491507,official,TRUE
PL_1001241491508,18.515790558869643,50.02103189588753,PL,PL22,PL227,1001241491508,Marklowice,5405,13.69350628,2020,PL_1001241491508,official,TRUE
PL_1001241491509,18.525666292587033,49.9790493410973,PL,PL22,PL227,1001241491509,Mszana,7690,31.19148528,2020,PL_1001241491509,official,TRUE
PL_1001241496701,18.60014577408153,49.950312556717435,PL,PL22,PL227,1001241496701,Jastrzębie-Zdrój,88743,85.33274805,2020,PL_1001241496701,official,TRUE
PL_1001241497301,18.547150606859468,50.08431734921451,PL,PL22,PL227,1001241497301,Rybnik,138098,148.25485246,2020,PL_1001241497301,official,TRUE
PL_1001241497901,18.687570829595714,50.03402352614141,PL,PL22,PL227,1001241497901,Żory,62472,64.64930386,2020,PL_1001241497901,official,TRUE
PL_1001241500101,19.124107151336403,50.32312467284521,PL,PL22,PL22B,1001241500101,Będzin,56354,37.39220711,2020,PL_1001241500101,official,TRUE
PL_1001241500102,19.08136221724581,50.31369503423168,PL,PL22,PL22B,1001241500102,Czeladź,31405,16.35361167,2020,PL_1001241500102,official,TRUE
PL_1001241500103,19.025129366937822,50.364352932710936,PL,PL22,PL22B,1001241500103,Wojkowice,8942,12.78677386,2020,PL_1001241500103,official,TRUE
PL_1001241500104,19.010414751026314,50.38645790714042,PL,PL22,PL22B,1001241500104,Bobrowniki,12132,51.53217356,2020,PL_1001241500104,official,TRUE
PL_1001241500105,19.138640102030504,50.44338665637555,PL,PL22,PL22B,1001241500105,Mierzęcice,7635,49.47884834,2020,PL_1001241500105,official,TRUE
PL_1001241500106,19.12489687187731,50.3777291226475,PL,PL22,PL22B,1001241500106,Psary,12221,46.13862989,2020,PL_1001241500106,official,TRUE
PL_1001241500107,19.229143323636993,50.471640736644176,PL,PL22,PL22B,1001241500107,Siewierz,12417,113.92974637,2020,PL_1001241500107,official,TRUE
PL_1001241500108,19.381286935166333,50.298532926482665,PL,PL22,PL22B,1001241500108,Sławków,6983,36.66939776,2020,PL_1001241500108,official,TRUE
PL_1001241501601,19.334548286407042,50.48524987077423,PL,PL22,PL22B,1001241501601,Poręba,8480,39.989892,2020,PL_1001241501601,official,TRUE
PL_1001241501602,19.434142741746914,50.49058123166805,PL,PL22,PL22B,1001241501602,Zawiercie,49204,85.27712039,2020,PL_1001241501602,official,TRUE
PL_1001241501603,19.67883601691384,50.63394314160965,PL,PL22,PL22B,1001241501603,Irządze,2601,71.0176454,2020,PL_1001241501603,official,TRUE
PL_1001241501604,19.587456203330724,50.56543047696919,PL,PL22,PL22B,1001241501604,Kroczyce,6306,110.02047771,2020,PL_1001241501604,official,TRUE
PL_1001241501605,19.389264444726273,50.424644919078695,PL,PL22,PL22B,1001241501605,Łazy,15893,132.94229816,2020,PL_1001241501605,official,TRUE
PL_1001241501606,19.525828818718278,50.451908715976565,PL,PL22,PL22B,1001241501606,Ogrodzieniec,9061,84.75007874,2020,PL_1001241501606,official,TRUE
PL_1001241501607,19.671901237283816,50.46967068811806,PL,PL22,PL22B,1001241501607,Pilica,8570,142.78061983,2020,PL_1001241501607,official,TRUE
PL_1001241501608,19.819067369746563,50.626002180843294,PL,PL22,PL22B,1001241501608,Szczekociny,7658,135.29328486,2020,PL_1001241501608,official,TRUE
PL_1001241501609,19.45091832397077,50.54729801342869,PL,PL22,PL22B,1001241501609,Włodowice,5254,76.78692366,2020,PL_1001241501609,official,TRUE
PL_1001241501610,19.84409443663049,50.484834541618405,PL,PL22,PL22B,1001241501610,Żarnowiec,4597,124.80617918,2020,PL_1001241501610,official,TRUE
PL_1001241506501,19.20949384954787,50.3292696872612,PL,PL22,PL22B,1001241506501,Dąbrowa Górnicza,119373,188.72219836,2020,PL_1001241506501,official,TRUE
PL_1001241506801,19.25551898701173,50.21364245551776,PL,PL22,PL22B,1001241506801,Jaworzno,91115,152.41164775,2020,PL_1001241506801,official,TRUE
PL_1001241507501,19.152079998646624,50.28325550891264,PL,PL22,PL22B,1001241507501,Sosnowiec,199974,91.18367618,2020,PL_1001241507501,official,TRUE
PL_1001241510801,18.853151924903212,50.14697067755013,PL,PL22,PL22C,1001241510801,Łaziska Górne,22202,20.10715632,2020,PL_1001241510801,official,TRUE
PL_1001241510802,18.898477240106008,50.17012057723027,PL,PL22,PL22C,1001241510802,Mikołów,41014,79.22843809,2020,PL_1001241510802,official,TRUE
PL_1001241510803,18.774591515674842,50.13621802179906,PL,PL22,PL22C,1001241510803,Orzesze,21189,83.69673894,2020,PL_1001241510803,official,TRUE
PL_1001241510804,18.76678605420194,50.177372235420734,PL,PL22,PL22C,1001241510804,Ornontowice,6176,15.19810038,2020,PL_1001241510804,official,TRUE
PL_1001241510805,18.88814712375062,50.12011485737827,PL,PL22,PL22C,1001241510805,Wyry,8409,34.62444744,2020,PL_1001241510805,official,TRUE
PL_1001241511001,18.962064916486284,49.94486423655815,PL,PL22,PL22C,1001241511001,Goczałkowice-Zdrój,6755,47.55950909,2020,PL_1001241511001,official,TRUE
PL_1001241511002,18.942345221783757,50.0665869106594,PL,PL22,PL22C,1001241511002,Kobiór,4905,48.16263891,2020,PL_1001241511002,official,TRUE
PL_1001241511003,19.105221569813942,50.01025175390685,PL,PL22,PL22C,1001241511003,Miedźna,16590,50.27610521,2020,PL_1001241511003,official,TRUE
PL_1001241511004,18.698856223980094,49.96212780587776,PL,PL22,PL22C,1001241511004,Pawłowice,18172,75.69465688,2020,PL_1001241511004,official,TRUE
PL_1001241511005,18.939565160399493,49.97762086061964,PL,PL22,PL22C,1001241511005,Pszczyna,52770,174.68465002,2020,PL_1001241511005,official,TRUE
PL_1001241511006,18.801329286937765,50.024724356821324,PL,PL22,PL22C,1001241511006,Suszec,12347,75.05038265,2020,PL_1001241511006,official,TRUE
PL_1001241511401,19.133772808580535,50.08498773993451,PL,PL22,PL22C,1001241511401,Bieruń,19507,40.54705558,2020,PL_1001241511401,official,TRUE
PL_1001241511402,19.184957833073806,50.14540520886739,PL,PL22,PL22C,1001241511402,Imielin,9189,28.0092739,2020,PL_1001241511402,official,TRUE
PL_1001241511403,19.12956581614725,50.13706807991083,PL,PL22,PL22C,1001241511403,Lędziny,16798,31.55933183,2020,PL_1001241511403,official,TRUE
PL_1001241511404,19.08703462879558,50.05554702015085,PL,PL22,PL22C,1001241511404,Bojszowy,7924,34.64945435,2020,PL_1001241511404,official,TRUE
PL_1001241511405,19.193308323346677,50.10990452210896,PL,PL22,PL22C,1001241511405,Chełm Śląski,6358,23.3656324,2020,PL_1001241511405,official,TRUE
PL_1001241517701,18.984002996439738,50.11427649865089,PL,PL22,PL22C,1001241517701,Tychy,127590,81.81580646,2020,PL_1001241517701,official,TRUE
PL_1002081130101,14.653237031425093,52.5903751251607,PL,PL43,PL431,1002081130101,Kostrzyn nad Odrą,17730,46.14513068,2020,PL_1002081130101,official,TRUE
PL_1002081130102,15.090252493718243,52.69486944037683,PL,PL43,PL431,1002081130102,Bogdaniec,7104,111.72286349,2020,PL_1002081130102,official,TRUE
PL_1002081130103,15.29221606552003,52.67468773014376,PL,PL43,PL431,1002081130103,Deszczno,9942,168.31623307,2020,PL_1002081130103,official,TRUE
PL_1002081130104,15.253138879375404,52.78945209865231,PL,PL43,PL431,1002081130104,Kłodawa,8677,234.74019378,2020,PL_1002081130104,official,TRUE
PL_1002081130105,15.019979189133304,52.781228531693614,PL,PL43,PL431,1002081130105,Lubiszyn,6878,205.27648941,2020,PL_1002081130105,official,TRUE
PL_1002081130106,15.377660189725102,52.73945823188474,PL,PL43,PL431,1002081130106,Santok,8636,169.4098461,2020,PL_1002081130106,official,TRUE
PL_1002081130107,14.892889256618988,52.6753021646566,PL,PL43,PL431,1002081130107,Witnica,12869,278.66588586,2020,PL_1002081130107,official,TRUE
PL_1002081130301,15.399394943618972,52.502067884414075,PL,PL43,PL431,1002081130301,Bledzew,4344,247.49483995,2020,PL_1002081130301,official,TRUE
PL_1002081130302,15.577056136551443,52.44162402160589,PL,PL43,PL431,1002081130302,Międzyrzecz,24815,315.35625393,2020,PL_1002081130302,official,TRUE
PL_1002081130303,15.674225405597733,52.57622480445415,PL,PL43,PL431,1002081130303,Przytoczna,5627,184.82100395,2020,PL_1002081130303,official,TRUE
PL_1002081130304,15.777494036611293,52.48356873046437,PL,PL43,PL431,1002081130304,Pszczew,4269,177.62671506,2020,PL_1002081130304,official,TRUE
PL_1002081130305,15.501216882264119,52.59570145411917,PL,PL43,PL431,1002081130305,Skwierzyna,12103,284.82564019,2020,PL_1002081130305,official,TRUE
PL_1002081130306,15.83162768252317,52.3536357091009,PL,PL43,PL431,1002081130306,Trzciel,6407,177.51921124,2020,PL_1002081130306,official,TRUE
PL_1002081130501,14.791507992671894,52.188455638982944,PL,PL43,PL431,1002081130501,Cybinka,6469,279.61754886,2020,PL_1002081130501,official,TRUE
PL_1002081130502,14.680733892240049,52.496804074201926,PL,PL43,PL431,1002081130502,Górzyca,4299,145.43287207,2020,PL_1002081130502,official,TRUE
PL_1002081130503,14.884492275563979,52.45394105080914,PL,PL43,PL431,1002081130503,Ośno Lubuskie,6376,197.64087534,2020,PL_1002081130503,official,TRUE
PL_1002081130504,14.82315487899916,52.35071514243718,PL,PL43,PL431,1002081130504,Rzepin,9714,190.99365281,2020,PL_1002081130504,official,TRUE
PL_1002081130505,14.559958250062929,52.34844071717284,PL,PL43,PL431,1002081130505,Słubice,20071,185.57129643,2020,PL_1002081130505,official,TRUE
PL_1002081130601,15.761802932384926,52.97311892752966,PL,PL43,PL431,1002081130601,Dobiegniew,6536,351.26513849,2020,PL_1002081130601,official,TRUE
PL_1002081130602,15.829578288101455,52.837399595395226,PL,PL43,PL431,1002081130602,Drezdenko,17100,399.87295377,2020,PL_1002081130602,official,TRUE
PL_1002081130603,15.676666906422698,52.85413883696583,PL,PL43,PL431,1002081130603,Stare Kurowo,4062,77.56140394,2020,PL_1002081130603,official,TRUE
PL_1002081130604,15.529482365743954,52.88351780416499,PL,PL43,PL431,1002081130604,Strzelce Krajeńskie,16993,318.95191971,2020,PL_1002081130604,official,TRUE
PL_1002081130605,15.554298573175716,52.81661398661595,PL,PL43,PL431,1002081130605,Zwierzyn,4318,100.13074805,2020,PL_1002081130605,official,TRUE
PL_1002081130701,15.02675475985952,52.586012540390186,PL,PL43,PL431,1002081130701,Krzeszyce,4729,194.17059983,2020,PL_1002081130701,official,TRUE
PL_1002081130702,15.238464101679757,52.50306671466935,PL,PL43,PL431,1002081130702,Lubniewice,3158,129.63441013,2020,PL_1002081130702,official,TRUE
PL_1002081130703,14.811519956363425,52.56546543359683,PL,PL43,PL431,1002081130703,Słońsk,4733,158.65399494,2020,PL_1002081130703,official,TRUE
PL_1002081130704,15.120223695856374,52.442880079954335,PL,PL43,PL431,1002081130704,Sulęcin,15745,320.07946076,2020,PL_1002081130704,official,TRUE
PL_1002081130705,15.037405510040998,52.310317565208265,PL,PL43,PL431,1002081130705,Torzym,6828,375.30324867,2020,PL_1002081130705,official,TRUE
PL_1002081136101,15.236302189536529,52.743970725536656,PL,PL43,PL431,1002081136101,Gorzów Wielkopolski,123609,85.72312161,2020,PL_1002081136101,official,TRUE
PL_1002081140201,14.727628196534722,51.95704096005008,PL,PL43,PL432,1002081140201,Gubin,16614,20.68863316,2020,PL_1002081140201,official,TRUE
PL_1002081140202,15.060177432636436,51.965371451345476,PL,PL43,PL432,1002081140202,Bobrowice,3178,185.26255851,2020,PL_1002081140202,official,TRUE
PL_1002081140203,15.149387472313725,52.14012538137034,PL,PL43,PL432,1002081140203,Bytnica,2507,208.72982689,2020,PL_1002081140203,official,TRUE
PL_1002081140204,15.194426899473873,52.00064680631656,PL,PL43,PL432,1002081140204,Dąbie,4923,170.47393863,2020,PL_1002081140204,official,TRUE
PL_1002081140205,14.781180292794287,51.94946851417714,PL,PL43,PL432,1002081140205,Gubin,7138,379.58419457,2020,PL_1002081140205,official,TRUE
PL_1002081140206,15.101117381075605,52.05572135856575,PL,PL43,PL432,1002081140206,Krosno Odrzańskie,17670,211.50476052,2020,PL_1002081140206,official,TRUE
PL_1002081140207,14.91999605628227,52.08834843926756,PL,PL43,PL432,1002081140207,Maszewo,2799,213.93086934,2020,PL_1002081140207,official,TRUE
PL_1002081140401,15.70705802094965,51.80360275868349,PL,PL43,PL432,1002081140401,Nowa Sól,38645,21.81627819,2020,PL_1002081140401,official,TRUE
PL_1002081140402,15.819299732158147,51.730482206802925,PL,PL43,PL432,1002081140402,Bytom Odrzański,5426,52.36965041,2020,PL_1002081140402,official,TRUE
PL_1002081140403,15.933354752193331,51.94611297278776,PL,PL43,PL432,1002081140403,Kolsko,3311,80.72596358,2020,PL_1002081140403,official,TRUE
PL_1002081140404,15.594786084867119,51.74612566493523,PL,PL43,PL432,1002081140404,Kożuchów,15881,179.17840403,2020,PL_1002081140404,official,TRUE
PL_1002081140405,15.755571763602767,51.80694807939145,PL,PL43,PL432,1002081140405,Nowa Sól,6943,175.95407839,2020,PL_1002081140405,official,TRUE
PL_1002081140406,15.7296680882729,51.688725808226515,PL,PL43,PL432,1002081140406,Nowe Miasteczko,5358,76.88127254,2020,PL_1002081140406,official,TRUE
PL_1002081140407,15.704238905273602,51.85006015469505,PL,PL43,PL432,1002081140407,Otyń,7012,91.68267457,2020,PL_1002081140407,official,TRUE
PL_1002081140408,15.83240141887973,51.767594246944974,PL,PL43,PL432,1002081140408,Siedlisko,3580,92.17019859,2020,PL_1002081140408,official,TRUE
PL_1002081140801,15.425903758549897,52.30680465075091,PL,PL43,PL432,1002081140801,Lubrza,3567,122.21830508,2020,PL_1002081140801,official,TRUE
PL_1002081140802,15.296934545487892,52.31363659517463,PL,PL43,PL432,1002081140802,Łagów,4947,199.12286742,2020,PL_1002081140802,official,TRUE
PL_1002081140803,15.434539122459356,52.161890464454,PL,PL43,PL432,1002081140803,Skąpe,5103,181.42089615,2020,PL_1002081140803,official,TRUE
PL_1002081140804,15.679609709984716,52.257753580749736,PL,PL43,PL432,1002081140804,Szczaniec,3836,113.32351238,2020,PL_1002081140804,official,TRUE
PL_1002081140805,15.529354148229528,52.24779302258522,PL,PL43,PL432,1002081140805,Świebodzin,29984,226.45841273,2020,PL_1002081140805,official,TRUE
PL_1002081140806,15.812610779335992,52.24886770997506,PL,PL43,PL432,1002081140806,Zbąszynek,8353,94.07373726,2020,PL_1002081140806,official,TRUE
PL_1002081140901,15.827579632909803,52.16568590466105,PL,PL43,PL432,1002081140901,Babimost,6226,92.77884925,2020,PL_1002081140901,official,TRUE
PL_1002081140902,15.798353186438758,51.96745387940984,PL,PL43,PL432,1002081140902,Bojadła,3277,102.27090945,2020,PL_1002081140902,official,TRUE
PL_1002081140903,15.400690985976563,52.01210504782441,PL,PL43,PL432,1002081140903,Czerwieńsk,9979,195.48499605,2020,PL_1002081140903,official,TRUE
PL_1002081140904,15.858187121077728,52.07121594060733,PL,PL43,PL432,1002081140904,Kargowa,5821,128.52205558,2020,PL_1002081140904,official,TRUE
PL_1002081140905,15.242637541599137,51.800259562542614,PL,PL43,PL432,1002081140905,Nowogród Bobrzański,9441,259.65635485,2020,PL_1002081140905,official,TRUE
PL_1002081140906,15.615132206508115,52.07849837514324,PL,PL43,PL432,1002081140906,Sulechów,26521,236.69383111,2020,PL_1002081140906,official,TRUE
PL_1002081140907,15.384332677292992,51.90241783287416,PL,PL43,PL432,1002081140907,Świdnica,6602,160.891574,2020,PL_1002081140907,official,TRUE
PL_1002081140908,15.73105990390003,52.01650712764603,PL,PL43,PL432,1002081140908,Trzebiechów,3371,80.9634338,2020,PL_1002081140908,official,TRUE
PL_1002081140909,15.690430738655028,51.94528461057853,PL,PL43,PL432,1002081140909,Zabór,4321,93.37029546,2020,PL_1002081140909,official,TRUE
PL_1002081141001,15.09325376438697,51.43630439834007,PL,PL43,PL432,1002081141001,Gozdnica,3000,23.93206252,2020,PL_1002081141001,official,TRUE
PL_1002081141002,15.31447857392355,51.615858159721306,PL,PL43,PL432,1002081141002,Żagań,25668,40.3785092,2020,PL_1002081141002,official,TRUE
PL_1002081141003,15.418888369452867,51.70687325738389,PL,PL43,PL432,1002081141003,Brzeźnica,3733,122.19153007,2020,PL_1002081141003,official,TRUE
PL_1002081141004,15.195548544346261,51.50516907440171,PL,PL43,PL432,1002081141004,Iłowa,6842,153.05885835,2020,PL_1002081141004,official,TRUE
PL_1002081141005,15.448816934243375,51.555372812362776,PL,PL43,PL432,1002081141005,Małomice,5174,79.59486478,2020,PL_1002081141005,official,TRUE
PL_1002081141006,15.72617204590027,51.605746509866634,PL,PL43,PL432,1002081141006,Niegosławice,4357,136.3580868,2020,PL_1002081141006,official,TRUE
PL_1002081141007,15.543812022352414,51.561942598011065,PL,PL43,PL432,1002081141007,Szprotawa,20610,232.32833647,2020,PL_1002081141007,official,TRUE
PL_1002081141008,15.08623671367838,51.512823143628815,PL,PL43,PL432,1002081141008,Wymiarki,2263,63.08723801,2020,PL_1002081141008,official,TRUE
PL_1002081141009,15.390476554791391,51.62307142527718,PL,PL43,PL432,1002081141009,Żagań,7306,280.64293941,2020,PL_1002081141009,official,TRUE
PL_1002081141101,14.738550499466196,51.5396056187168,PL,PL43,PL432,1002081141101,Łęknica,2459,16.43249633,2020,PL_1002081141101,official,TRUE
PL_1002081141102,15.130984380349476,51.63633649150379,PL,PL43,PL432,1002081141102,Żary,37304,33.24215019,2020,PL_1002081141102,official,TRUE
PL_1002081141103,14.704567418732545,51.76229672878728,PL,PL43,PL432,1002081141103,Brody,3404,240.15594982,2020,PL_1002081141103,official,TRUE
PL_1002081141104,15.015421364621407,51.753930345475,PL,PL43,PL432,1002081141104,Jasień,6991,126.8670904,2020,PL_1002081141104,official,TRUE
PL_1002081141105,14.994442123193565,51.6392394751125,PL,PL43,PL432,1002081141105,Lipinki Łużyckie,3375,88.63177566,2020,PL_1002081141105,official,TRUE
PL_1002081141106,14.967537669302956,51.78574538524017,PL,PL43,PL432,1002081141106,Lubsko,18404,182.96778896,2020,PL_1002081141106,official,TRUE
PL_1002081141107,14.957291239656819,51.48622339510526,PL,PL43,PL432,1002081141107,Przewóz,3132,178.26088257,2020,PL_1002081141107,official,TRUE
PL_1002081141108,14.815362421613004,51.612185984679975,PL,PL43,PL432,1002081141108,Trzebiel,5668,166.48967992,2020,PL_1002081141108,official,TRUE
PL_1002081141109,14.839284388645192,51.67746572960654,PL,PL43,PL432,1002081141109,Tuplice,3042,65.85470722,2020,PL_1002081141109,official,TRUE
PL_1002081141110,15.14739731712218,51.65120799919086,PL,PL43,PL432,1002081141110,Żary,12332,293.91432538,2020,PL_1002081141110,official,TRUE
PL_1002081141201,16.074111495894734,51.882567771316296,PL,PL43,PL432,1002081141201,Sława,12682,327.09114615,2020,PL_1002081141201,official,TRUE
PL_1002081141202,16.243192844964582,51.7262858634975,PL,PL43,PL432,1002081141202,Szlichtyngowa,5015,99.75577251,2020,PL_1002081141202,official,TRUE
PL_1002081141203,16.312235847388227,51.8080608717569,PL,PL43,PL432,1002081141203,Wschowa,21134,197.46471073,2020,PL_1002081141203,official,TRUE
PL_1002081146201,15.501190308283842,51.93619584919971,PL,PL43,PL432,1002081146201,Zielona Góra,141222,278.3177524,2020,PL_1002081146201,official,TRUE
PL_1002301570601,17.334428063382664,51.954973946250334,PL,PL41,PL416,1002301570601,Jaraczewo,8142,133.11341601,2020,PL_1002301570601,official,TRUE
PL_1002301570602,17.504431236293712,51.96600397364483,PL,PL41,PL416,1002301570602,Jarocin,45731,200.12054676,2020,PL_1002301570602,official,TRUE
PL_1002301570603,17.647139789680672,51.922485782506136,PL,PL41,PL416,1002301570603,Kotlin,7442,83.92688939,2020,PL_1002301570603,official,TRUE
PL_1002301570604,17.576347005529424,52.07049196177109,PL,PL41,PL416,1002301570604,Żerków,10248,171.32667483,2020,PL_1002301570604,official,TRUE
PL_1002301570701,18.030763319783574,51.85793727004494,PL,PL41,PL416,1002301570701,Blizanów,9940,157.51425774,2020,PL_1002301570701,official,TRUE
PL_1002301570702,18.256784920949944,51.59719366325691,PL,PL41,PL416,1002301570702,Brzeziny,5817,126.9647339,2020,PL_1002301570702,official,TRUE
PL_1002301570703,18.265554634013686,51.85691361494264,PL,PL41,PL416,1002301570703,Ceków-Kolonia,4746,88.29169769,2020,PL_1002301570703,official,TRUE
PL_1002301570704,18.141966399176916,51.64370009297073,PL,PL41,PL416,1002301570704,Godziesze Wielkie,9591,105.34652932,2020,PL_1002301570704,official,TRUE
PL_1002301570705,18.33295868015884,51.79570900947334,PL,PL41,PL416,1002301570705,Koźminek,7547,88.48021326,2020,PL_1002301570705,official,TRUE
PL_1002301570706,18.393499797079727,51.84103922813024,PL,PL41,PL416,1002301570706,Lisków,5213,75.74029326,2020,PL_1002301570706,official,TRUE
PL_1002301570707,18.223709714462363,51.95174819992308,PL,PL41,PL416,1002301570707,Mycielin,4873,110.89303606,2020,PL_1002301570707,official,TRUE
PL_1002301570708,18.208402713053786,51.73926867668141,PL,PL41,PL416,1002301570708,Opatówek,10808,104.30090212,2020,PL_1002301570708,official,TRUE
PL_1002301570709,18.12397002875533,51.930999590231444,PL,PL41,PL416,1002301570709,Stawiszyn,7133,78.19515425,2020,PL_1002301570709,official,TRUE
PL_1002301570710,18.336572457566632,51.69307901297519,PL,PL41,PL416,1002301570710,Szczytniki,7812,110.70122362,2020,PL_1002301570710,official,TRUE
PL_1002301570711,18.148159692518593,51.82286710984616,PL,PL41,PL416,1002301570711,Żelazków,9546,113.6530476,2020,PL_1002301570711,official,TRUE
PL_1002301570801,18.01424497963284,51.25571347480491,PL,PL41,PL416,1002301570801,Baranów,7987,74.41240109,2020,PL_1002301570801,official,TRUE
PL_1002301570802,17.90386075228854,51.28214970558856,PL,PL41,PL416,1002301570802,Bralin,6100,85.35531911,2020,PL_1002301570802,official,TRUE
PL_1002301570803,17.99102902661036,51.28504851428904,PL,PL41,PL416,1002301570803,Kępno,24482,123.85784884,2020,PL_1002301570803,official,TRUE
PL_1002301570804,18.12325591932481,51.21437139797129,PL,PL41,PL416,1002301570804,Łęka Opatowska,5356,77.68766157,2020,PL_1002301570804,official,TRUE
PL_1002301570805,17.809022462086734,51.26643411268127,PL,PL41,PL416,1002301570805,Perzów,3777,75.34274391,2020,PL_1002301570805,official,TRUE
PL_1002301570806,17.86906408257605,51.14505280941298,PL,PL41,PL416,1002301570806,Rychtal,3804,96.61359246,2020,PL_1002301570806,official,TRUE
PL_1002301570807,18.01419845553913,51.17953520711636,PL,PL41,PL416,1002301570807,Trzcinica,4945,75.04187684,2020,PL_1002301570807,official,TRUE
PL_1002301571201,17.524511498992403,51.60761167052269,PL,PL41,PL416,1002301571201,Sulmierzyce,2851,29.20464681,2020,PL_1002301571201,official,TRUE
PL_1002301571202,17.225726846728183,51.72240441108443,PL,PL41,PL416,1002301571202,Kobylin,8090,112.11539495,2020,PL_1002301571202,official,TRUE
PL_1002301571203,17.44819699742948,51.83047137412274,PL,PL41,PL416,1002301571203,Koźmin Wielkopolski,13211,152.40587942,2020,PL_1002301571203,official,TRUE
PL_1002301571204,17.435951472660165,51.69882510080589,PL,PL41,PL416,1002301571204,Krotoszyn,40341,255.79757548,2020,PL_1002301571204,official,TRUE
PL_1002301571205,17.508456057792436,51.784789949407845,PL,PL41,PL416,1002301571205,Rozdrażew,5204,79.04830666,2020,PL_1002301571205,official,TRUE
PL_1002301571206,17.368842325157186,51.65052330189326,PL,PL41,PL416,1002301571206,Zduny,7577,84.98148042,2020,PL_1002301571206,official,TRUE
PL_1002301571701,17.815521416443044,51.64710401517245,PL,PL41,PL416,1002301571701,Ostrów Wielkopolski,71931,41.9159131,2020,PL_1002301571701,official,TRUE
PL_1002301571702,17.991216698559317,51.707994516542286,PL,PL41,PL416,1002301571702,Nowe Skalmierzyce,15563,125.39775487,2020,PL_1002301571702,official,TRUE
PL_1002301571703,17.66303104480782,51.57771946850673,PL,PL41,PL416,1002301571703,Odolanów,14655,136.10609854,2020,PL_1002301571703,official,TRUE
PL_1002301571704,17.875392258051136,51.65107608006297,PL,PL41,PL416,1002301571704,Ostrów Wielkopolski,19147,207.80163197,2020,PL_1002301571704,official,TRUE
PL_1002301571705,17.81154439951602,51.58562362702629,PL,PL41,PL416,1002301571705,Przygodzice,12179,163.35892732,2020,PL_1002301571705,official,TRUE
PL_1002301571706,17.726023093027685,51.72115805529378,PL,PL41,PL416,1002301571706,Raszków,11849,134.57684579,2020,PL_1002301571706,official,TRUE
PL_1002301571707,18.011173429686753,51.62425316559234,PL,PL41,PL416,1002301571707,Sieroszewice,9684,163.18996774,2020,PL_1002301571707,official,TRUE
PL_1002301571708,17.62670795270375,51.47202712369555,PL,PL41,PL416,1002301571708,Sośnie,6573,187.73786753,2020,PL_1002301571708,official,TRUE
PL_1002301571801,18.327132700970704,51.48987269607168,PL,PL41,PL416,1002301571801,Czajków,2490,70.7975948,2020,PL_1002301571801,official,TRUE
PL_1002301571802,18.077834825725102,51.41866801125611,PL,PL41,PL416,1002301571802,Doruchów,5383,99.51543978,2020,PL_1002301571802,official,TRUE
PL_1002301571803,18.108890579907992,51.49906353726269,PL,PL41,PL416,1002301571803,Grabów nad Prosną,7817,123.77635782,2020,PL_1002301571803,official,TRUE
PL_1002301571804,17.833187282356164,51.377627393500255,PL,PL41,PL416,1002301571804,Kobyla Góra,6139,129.27769079,2020,PL_1002301571804,official,TRUE
PL_1002301571805,18.2310107057231,51.51306228994199,PL,PL41,PL416,1002301571805,Kraszewice,3621,74.91573245,2020,PL_1002301571805,official,TRUE
PL_1002301571806,17.989229692547784,51.53531071542771,PL,PL41,PL416,1002301571806,Mikstat,6046,87.19200222,2020,PL_1002301571806,official,TRUE
PL_1002301571807,17.92309793793761,51.427366991456786,PL,PL41,PL416,1002301571807,Ostrzeszów,24004,187.37442791,2020,PL_1002301571807,official,TRUE
PL_1002301572001,17.871601588932148,51.9765371242205,PL,PL41,PL416,1002301572001,Chocz,4753,73.64633158,2020,PL_1002301572001,official,TRUE
PL_1002301572002,17.764564678514013,51.973460847916435,PL,PL41,PL416,1002301572002,Czermin,4947,98.08421427,2020,PL_1002301572002,official,TRUE
PL_1002301572003,17.611592221420853,51.85935361744513,PL,PL41,PL416,1002301572003,Dobrzyca,8128,116.85886772,2020,PL_1002301572003,official,TRUE
PL_1002301572004,17.772797628052142,52.050446501949146,PL,PL41,PL416,1002301572004,Gizałki,4602,108.41515734,2020,PL_1002301572004,official,TRUE
PL_1002301572005,17.951389617174875,51.824822023001175,PL,PL41,PL416,1002301572005,Gołuchów,10777,135.88987269,2020,PL_1002301572005,official,TRUE
PL_1002301572006,17.780855562171187,51.8904028436562,PL,PL41,PL416,1002301572006,Pleszew,29807,180.31728977,2020,PL_1002301572006,official,TRUE
PL_1002301576101,18.07553638007946,51.754615736480474,PL,PL41,PL416,1002301576101,Kalisz,100246,69.36659881,2020,PL_1002301576101,official,TRUE
PL_1002301580301,17.603272819176873,52.539053699745885,PL,PL41,PL414,1002301580301,Gniezno,68217,40.59501902,2020,PL_1002301580301,official,TRUE
PL_1002301580302,17.531504292595923,52.439593781101735,PL,PL41,PL414,1002301580302,Czerniejewo,7405,111.93921703,2020,PL_1002301580302,official,TRUE
PL_1002301580303,17.601167223840086,52.56532208688281,PL,PL41,PL414,1002301580303,Gniezno,12268,178.14922318,2020,PL_1002301580303,official,TRUE
PL_1002301580304,17.281631480842567,52.59313060894236,PL,PL41,PL414,1002301580304,Kiszkowo,5443,114.49537764,2020,PL_1002301580304,official,TRUE
PL_1002301580305,17.435577365255877,52.62134940650159,PL,PL41,PL414,1002301580305,Kłecko,7452,131.92186768,2020,PL_1002301580305,official,TRUE
PL_1002301580306,17.431831040335314,52.506797429402475,PL,PL41,PL414,1002301580306,Łubowo,6743,113.53550119,2020,PL_1002301580306,official,TRUE
PL_1002301580307,17.526310166654444,52.66665369584212,PL,PL41,PL414,1002301580307,Mieleszyn,4038,98.92698837,2020,PL_1002301580307,official,TRUE
PL_1002301580308,17.65897050641918,52.46279104278831,PL,PL41,PL414,1002301580308,Niechanowo,5965,105.57382729,2020,PL_1002301580308,official,TRUE
PL_1002301580309,17.825259877761045,52.56334210926941,PL,PL41,PL414,1002301580309,Trzemeszno,14294,175.22899276,2020,PL_1002301580309,official,TRUE
PL_1002301580310,17.766357314941285,52.4378299456219,PL,PL41,PL414,1002301580310,Witkowo,13593,184.59306347,2020,PL_1002301580310,official,TRUE
PL_1002301580901,18.635134137454934,52.20189508645007,PL,PL41,PL414,1002301580901,Koło,21686,13.86101023,2020,PL_1002301580901,official,TRUE
PL_1002301580902,18.678201234349775,52.34634596629758,PL,PL41,PL414,1002301580902,Babiak,7831,133.76804347,2020,PL_1002301580902,official,TRUE
PL_1002301580903,19.014521727606663,52.248668878964196,PL,PL41,PL414,1002301580903,Chodów,3005,77.79398467,2020,PL_1002301580903,official,TRUE
PL_1002301580904,18.817258172384797,52.099502661199274,PL,PL41,PL414,1002301580904,Dąbie,6284,130.31556813,2020,PL_1002301580904,official,TRUE
PL_1002301580905,18.744060118065338,52.20848435999289,PL,PL41,PL414,1002301580905,Grzegorzew,5693,73.32189152,2020,PL_1002301580905,official,TRUE
PL_1002301580906,18.910958186600006,52.25085221610143,PL,PL41,PL414,1002301580906,Kłodawa,12801,128.90912068,2020,PL_1002301580906,official,TRUE
PL_1002301580907,18.65893522960259,52.21018317055823,PL,PL41,PL414,1002301580907,Koło,7795,102.57872936,2020,PL_1002301580907,official,TRUE
PL_1002301580908,18.59095031325511,52.170267285792065,PL,PL41,PL414,1002301580908,Kościelec,6855,104.65024941,2020,PL_1002301580908,official,TRUE
PL_1002301580909,18.871601867666424,52.18574115074762,PL,PL41,PL414,1002301580909,Olszówka,4502,81.70310668,2020,PL_1002301580909,official,TRUE
PL_1002301580910,18.594466193229362,52.26498999641296,PL,PL41,PL414,1002301580910,Osiek Mały,6155,87.32247518,2020,PL_1002301580910,official,TRUE
PL_1002301580911,18.901242902599385,52.3363542238678,PL,PL41,PL414,1002301580911,Przedecz,4120,76.44841448,2020,PL_1002301580911,official,TRUE
PL_1002301581001,18.102923080219686,52.24413565173842,PL,PL41,PL414,1002301581001,Golina,12079,98.98883146,2020,PL_1002301581001,official,TRUE
PL_1002301581002,18.041009525943625,52.04886387919549,PL,PL41,PL414,1002301581002,Grodziec,5160,117.82116424,2020,PL_1002301581002,official,TRUE
PL_1002301581003,18.17280663512756,52.30072277515006,PL,PL41,PL414,1002301581003,Kazimierz Biskupi,11487,107.61645619,2020,PL_1002301581003,official,TRUE
PL_1002301581004,18.175485659747924,52.37105373655713,PL,PL41,PL414,1002301581004,Kleczew,9947,110.29181204,2020,PL_1002301581004,official,TRUE
PL_1002301581005,18.39033844827157,52.252349486550266,PL,PL41,PL414,1002301581005,Kramsk,11250,132.03697124,2020,PL_1002301581005,official,TRUE
PL_1002301581006,18.342036349196974,52.19259917518636,PL,PL41,PL414,1002301581006,Krzymów,8112,92.51527743,2020,PL_1002301581006,official,TRUE
PL_1002301581007,18.159478242222654,52.07049960939422,PL,PL41,PL414,1002301581007,Rychwał,8249,117.85201742,2020,PL_1002301581007,official,TRUE
PL_1002301581008,18.104164205298577,52.17722760373777,PL,PL41,PL414,1002301581008,Rzgów,7275,104.68765886,2020,PL_1002301581008,official,TRUE
PL_1002301581009,18.333952983276802,52.475764402517264,PL,PL41,PL414,1002301581009,Skulsk,6122,84.87537488,2020,PL_1002301581009,official,TRUE
PL_1002301581010,18.506262631623834,52.382500879964134,PL,PL41,PL414,1002301581010,Sompolno,10380,137.42521575,2020,PL_1002301581010,official,TRUE
PL_1002301581011,18.227174458264543,52.16844391731169,PL,PL41,PL414,1002301581011,Stare Miasto,12436,97.91059495,2020,PL_1002301581011,official,TRUE
PL_1002301581012,18.313159512891364,52.362389801641676,PL,PL41,PL414,1002301581012,Ślesin,14067,145.64161786,2020,PL_1002301581012,official,TRUE
PL_1002301581013,18.495501761861608,52.43751266554524,PL,PL41,PL414,1002301581013,Wierzbinek,7287,147.52832879,2020,PL_1002301581013,official,TRUE
PL_1002301581014,18.17850270726563,52.46932614425788,PL,PL41,PL414,1002301581014,Wilczyn,6202,83.1542708,2020,PL_1002301581014,official,TRUE
PL_1002301582301,17.869163551906258,52.29227538262465,PL,PL41,PL414,1002301582301,Słupca,13658,10.32722758,2020,PL_1002301582301,official,TRUE
PL_1002301582302,17.896081405757275,52.21035740281923,PL,PL41,PL414,1002301582302,Lądek,5740,98.56896654,2020,PL_1002301582302,official,TRUE
PL_1002301582303,18.020689967269327,52.50894465685503,PL,PL41,PL414,1002301582303,Orchowo,3795,98.00696236,2020,PL_1002301582303,official,TRUE
PL_1002301582304,18.01738920539327,52.37728677787113,PL,PL41,PL414,1002301582304,Ostrowite,5077,103.54956078,2020,PL_1002301582304,official,TRUE
PL_1002301582305,17.8730869369461,52.3937993742351,PL,PL41,PL414,1002301582305,Powidz,2320,80.68516385,2020,PL_1002301582305,official,TRUE
PL_1002301582306,17.939054253708516,52.27694294989382,PL,PL41,PL414,1002301582306,Słupca,9263,144.80287201,2020,PL_1002301582306,official,TRUE
PL_1002301582307,17.81768208696362,52.31267594073533,PL,PL41,PL414,1002301582307,Strzałkowo,10279,142.33479266,2020,PL_1002301582307,official,TRUE
PL_1002301582308,17.902294387863424,52.1619440376528,PL,PL41,PL414,1002301582308,Zagórów,8945,159.7079569,2020,PL_1002301582308,official,TRUE
PL_1002301582701,18.50978031663716,52.01359032855321,PL,PL41,PL414,1002301582701,Turek,26833,16.16219374,2020,PL_1002301582701,official,TRUE
PL_1002301582702,18.599247066274867,52.09336250715506,PL,PL41,PL414,1002301582702,Brudzew,5966,112.65331863,2020,PL_1002301582702,official,TRUE
PL_1002301582703,18.625287724255458,51.909825223956304,PL,PL41,PL414,1002301582703,Dobra,6134,131.95497697,2020,PL_1002301582703,official,TRUE
PL_1002301582704,18.52042861890852,51.91099648425985,PL,PL41,PL414,1002301582704,Kawęczyn,5195,101.05169517,2020,PL_1002301582704,official,TRUE
PL_1002301582705,18.392157124106983,51.9560542656474,PL,PL41,PL414,1002301582705,Malanów,6585,107.22824487,2020,PL_1002301582705,official,TRUE
PL_1002301582706,18.613864581161277,51.98332249150817,PL,PL41,PL414,1002301582706,Przykona,4589,111.11380581,2020,PL_1002301582706,official,TRUE
PL_1002301582707,18.302612041030727,52.07044155238403,PL,PL41,PL414,1002301582707,Tuliszków,10537,149.6392298,2020,PL_1002301582707,official,TRUE
PL_1002301582708,18.48431323694038,52.00337274836385,PL,PL41,PL414,1002301582708,Turek,9970,109.25632237,2020,PL_1002301582708,official,TRUE
PL_1002301582709,18.455052502203934,52.11206377049032,PL,PL41,PL414,1002301582709,Władysławów,8085,90.71045601,2020,PL_1002301582709,official,TRUE
PL_1002301583001,17.65842788815501,52.23691935505998,PL,PL41,PL414,1002301583001,Kołaczkowo,6025,115.91208482,2020,PL_1002301583001,official,TRUE
PL_1002301583002,17.484695456697203,52.18318977018624,PL,PL41,PL414,1002301583002,Miłosław,10202,132.11272122,2020,PL_1002301583002,official,TRUE
PL_1002301583003,17.411324286182712,52.36063947612827,PL,PL41,PL414,1002301583003,Nekla,7571,95.86376425,2020,PL_1002301583003,official,TRUE
PL_1002301583004,17.684903564633423,52.167844133954176,PL,PL41,PL414,1002301583004,Pyzdry,6937,137.75644486,2020,PL_1002301583004,official,TRUE
PL_1002301583005,17.571230527470213,52.32458945984648,PL,PL41,PL414,1002301583005,Września,47259,221.84731074,2020,PL_1002301583005,official,TRUE
PL_1002301586201,18.258245536035695,52.22868660120405,PL,PL41,PL414,1002301586201,Konin,73522,82.17215251,2020,PL_1002301586201,official,TRUE
PL_1002301590401,17.239177398011204,51.91386151956908,PL,PL41,PL417,1002301590401,Borek Wielkopolski,7473,127.6461599,2020,PL_1002301590401,official,TRUE
PL_1002301590402,17.003734583101785,51.87941566202369,PL,PL41,PL417,1002301590402,Gostyń,28192,137.28123561,2020,PL_1002301590402,official,TRUE
PL_1002301590403,16.9773983470984,51.76931899629438,PL,PL41,PL417,1002301590403,Krobia,12994,129.51281264,2020,PL_1002301590403,official,TRUE
PL_1002301590404,17.11744660958255,51.755997927492956,PL,PL41,PL417,1002301590404,Pępowo,5948,86.58592957,2020,PL_1002301590404,official,TRUE
PL_1002301590405,17.081381824216532,51.87789345518498,PL,PL41,PL417,1002301590405,Piaski,8630,100.73027249,2020,PL_1002301590405,official,TRUE
PL_1002301590406,17.243335289509407,51.815188337492586,PL,PL41,PL417,1002301590406,Pogorzela,4937,96.53866297,2020,PL_1002301590406,official,TRUE
PL_1002301590407,16.825544603447252,51.76899916570675,PL,PL41,PL417,1002301590407,Poniec,7734,132.02312659,2020,PL_1002301590407,official,TRUE
PL_1002301590501,16.530375544453054,52.221236484343464,PL,PL41,PL417,1002301590501,Granowo,5068,68.39906248,2020,PL_1002301590501,official,TRUE
PL_1002301590502,16.359154081658744,52.23299845239882,PL,PL41,PL417,1002301590502,Grodzisk Wielkopolski,20064,134.6773613,2020,PL_1002301590502,official,TRUE
PL_1002301590503,16.474829472148592,52.15958693545292,PL,PL41,PL417,1002301590503,Kamieniec,6673,132.22456657,2020,PL_1002301590503,official,TRUE
PL_1002301590504,16.255318481688732,52.1432791929576,PL,PL41,PL417,1002301590504,Rakoniewice,13178,200.96997262,2020,PL_1002301590504,official,TRUE
PL_1002301590505,16.3702249506546,52.111632248425465,PL,PL41,PL417,1002301590505,Wielichowo,6910,107.63509334,2020,PL_1002301590505,official,TRUE
PL_1002301591101,16.637289866556248,52.08353221903587,PL,PL41,PL417,1002301591101,Kościan,23876,9.00945392,2020,PL_1002301591101,official,TRUE
PL_1002301591102,16.759022149107874,52.14192062816346,PL,PL41,PL417,1002301591102,Czempiń,11513,142.20237965,2020,PL_1002301591102,official,TRUE
PL_1002301591103,16.674159221200924,52.08227105371312,PL,PL41,PL417,1002301591103,Kościan,16144,202.44741759,2020,PL_1002301591103,official,TRUE
PL_1002301591104,16.855954859513627,51.979993214604406,PL,PL41,PL417,1002301591104,Krzywiń,10043,179.00803795,2020,PL_1002301591104,official,TRUE
PL_1002301591105,16.53437959477924,52.01104390751395,PL,PL41,PL417,1002301591105,Śmigiel,17607,189.73517118,2020,PL_1002301591105,official,TRUE
PL_1002301591301,16.802858653601355,51.85312523771892,PL,PL41,PL417,1002301591301,Krzemieniewo,8301,113.17236815,2020,PL_1002301591301,official,TRUE
PL_1002301591302,16.552741086410123,51.90600548163155,PL,PL41,PL417,1002301591302,Lipno,8382,103.86191426,2020,PL_1002301591302,official,TRUE
PL_1002301591303,16.6911436613294,51.89673774435582,PL,PL41,PL417,1002301591303,Osieczna,9269,128.64533858,2020,PL_1002301591303,official,TRUE
PL_1002301591304,16.661425146120447,51.79328384463762,PL,PL41,PL417,1002301591304,Rydzyna,9636,135.62982784,2020,PL_1002301591304,official,TRUE
PL_1002301591305,16.489841381139435,51.84607111319043,PL,PL41,PL417,1002301591305,Święciechowa,8108,134.9738477,2020,PL_1002301591305,official,TRUE
PL_1002301591306,16.201375370479052,51.920251635809976,PL,PL41,PL417,1002301591306,Wijewo,3836,61.81125047,2020,PL_1002301591306,official,TRUE
PL_1002301591307,16.381542510516798,51.933887577322764,PL,PL41,PL417,1002301591307,Włoszakowice,9669,127.73463219,2020,PL_1002301591307,official,TRUE
PL_1002301591401,16.219812208315382,52.62402336834032,PL,PL41,PL417,1002301591401,Chrzypsko Wielkie,3306,84.52234813,2020,PL_1002301591401,official,TRUE
PL_1002301591402,16.096441190949484,52.548245648113344,PL,PL41,PL417,1002301591402,Kwilcz,6341,141.77507282,2020,PL_1002301591402,official,TRUE
PL_1002301591403,15.895396195696012,52.598920743796256,PL,PL41,PL417,1002301591403,Międzychód,18391,307.06347823,2020,PL_1002301591403,official,TRUE
PL_1002301591404,16.082630779420615,52.649587272551734,PL,PL41,PL417,1002301591404,Sieraków,8713,203.07908521,2020,PL_1002301591404,official,TRUE
PL_1002301591501,16.321676247536736,52.376507285705394,PL,PL41,PL417,1002301591501,Kuślin,5523,106.46467112,2020,PL_1002301591501,official,TRUE
PL_1002301591502,16.19389335500226,52.445307982630936,PL,PL41,PL417,1002301591502,Lwówek,9089,183.53838923,2020,PL_1002301591502,official,TRUE
PL_1002301591503,16.105997145492545,52.39399300297481,PL,PL41,PL417,1002301591503,Miedzichowo,3695,208.29570289,2020,PL_1002301591503,official,TRUE
PL_1002301591504,16.128061000662598,52.31704138347921,PL,PL41,PL417,1002301591504,Nowy Tomyśl,27045,186.44286724,2020,PL_1002301591504,official,TRUE
PL_1002301591505,16.413758522851772,52.308764602369514,PL,PL41,PL417,1002301591505,Opalenica,16397,146.84736637,2020,PL_1002301591505,official,TRUE
PL_1002301591506,15.921288350552212,52.25345265713448,PL,PL41,PL417,1002301591506,Zbąszyń,13794,179.99864385,2020,PL_1002301591506,official,TRUE
PL_1002301592201,16.74998426416069,51.705459623526686,PL,PL41,PL417,1002301592201,Bojanowo,8739,123.43347886,2020,PL_1002301592201,official,TRUE
PL_1002301592202,17.163864650128147,51.638877266341815,PL,PL41,PL417,1002301592202,Jutrosin,7053,114.85650663,2020,PL_1002301592202,official,TRUE
PL_1002301592203,16.972924415857076,51.659338264959736,PL,PL41,PL417,1002301592203,Miejska Górka,9249,103.46699699,2020,PL_1002301592203,official,TRUE
PL_1002301592204,17.04482114623963,51.61110030880289,PL,PL41,PL417,1002301592204,Pakosław,4918,77.51044828,2020,PL_1002301592204,official,TRUE
PL_1002301592205,16.861579973636832,51.61002530205423,PL,PL41,PL417,1002301592205,Rawicz,30303,134.16099549,2020,PL_1002301592205,official,TRUE
PL_1002301592901,16.260225183862506,52.00065320301909,PL,PL41,PL417,1002301592901,Przemęt,14173,225.14191393,2020,PL_1002301592901,official,TRUE
PL_1002301592902,15.988768886029783,52.14857223318893,PL,PL41,PL417,1002301592902,Siedlec,12734,204.61938566,2020,PL_1002301592902,official,TRUE
PL_1002301592903,16.116765598753013,52.10734592304212,PL,PL41,PL417,1002301592903,Wolsztyn,30539,249.87399154,2020,PL_1002301592903,official,TRUE
PL_1002301596301,16.58451870916406,51.84316759542954,PL,PL41,PL417,1002301596301,Leszno,63505,31.85331023,2020,PL_1002301596301,official,TRUE
PL_1002301600101,16.91486773850186,52.9924226142399,PL,PL41,PL411,1002301600101,Chodzież,18480,12.76932569,2020,PL_1002301600101,official,TRUE
PL_1002301600102,16.976044102452875,52.887382970440314,PL,PL41,PL411,1002301600102,Budzyń,8526,209.11626018,2020,PL_1002301600102,official,TRUE
PL_1002301600103,16.931764514190835,53.00820508031753,PL,PL41,PL411,1002301600103,Chodzież,6100,212.96062437,2020,PL_1002301600103,official,TRUE
PL_1002301600104,17.093971069506924,52.97083449181112,PL,PL41,PL411,1002301600104,Margonin,6447,123.12522258,2020,PL_1002301600104,official,TRUE
PL_1002301600105,17.13093419270868,53.031205298543085,PL,PL41,PL411,1002301600105,Szamocin,7502,127.10432963,2020,PL_1002301600105,official,TRUE
PL_1002301600201,16.566843258270072,52.90163514904715,PL,PL41,PL411,1002301600201,Czarnków,10607,10.19064445,2020,PL_1002301600201,official,TRUE
PL_1002301600202,16.57662979539991,52.91446931575505,PL,PL41,PL411,1002301600202,Czarnków,11419,347.46340777,2020,PL_1002301600202,official,TRUE
PL_1002301600203,16.042548243370153,52.84223293596505,PL,PL41,PL411,1002301600203,Drawsko,5775,163.03381302,2020,PL_1002301600203,official,TRUE
PL_1002301600204,16.015153800195872,52.87964693039854,PL,PL41,PL411,1002301600204,Krzyż Wielkopolski,8693,174.27261043,2020,PL_1002301600204,official,TRUE
PL_1002301600205,16.525085005837546,52.852464051574465,PL,PL41,PL411,1002301600205,Lubasz,7701,167.27429567,2020,PL_1002301600205,official,TRUE
PL_1002301600206,16.69862562481631,52.79435569983966,PL,PL41,PL411,1002301600206,Połajewo,6173,141.48090859,2020,PL_1002301600206,official,TRUE
PL_1002301600207,16.458102344789193,53.03931601849794,PL,PL41,PL411,1002301600207,Trzcianka,24318,374.06141938,2020,PL_1002301600207,official,TRUE
PL_1002301600208,16.195571101319526,52.88816139666892,PL,PL41,PL411,1002301600208,Wieleń,12304,430.02045226,2020,PL_1002301600208,official,TRUE
PL_1002301601901,16.738760962694403,53.15190593153996,PL,PL41,PL411,1002301601901,Piła,73139,102.66710473,2020,PL_1002301601901,official,TRUE
PL_1002301601902,17.127882507573027,53.10536139533476,PL,PL41,PL411,1002301601902,Białośliwie,4852,75.60369401,2020,PL_1002301601902,official,TRUE
PL_1002301601903,16.922179285134856,53.163196764970586,PL,PL41,PL411,1002301601903,Kaczory,7860,150.6205327,2020,PL_1002301601903,official,TRUE
PL_1002301601904,17.266671440917335,53.259776087077576,PL,PL41,PL411,1002301601904,Łobżenica,9495,190.79969797,2020,PL_1002301601904,official,TRUE
PL_1002301601905,17.01182674540814,53.103166657725914,PL,PL41,PL411,1002301601905,Miasteczko Krajeńskie,3171,70.91170753,2020,PL_1002301601905,official,TRUE
PL_1002301601906,16.641098525975536,53.1933759330578,PL,PL41,PL411,1002301601906,Szydłowo,9196,267.41801062,2020,PL_1002301601906,official,TRUE
PL_1002301601907,16.724475858461588,53.049002928507,PL,PL41,PL411,1002301601907,Ujście,7957,125.95420549,2020,PL_1002301601907,official,TRUE
PL_1002301601908,17.277830878778197,53.14126873352876,PL,PL41,PL411,1002301601908,Wyrzysk,13926,159.03741641,2020,PL_1002301601908,official,TRUE
PL_1002301601909,17.080877913725065,53.18252252379223,PL,PL41,PL411,1002301601909,Wysoka,6516,122.96859636,2020,PL_1002301601909,official,TRUE
PL_1002301602801,17.208825507478366,52.81000419212413,PL,PL41,PL411,1002301602801,Wągrowiec,25686,17.81318869,2020,PL_1002301602801,official,TRUE
PL_1002301602802,17.481716139082625,52.8407719743645,PL,PL41,PL411,1002301602802,Damasławek,5326,104.53312698,2020,PL_1002301602802,official,TRUE
PL_1002301602803,17.304160705962932,52.947080392862645,PL,PL41,PL411,1002301602803,Gołańcz,8293,191.80759737,2020,PL_1002301602803,official,TRUE
PL_1002301602804,17.32695908557399,52.739472249066814,PL,PL41,PL411,1002301602804,Mieścisko,5937,135.07831222,2020,PL_1002301602804,official,TRUE
PL_1002301602805,17.16221814412256,52.6726545435708,PL,PL41,PL411,1002301602805,Skoki,9713,198.5177165,2020,PL_1002301602805,official,TRUE
PL_1002301602806,17.470107414733562,52.91138157739112,PL,PL41,PL411,1002301602806,Wapno,2962,44.06651674,2020,PL_1002301602806,official,TRUE
PL_1002301602807,17.198822343455983,52.827764572780026,PL,PL41,PL411,1002301602807,Wągrowiec,12316,347.84457617,2020,PL_1002301602807,official,TRUE
PL_1002301603101,17.04415165655228,53.363256480425456,PL,PL41,PL411,1002301603101,Złotów,18532,11.57082261,2020,PL_1002301603101,official,TRUE
PL_1002301603102,16.81131994191526,53.42239361354596,PL,PL41,PL411,1002301603102,Jastrowie,11500,353.08179685,2020,PL_1002301603102,official,TRUE
PL_1002301603103,16.990575188839255,53.290922892420866,PL,PL41,PL411,1002301603103,Krajenka,7534,191.59002909,2020,PL_1002301603103,official,TRUE
PL_1002301603104,17.232776431391066,53.50851424516361,PL,PL41,PL411,1002301603104,Lipka,5509,191.14841518,2020,PL_1002301603104,official,TRUE
PL_1002301603105,16.844210390559436,53.54035950417421,PL,PL41,PL411,1002301603105,Okonek,8502,325.98623163,2020,PL_1002301603105,official,TRUE
PL_1002301603106,16.87625871548536,53.34250822608603,PL,PL41,PL411,1002301603106,Tarnówka,3009,132.46837872,2020,PL_1002301603106,official,TRUE
PL_1002301603107,17.14492102883047,53.41962842280415,PL,PL41,PL411,1002301603107,Zakrzewo,4905,162.36761671,2020,PL_1002301603107,official,TRUE
PL_1002301603108,17.03403273827895,53.37863548251314,PL,PL41,PL411,1002301603108,Złotów,9942,292.28520655,2020,PL_1002301603108,official,TRUE
PL_1002301611601,16.808171436088625,52.64779253465346,PL,PL41,PL418,1002301611601,Oborniki,34179,340.03480887,2020,PL_1002301611601,official,TRUE
PL_1002301611602,16.991870690844813,52.75208606856587,PL,PL41,PL418,1002301611602,Rogoźno,18353,216.24379382,2020,PL_1002301611602,official,TRUE
PL_1002301611603,16.826444633549908,52.80345911694094,PL,PL41,PL418,1002301611603,Ryczywół,7293,154.7390492,2020,PL_1002301611603,official,TRUE
PL_1002301612101,16.87568108841252,52.34446933587637,PL,PL41,PL418,1002301612101,Luboń,31941,13.51522819,2020,PL_1002301612101,official,TRUE
PL_1002301612102,16.85703043236535,52.27959204251603,PL,PL41,PL418,1002301612102,Puszczykowo,9657,16.39059166,2020,PL_1002301612102,official,TRUE
PL_1002301612103,16.522258367434087,52.355599725646265,PL,PL41,PL418,1002301612103,Buk,12610,90.5951367,2020,PL_1002301612103,official,TRUE
PL_1002301612104,16.99102974991408,52.456137332126254,PL,PL41,PL418,1002301612104,Czerwonak,27617,82.48383251,2020,PL_1002301612104,official,TRUE
PL_1002301612105,16.742547501494055,52.37934302954282,PL,PL41,PL418,1002301612105,Dopiewo,28138,108.0111954,2020,PL_1002301612105,official,TRUE
PL_1002301612106,17.08271308799735,52.34250139412571,PL,PL41,PL418,1002301612106,Kleszczewo,8868,74.45929469,2020,PL_1002301612106,official,TRUE
PL_1002301612107,16.818299214820485,52.3511501334039,PL,PL41,PL418,1002301612107,Komorniki,30620,66.40544941,2020,PL_1002301612107,official,TRUE
PL_1002301612108,17.22504965216749,52.392912021932545,PL,PL41,PL418,1002301612108,Kostrzyn,18491,154.79081394,2020,PL_1002301612108,official,TRUE
PL_1002301612109,17.08065589243919,52.257828277333275,PL,PL41,PL418,1002301612109,Kórnik,29787,186.1471575,2020,PL_1002301612109,official,TRUE
PL_1002301612110,16.856746453102524,52.247337967174616,PL,PL41,PL418,1002301612110,Mosina,33442,171.44997105,2020,PL_1002301612110,official,TRUE
PL_1002301612111,17.000503692389657,52.57106477330416,PL,PL41,PL418,1002301612111,Murowana Goślina,16901,172.15663501,2020,PL_1002301612111,official,TRUE
PL_1002301612112,17.264308484762708,52.4747852927931,PL,PL41,PL418,1002301612112,Pobiedziska,19741,189.67070892,2020,PL_1002301612112,official,TRUE
PL_1002301612113,16.745311236736505,52.5083021061,PL,PL41,PL418,1002301612113,Rokietnica,18637,79.28818329,2020,PL_1002301612113,official,TRUE
PL_1002301612114,16.693734173160237,52.27883474970439,PL,PL41,PL418,1002301612114,Stęszew,15126,175.04040501,2020,PL_1002301612114,official,TRUE
PL_1002301612115,16.880113697711387,52.49637651450685,PL,PL41,PL418,1002301612115,Suchy Las,18104,116.00594904,2020,PL_1002301612115,official,TRUE
PL_1002301612116,17.071866019890226,52.406928315564876,PL,PL41,PL418,1002301612116,Swarzędz,51522,101.78207336,2020,PL_1002301612116,official,TRUE
PL_1002301612117,16.690773220583488,52.43629368913125,PL,PL41,PL418,1002301612117,Tarnowo Podgórne,28070,101.75896804,2020,PL_1002301612117,official,TRUE
PL_1002301612401,16.52737203062906,52.70682091392161,PL,PL41,PL418,1002301612401,Obrzycko,2375,3.7351566,2020,PL_1002301612401,official,TRUE
PL_1002301612402,16.427767561217795,52.451047468912535,PL,PL41,PL418,1002301612402,Duszniki,9109,156.29288245,2020,PL_1002301612402,official,TRUE
PL_1002301612403,16.575992596284177,52.50992612302608,PL,PL41,PL418,1002301612403,Kaźmierz,8755,127.88586998,2020,PL_1002301612403,official,TRUE
PL_1002301612404,16.52551693616112,52.69198939820401,PL,PL41,PL418,1002301612404,Obrzycko,4467,110.83853143,2020,PL_1002301612404,official,TRUE
PL_1002301612405,16.44540883372188,52.628597278303246,PL,PL41,PL418,1002301612405,Ostroróg,4925,84.81733856,2020,PL_1002301612405,official,TRUE
PL_1002301612406,16.26150406361255,52.50747089451507,PL,PL41,PL418,1002301612406,Pniewy,12708,158.48824758,2020,PL_1002301612406,official,TRUE
PL_1002301612407,16.58333923246134,52.61145410678853,PL,PL41,PL418,1002301612407,Szamotuły,30251,175.51214894,2020,PL_1002301612407,official,TRUE
PL_1002301612408,16.379673474747282,52.70841363124236,PL,PL41,PL418,1002301612408,Wronki,19074,301.71454087,2020,PL_1002301612408,official,TRUE
PL_1002301612501,17.37522988426993,52.287090432215926,PL,PL41,PL418,1002301612501,Dominowo,3079,79.39111721,2020,PL_1002301612501,official,TRUE
PL_1002301612502,17.37066100089513,52.125815540588754,PL,PL41,PL418,1002301612502,Krzykosy,7136,110.72653243,2020,PL_1002301612502,official,TRUE
PL_1002301612503,17.38326719669486,52.074411282835,PL,PL41,PL418,1002301612503,Nowe Miasto nad Wartą,9057,118.94050958,2020,PL_1002301612503,official,TRUE
PL_1002301612504,17.272396438038804,52.22633680823213,PL,PL41,PL418,1002301612504,Środa Wielkopolska,32649,207.1117148,2020,PL_1002301612504,official,TRUE
PL_1002301612505,17.165332408013764,52.15883726020965,PL,PL41,PL418,1002301612505,Zaniemyśl,6958,106.54762421,2020,PL_1002301612505,official,TRUE
PL_1002301612601,16.89149119596962,52.13788365327083,PL,PL41,PL418,1002301612601,Brodnica,4892,95.82708524,2020,PL_1002301612601,official,TRUE
PL_1002301612602,17.068848139989804,51.98957894618154,PL,PL41,PL418,1002301612602,Dolsk,5883,124.45793822,2020,PL_1002301612602,official,TRUE
PL_1002301612603,17.240075289187565,52.05673288055314,PL,PL41,PL418,1002301612603,Książ Wielkopolski,8495,147.93666851,2020,PL_1002301612603,official,TRUE
PL_1002301612604,17.010065053608674,52.081582473768655,PL,PL41,PL418,1002301612604,Śrem,42155,205.84603211,2020,PL_1002301612604,official,TRUE
PL_1002301626401,16.92018216588112,52.41027344933616,PL,PL41,PL415,1002301626401,Poznań,534813,261.9145082,2020,PL_1002301626401,official,TRUE
PL_1002321630101,15.987740037966493,54.007228940792416,PL,PL42,PL426,1002321630101,Białogard,24146,25.74235152,2020,PL_1002321630101,official,TRUE
PL_1002321630102,15.951419286357659,53.98569242510045,PL,PL42,PL426,1002321630102,Białogard,7546,328.22539065,2020,PL_1002321630102,official,TRUE
PL_1002321630103,15.873705123295853,54.03894338859795,PL,PL42,PL426,1002321630103,Karlino,9137,141.03367206,2020,PL_1002321630103,official,TRUE
PL_1002321630104,16.24574788113762,53.93115161547866,PL,PL42,PL426,1002321630104,Tychowo,6731,350.42437264,2020,PL_1002321630104,official,TRUE
PL_1002321630801,15.58034167929659,54.17811096728011,PL,PL42,PL426,1002321630801,Kołobrzeg,46259,25.66473593,2020,PL_1002321630801,official,TRUE
PL_1002321630802,15.740977114825457,54.12220422986176,PL,PL42,PL426,1002321630802,Dygowo,5592,128.53153002,2020,PL_1002321630802,official,TRUE
PL_1002321630803,15.652592848156612,54.04668791721603,PL,PL42,PL426,1002321630803,Gościno,5138,115.99510458,2020,PL_1002321630803,official,TRUE
PL_1002321630804,15.517958545951304,54.1413107088711,PL,PL42,PL426,1002321630804,Kołobrzeg,10982,144.03642609,2020,PL_1002321630804,official,TRUE
PL_1002321630805,15.52485854841396,53.96575044404699,PL,PL42,PL426,1002321630805,Rymań,3929,146.15832535,2020,PL_1002321630805,official,TRUE
PL_1002321630806,15.549353610587831,54.04853462852851,PL,PL42,PL426,1002321630806,Siemyśl,3853,107.30444026,2020,PL_1002321630806,official,TRUE
PL_1002321630807,15.756589659515338,54.208899942741546,PL,PL42,PL426,1002321630807,Ustronie Morskie,3685,56.9833259,2020,PL_1002321630807,official,TRUE
PL_1002321630901,15.97022028532213,54.20293256007695,PL,PL42,PL426,1002321630901,Będzino,8659,166.16869401,2020,PL_1002321630901,official,TRUE
PL_1002321630902,16.09749619781985,54.17166620613135,PL,PL42,PL426,1002321630902,Biesiekierz,7154,116.61555429,2020,PL_1002321630902,official,TRUE
PL_1002321630903,16.577517650380113,53.9613798039542,PL,PL42,PL426,1002321630903,Bobolice,8898,367.51338239,2020,PL_1002321630903,official,TRUE
PL_1002321630904,16.281017398665863,54.09389460471539,PL,PL42,PL426,1002321630904,Manowo,6948,188.30315608,2020,PL_1002321630904,official,TRUE
PL_1002321630905,16.05394428759638,54.256008007075955,PL,PL42,PL426,1002321630905,Mielno,4888,62.14942559,2020,PL_1002321630905,official,TRUE
PL_1002321630906,16.66602341956644,54.11972694362521,PL,PL42,PL426,1002321630906,Polanów,8610,393.3717957,2020,PL_1002321630906,official,TRUE
PL_1002321630907,16.29979951987856,54.230229520893225,PL,PL42,PL426,1002321630907,Sianów,13853,226.76362661,2020,PL_1002321630907,official,TRUE
PL_1002321630908,16.16701678344114,54.11870450842884,PL,PL42,PL426,1002321630908,Świeszyno,7470,132.55197559,2020,PL_1002321630908,official,TRUE
PL_1002321631301,16.411465137611895,54.42032281884066,PL,PL42,PL426,1002321631301,Darłowo,13695,20.21184315,2020,PL_1002321631301,official,TRUE
PL_1002321631302,16.678122311131126,54.36263384748869,PL,PL42,PL426,1002321631302,Sławno,12468,15.83186636,2020,PL_1002321631302,official,TRUE
PL_1002321631303,16.4398228583175,54.3867986886013,PL,PL42,PL426,1002321631303,Darłowo,7949,269.44315105,2020,PL_1002321631303,official,TRUE
PL_1002321631304,16.55695437604413,54.28376257735718,PL,PL42,PL426,1002321631304,Malechowo,6264,226.43931652,2020,PL_1002321631304,official,TRUE
PL_1002321631305,16.68246291260124,54.48259768772719,PL,PL42,PL426,1002321631305,Postomino,6891,226.9067412,2020,PL_1002321631305,official,TRUE
PL_1002321631306,16.722301165639827,54.3557907550875,PL,PL42,PL426,1002321631306,Sławno,8867,284.37843235,2020,PL_1002321631306,official,TRUE
PL_1002321636101,16.18970576957004,54.19831088892805,PL,PL42,PL426,1002321636101,Koszalin,107048,98.35079804,2020,PL_1002321636101,official,TRUE
PL_1002321640201,15.67193830144613,53.039164993546905,PL,PL42,PL427,1002321640201,Bierzwnik,4670,239.06914583,2020,PL_1002321640201,official,TRUE
PL_1002321640202,15.422455285808024,53.167867420300134,PL,PL42,PL427,1002321640202,Choszczno,21635,246.30378974,2020,PL_1002321640202,official,TRUE
PL_1002321640203,15.758818980362658,53.21132807098831,PL,PL42,PL427,1002321640203,Drawno,5053,320.89945011,2020,PL_1002321640203,official,TRUE
PL_1002321640204,15.487488271420641,53.073878281305106,PL,PL42,PL427,1002321640204,Krzęcin,3667,140.29343488,2020,PL_1002321640204,official,TRUE
