gisco_id,longitude,latitude,country,nuts_2,nuts_3,lau_id,lau_name,population,area_km2,year,fid,pop_weighted
ES_01001,-2.5108399237740056,42.84130393163016,ES,ES21,ES211,01001,Alegría-Dulantzi,2935,19.94546187,2020,ES_01001,TRUE
ES_01002,-3.0020909842358394,43.05076986345539,ES,ES21,ES211,01002,Amurrio,10264,96.33036404,2020,ES_01002,TRUE
ES_01003,-2.567791775988401,43.049477777350134,ES,ES21,ES211,01003,Aramaio,1442,73.27197427,2020,ES_01003,TRUE
ES_01004,-3.132044563632339,43.123889643387066,ES,ES21,ES211,01004,Artziniega,1800,27.30627457,2020,ES_01004,TRUE
ES_01006,-2.862712385782331,42.72617374814376,ES,ES21,ES211,01006,Armiñón,223,12.93877582,2020,ES_01006,TRUE
ES_01008,-2.621576132737315,42.88387772417984,ES,ES21,ES211,01008,Arratzua-Ubarrundia,984,57.56549867,2020,ES_01008,TRUE
ES_01009,-2.3113920675264583,42.88929252744524,ES,ES21,ES211,01009,Asparrena,1623,65.34921666,2020,ES_01009,TRUE
ES_01010,-3.008697416498367,43.09231036571336,ES,ES21,ES211,01010,Ayala / Aiara,2968,140.74912492,2020,ES_01010,TRUE
ES_01011,-2.679909161032049,42.533389139518825,ES,ES21,ES211,01011,Baños de Ebro / Mañueta,294,9.45333049,2020,ES_01011,TRUE
ES_01013,-2.496400682421585,42.90720054007352,ES,ES21,ES211,01013,Barrundia,881,97.38054349,2020,ES_01013,TRUE
ES_01014,-2.860387733579028,42.68436687508404,ES,ES21,ES211,01014,Berantevilla,463,35.69752947,2020,ES_01014,TRUE
ES_01016,-2.517054297576781,42.64691415473712,ES,ES21,ES211,01016,Bernedo,507,130.44503099,2020,ES_01016,TRUE
ES_01017,-2.350787880616502,42.668259990416836,ES,ES21,ES211,01017,Campezo / Kanpezu,1034,85.39469663,2020,ES_01017,TRUE
ES_01018,-2.7279517671983555,42.94899328305117,ES,ES21,ES211,01018,Zigoitia,1749,102.08117206,2020,ES_01018,TRUE
ES_01019,-2.5193431366411896,42.59031571775127,ES,ES21,ES211,01019,Kripan,178,12.50537513,2020,ES_01019,TRUE
ES_01020,-2.9124968291309146,42.87779074353397,ES,ES21,ES211,01020,Kuartango,385,84.09053203,2020,ES_01020,TRUE
ES_01021,-2.5476677766332263,42.86064168708742,ES,ES21,ES211,01021,Elburgo / Burgelu,608,32.09269743,2020,ES_01021,TRUE
ES_01022,-2.627449333189999,42.50381314088471,ES,ES21,ES211,01022,Elciego,1001,16.32074418,2020,ES_01022,TRUE
ES_01023,-2.539638724560616,42.569537765973735,ES,ES21,ES211,01023,Elvillar / Bilar,330,17.50926608,2020,ES_01023,TRUE
ES_01027,-2.4420476330408003,42.835437794140034,ES,ES21,ES211,01027,Iruraiz-Gauna,532,47.15452441,2020,ES_01027,TRUE
ES_01028,-2.8008878070234644,42.58983757488681,ES,ES21,ES211,01028,Labastida / Bastida,1517,38.20961467,2020,ES_01028,TRUE
ES_01030,-2.5886887630192876,42.62577221059024,ES,ES21,ES211,01030,Lagrán,162,45.60557779,2020,ES_01030,TRUE
ES_01031,-2.5857865533993993,42.5546350015778,ES,ES21,ES211,01031,Laguardia,1454,80.90857368,2020,ES_01031,TRUE
ES_01032,-2.513526807133934,42.56360912309835,ES,ES21,ES211,01032,Lanciego / Lantziego,709,24.24339886,2020,ES_01032,TRUE
ES_01033,-2.5726969339333947,42.49240805462528,ES,ES21,ES211,01033,Lapuebla de Labarca,865,5.99835086,2020,ES_01033,TRUE
ES_01034,-2.6376354127356656,42.566415183226766,ES,ES21,ES211,01034,Leza,211,9.93131729,2020,ES_01034,TRUE
ES_01036,-2.9623602981826886,43.144122199054735,ES,ES21,ES211,01036,Laudio / Llodio,18118,37.55367395,2020,ES_01036,TRUE
ES_01037,-2.44430893144188,42.739136554720105,ES,ES21,ES211,01037,Arraia-Maeztu,733,123.06559826,2020,ES_01037,TRUE
ES_01039,-2.406470774507906,42.52254607994779,ES,ES21,ES211,01039,Moreda de Álava / Moreda Araba,211,8.6511729,2020,ES_01039,TRUE
ES_01041,-2.6211089943477845,42.546688971069365,ES,ES21,ES211,01041,Navaridas,194,8.91428117,2020,ES_01041,TRUE
ES_01042,-3.0267961074410703,43.15589625160692,ES,ES21,ES211,01042,Okondo,1203,29.87712379,2020,ES_01042,TRUE
ES_01043,-2.439354843435917,42.5038818442669,ES,ES21,ES211,01043,Oyón-Oion,3410,45.1940959,2020,ES_01043,TRUE
ES_01044,-2.715678357642542,42.649668012485414,ES,ES21,ES211,01044,Peñacerrada-Urizaharra,262,62.14103516,2020,ES_01044,TRUE
ES_01046,-2.903866293648902,42.79919381929404,ES,ES21,ES211,01046,Erriberagoitia / Ribera Alta,782,119.79977096,2020,ES_01046,TRUE
ES_01047,-2.9163386071688095,42.71366512909296,ES,ES21,ES211,01047,Ribera Baja / Erribera Beitia,1383,25.38871892,2020,ES_01047,TRUE
ES_01049,-2.986747520848541,42.805515883688564,ES,ES21,ES211,01049,Añana,149,21.92870984,2020,ES_01049,TRUE
ES_01051,-2.3888818916633596,42.85040130107768,ES,ES21,ES211,01051,Agurain / Salvatierra,5038,37.77444722,2020,ES_01051,TRUE
ES_01052,-2.675543244235638,42.57057117211717,ES,ES21,ES211,01052,Samaniego,315,10.64732359,2020,ES_01052,TRUE
ES_01053,-2.3345177981607055,42.86117288202434,ES,ES21,ES211,01053,San Millán / Donemiliaga,706,85.3952176,2020,ES_01053,TRUE
ES_01054,-2.8952363792424,42.95356412911737,ES,ES21,ES211,01054,Urkabustaiz,1386,60.79466303,2020,ES_01054,TRUE
ES_01055,-3.083056811828713,42.83303276768548,ES,ES21,ES211,01055,Valdegovía / Gaubea,986,238.31486348,2020,ES_01055,TRUE
ES_01056,-2.327984432699501,42.757604617964795,ES,ES21,ES211,01056,Harana / Valle de Arana,218,39.12729691,2020,ES_01056,TRUE
ES_01057,-2.6694487085912026,42.54419432551642,ES,ES21,ES211,01057,Villabuena de Álava / Eskuernaga,274,8.47437753,2020,ES_01057,TRUE
ES_01058,-2.6393075099818075,42.976685407181925,ES,ES21,ES211,01058,Legutio,1921,45.849104,2020,ES_01058,TRUE
ES_01059,-2.6757037125430836,42.85133347878239,ES,ES21,ES211,01059,Vitoria-Gasteiz,253996,276.63431366,2020,ES_01059,TRUE
ES_01060,-2.46609915381673,42.56957467906499,ES,ES21,ES211,01060,Yécora / Iekora,270,18.81663962,2020,ES_01060,TRUE
ES_01061,-2.3466577417133117,42.885269718487606,ES,ES21,ES211,01061,Zalduondo,185,11.88056983,2020,ES_01061,TRUE
ES_01062,-2.876646617197736,42.66268195178129,ES,ES21,ES211,01062,Zambrana,416,39.55094098,2020,ES_01062,TRUE
ES_01063,-2.823249294785945,42.9557280866976,ES,ES21,ES211,01063,Zuia,2300,122.50984195,2020,ES_01063,TRUE
ES_01901,-2.8118591166139715,42.81938778153874,ES,ES21,ES211,01901,Iruña Oka / Iruña de Oca,3488,53.24723369,2020,ES_01901,TRUE
ES_01902,-2.9854232328085746,42.74823773969202,ES,ES21,ES211,01902,Lantarón,877,67.46265935,2020,ES_01902,TRUE
ES_02001,-1.541692652207043,39.212066707227144,ES,ES42,ES421,02001,Abengibre,761,30.79913478,2020,ES_02001,TRUE
ES_02002,-1.3588378487490929,39.09863676507934,ES,ES42,ES421,02002,Alatoz,506,63.83683078,2020,ES_02002,TRUE
ES_02003,-1.861424936763764,38.99331158538074,ES,ES42,ES421,02003,Albacete,174336,1125.99642908,2020,ES_02003,TRUE
ES_02004,-1.5218610347819925,38.5682381805196,ES,ES42,ES421,02004,Albatana,679,30.53234919,2020,ES_02004,TRUE
ES_02005,-1.3927401481395945,39.277337859049624,ES,ES42,ES421,02005,Alborea,664,72.0639368,2020,ES_02005,TRUE
ES_02006,-1.9768072609096843,38.648740749926226,ES,ES42,ES421,02006,Alcadozo,647,99.60421554,2020,ES_02006,TRUE
ES_02007,-1.4313574925912653,39.19054336583921,ES,ES42,ES421,02007,Alcalá del Júcar,1194,146.78546707,2020,ES_02007,TRUE
ES_02008,-2.488052900742382,38.66565390898036,ES,ES42,ES421,02008,Alcaraz,1324,370.58294046,2020,ES_02008,TRUE
ES_02009,-1.0955732805365566,38.86744747578037,ES,ES42,ES421,02009,Almansa,24511,531.90956728,2020,ES_02009,TRUE
ES_02010,-1.2300924025233857,38.95852573681378,ES,ES42,ES421,02010,Alpera,2261,178.47420621,2020,ES_02010,TRUE
ES_02011,-2.0747062589792282,38.554811236158194,ES,ES42,ES421,02011,Ayna,591,146.64514736,2020,ES_02011,TRUE
ES_02012,-2.1516412841108705,38.88297271042302,ES,ES42,ES421,02012,Balazote,2327,65.13628576,2020,ES_02012,TRUE
ES_02013,-1.2009013531371924,39.26270073157424,ES,ES42,ES421,02013,Balsa de Ves,131,76.35582637,2020,ES_02013,TRUE
ES_02014,-2.4524357088965836,38.844105712024685,ES,ES42,ES421,02014,"Ballestero, El",396,138.70147529,2020,ES_02014,TRUE
ES_02015,-2.198998682485511,39.044920488109476,ES,ES42,ES421,02015,Barrax,1799,189.89523363,2020,ES_02015,TRUE
ES_02016,-2.611090565390054,38.520489750526494,ES,ES42,ES421,02016,Bienservida,579,90.74218639,2020,ES_02016,TRUE
ES_02017,-2.2175269984049684,38.58166522059172,ES,ES42,ES421,02017,Bogarra,807,166.04749237,2020,ES_02017,TRUE
ES_02018,-1.3498803798798622,38.871365195119026,ES,ES42,ES421,02018,Bonete,1029,125.01393973,2020,ES_02018,TRUE
ES_02019,-2.5414274939342425,38.951421148133875,ES,ES42,ES421,02019,"Bonillo, El",2723,502.69931706,2020,ES_02019,TRUE
ES_02020,-1.3130045212408832,39.103875539220994,ES,ES42,ES421,02020,Carcelén,495,75.39820792,2020,ES_02020,TRUE
ES_02021,-1.5573422078154506,39.102375251652866,ES,ES42,ES421,02021,Casas de Juan Núñez,1326,88.97613246,2020,ES_02021,TRUE
ES_02022,-2.24100346836249,38.77075540474884,ES,ES42,ES421,02022,Casas de Lázaro,348,112.31535285,2020,ES_02022,TRUE
ES_02023,-1.3310382497439281,39.257031580596575,ES,ES42,ES421,02023,Casas de Ves,563,125.11290505,2020,ES_02023,TRUE
ES_02024,-1.4730439785010527,39.28601208565337,ES,ES42,ES421,02024,Casas-Ibáñez,4544,103.19385727,2020,ES_02024,TRUE
ES_02025,-0.988731659456251,38.7034912191398,ES,ES42,ES421,02025,Caudete,10005,141.59971487,2020,ES_02025,TRUE
ES_02026,-1.6623001829132604,39.30032887945441,ES,ES42,ES421,02026,Cenizate,1194,63.26219957,2020,ES_02026,TRUE
ES_02027,-1.46322991839682,38.83162257741355,ES,ES42,ES421,02027,Corral-Rubio,311,94.78743777,2020,ES_02027,TRUE
ES_02028,-2.5029477236631608,38.434812424847415,ES,ES42,ES421,02028,Cotillas,118,14.44710013,2020,ES_02028,TRUE
ES_02029,-1.7217940010032817,38.912290200182994,ES,ES42,ES421,02029,Chinchilla de Monte-Aragón,4205,679.98620142,2020,ES_02029,TRUE
ES_02030,-2.0435319864078076,38.448267860908786,ES,ES42,ES421,02030,Elche de la Sierra,3520,239.45223638,2020,ES_02030,TRUE
ES_02031,-2.0085656988387526,38.35209190204424,ES,ES42,ES421,02031,Férez,629,126.14497708,2020,ES_02031,TRUE
ES_02032,-2.071446953354556,39.241511024233894,ES,ES42,ES421,02032,Fuensanta,291,23.94321421,2020,ES_02032,TRUE
ES_02033,-1.4290632852141048,38.69197712530033,ES,ES42,ES421,02033,Fuente-Álamo,2474,133.34050776,2020,ES_02033,TRUE
ES_02034,-1.5517968585694302,39.26700740461461,ES,ES42,ES421,02034,Fuentealbilla,1831,108.30900744,2020,ES_02034,TRUE
ES_02035,-1.9965629324381273,39.113044901544065,ES,ES42,ES421,02035,"Gineta, La",2548,136.70313601,2020,ES_02035,TRUE
ES_02036,-1.639479327941366,39.23865367621682,ES,ES42,ES421,02036,Golosalvo,98,28.17949772,2020,ES_02036,TRUE
ES_02037,-1.6980888487791919,38.50978372089782,ES,ES42,ES421,02037,Hellín,30200,781.32759419,2020,ES_02037,TRUE
ES_02038,-2.1224037683646695,38.95863148295224,ES,ES42,ES421,02038,"Herrera, La",322,63.45589816,2020,ES_02038,TRUE
ES_02039,-1.4397414207619121,38.96125153901146,ES,ES42,ES421,02039,Higueruela,1135,205.48746161,2020,ES_02039,TRUE
ES_02040,-1.5548508031350703,38.956520414646,ES,ES42,ES421,02040,Hoya-Gonzalo,630,114.58395892,2020,ES_02040,TRUE
ES_02041,-1.5233599082981955,39.17093659134159,ES,ES42,ES421,02041,Jorquera,342,67.95373893,2020,ES_02041,TRUE
ES_02042,-2.0998463636509057,38.365500675285006,ES,ES42,ES421,02042,Letur,892,263.64600838,2020,ES_02042,TRUE
ES_02043,-2.3396450356631546,38.9391531791934,ES,ES42,ES421,02043,Lezuza,1332,360.88412039,2020,ES_02043,TRUE
ES_02044,-1.9560422370151105,38.54161836431434,ES,ES42,ES421,02044,Liétor,1150,311.67961492,2020,ES_02044,TRUE
ES_02045,-1.8025728519537936,39.23687677825641,ES,ES42,ES421,02045,Madrigueras,4634,73.37800896,2020,ES_02045,TRUE
ES_02046,-1.727195549790814,39.20981516442994,ES,ES42,ES421,02046,Mahora,1362,108.15158274,2020,ES_02046,TRUE
ES_02047,-2.311993522417648,38.715904539098254,ES,ES42,ES421,02047,Masegoso,104,103.88345699,2020,ES_02047,TRUE
ES_02048,-2.3231205272805857,39.27128275766339,ES,ES42,ES421,02048,Minaya,1475,69.85164977,2020,ES_02048,TRUE
ES_02049,-2.242762516411538,38.4686044349608,ES,ES42,ES421,02049,Molinicos,813,143.57106028,2020,ES_02049,TRUE
ES_02050,-2.0231271071471566,39.164068688179704,ES,ES42,ES421,02050,Montalvos,88,24.76177628,2020,ES_02050,TRUE
ES_02051,-1.3285488013905489,38.78786918173538,ES,ES42,ES421,02051,Montealegre del Castillo,2041,177.86368538,2020,ES_02051,TRUE
ES_02052,-1.7921955596909758,39.17835249455608,ES,ES42,ES421,02052,Motilleja,578,23.79264403,2020,ES_02052,TRUE
ES_02053,-2.4793271351317574,39.041873682433966,ES,ES42,ES421,02053,Munera,3429,229.40793303,2020,ES_02053,TRUE
ES_02054,-1.7175290450836984,39.281971631977605,ES,ES42,ES421,02054,Navas de Jorquera,521,42.26860114,2020,ES_02054,TRUE
ES_02055,-2.3136296363911915,38.14849098365224,ES,ES42,ES421,02055,Nerpio,1178,435.7895379,2020,ES_02055,TRUE
ES_02056,-1.4957412087752657,38.616296550499655,ES,ES42,ES421,02056,Ontur,1976,54.38679227,2020,ES_02056,TRUE
ES_02057,-2.7425374775227627,38.96189273483107,ES,ES42,ES421,02057,Ossa de Montiel,2262,243.57668257,2020,ES_02057,TRUE
ES_02058,-2.347994646255936,38.599955962456264,ES,ES42,ES421,02058,Paterna del Madera,329,112.35583251,2020,ES_02058,TRUE
ES_02059,-2.4033112560338807,38.67714089288268,ES,ES42,ES421,02059,Peñascosa,333,189.25754327,2020,ES_02059,TRUE
ES_02060,-2.002144209722461,38.72895508248769,ES,ES42,ES421,02060,Peñas de San Pedro,1394,158.7356243,2020,ES_02060,TRUE
ES_02061,-1.5550621296390847,38.82669427407328,ES,ES42,ES421,02061,Pétrola,681,74.62663106,2020,ES_02061,TRUE
ES_02062,-2.598948972867993,38.69894360327108,ES,ES42,ES421,02062,Povedilla,405,49.44282626,2020,ES_02062,TRUE
ES_02063,-1.908742167102344,38.71724138236972,ES,ES42,ES421,02063,Pozohondo,1593,136.44357779,2020,ES_02063,TRUE
ES_02064,-1.5064555732833984,39.07813572622458,ES,ES42,ES421,02064,Pozo-Lorente,408,80.98448621,2020,ES_02064,TRUE
ES_02065,-2.0963894109678507,38.80773786872168,ES,ES42,ES421,02065,Pozuelo,469,133.78292761,2020,ES_02065,TRUE
ES_02066,-1.4884639981720886,39.174586716707395,ES,ES42,ES421,02066,"Recueja, La",231,29.74546,2020,ES_02066,TRUE
ES_02067,-2.4221274620486497,38.500277775816535,ES,ES42,ES421,02067,Riópar,1341,80.92214547,2020,ES_02067,TRUE
ES_02068,-2.4309138442036735,38.76465256996766,ES,ES42,ES421,02068,Robledo,376,120.10810065,2020,ES_02068,TRUE
ES_02069,-2.1585064947845383,39.20519443931148,ES,ES42,ES421,02069,"Roda, La",15527,398.87310453,2020,ES_02069,TRUE
ES_02070,-2.558762569670391,38.59877978928824,ES,ES42,ES421,02070,Salobre,470,49.51200011,2020,ES_02070,TRUE
ES_02071,-2.1832003455901994,38.82362782409106,ES,ES42,ES421,02071,San Pedro,1171,83.12376752,2020,ES_02071,TRUE
ES_02072,-1.9822005951262116,38.333764660572704,ES,ES42,ES421,02072,Socovos,1778,138.59275759,2020,ES_02072,TRUE
ES_02073,-1.9125128101063125,39.26240232935941,ES,ES42,ES421,02073,Tarazona de la Mancha,6187,212.78238816,2020,ES_02073,TRUE
ES_02074,-1.6881130764910832,38.59294092165549,ES,ES42,ES421,02074,Tobarra,7709,324.97595013,2020,ES_02074,TRUE
ES_02075,-1.6789931892066885,39.13336968056153,ES,ES42,ES421,02075,Valdeganga,1990,70.77971788,2020,ES_02075,TRUE
ES_02076,-2.503292300396784,38.635373749420076,ES,ES42,ES421,02076,Vianos,329,128.0281347,2020,ES_02076,TRUE
ES_02077,-1.263198428606898,39.21934687618427,ES,ES42,ES421,02077,Villa de Ves,61,57.54484911,2020,ES_02077,TRUE
ES_02078,-2.0590234335837905,39.29668383165067,ES,ES42,ES421,02078,Villalgordo del Júcar,1102,46.66078995,2020,ES_02078,TRUE
ES_02079,-1.6018445135044868,39.36174327685237,ES,ES42,ES421,02079,Villamalea,4070,128.02172483,2020,ES_02079,TRUE
ES_02080,-2.63271558162628,38.57335357933983,ES,ES42,ES421,02080,Villapalacios,583,87.52138754,2020,ES_02080,TRUE
ES_02081,-2.603434354540083,39.268022156325095,ES,ES42,ES421,02081,Villarrobledo,25116,862.47145079,2020,ES_02081,TRUE
ES_02082,-1.3378566804227756,39.331932009038404,ES,ES42,ES421,02082,Villatoya,109,18.83462122,2020,ES_02082,TRUE
ES_02083,-1.4562349625302473,39.12362801160027,ES,ES42,ES421,02083,Villavaliente,220,34.84148813,2020,ES_02083,TRUE
ES_02084,-2.5186384255221825,38.45625059196143,ES,ES42,ES421,02084,Villaverde de Guadalimar,325,69.07534903,2020,ES_02084,TRUE
ES_02085,-2.577957788769214,38.77278545322815,ES,ES42,ES421,02085,Viveros,329,65.34425757,2020,ES_02085,TRUE
ES_02086,-2.3175138679374614,38.36905322851298,ES,ES42,ES421,02086,Yeste,2614,511.2598756,2020,ES_02086,TRUE
ES_02901,-1.7361468873722425,38.802582341444904,ES,ES42,ES421,02901,Pozo Cañada,2791,116.99079405,2020,ES_02901,TRUE
ES_03001,-0.16203716397333423,38.85858602889972,ES,ES52,ES521,03001,"Atzúbia, l'",611,14.67010385,2020,ES_03001,TRUE
ES_03002,-0.6362212358774878,38.440148460920774,ES,ES52,ES521,03002,Agost,4794,66.65238207,2020,ES_03002,TRUE
ES_03003,-0.5174961590616325,38.78374342711911,ES,ES52,ES521,03003,Agres,564,25.82162565,2020,ES_03003,TRUE
ES_03004,-0.3612793032248276,38.50414331109181,ES,ES52,ES521,03004,Aigües,986,18.47723239,2020,ES_03004,TRUE
ES_03005,-0.8702137937328485,38.17826215567985,ES,ES52,ES521,03005,Albatera,12474,61.53345399,2020,ES_03005,TRUE
ES_03006,-0.03911287243030686,38.753541926382844,ES,ES52,ES521,03006,Alcalalí,1302,14.40224636,2020,ES_03006,TRUE
ES_03007,-0.4053350563835258,38.795723618546084,ES,ES52,ES521,03007,Alcocer de Planes,226,4.70876459,2020,ES_03007,TRUE
ES_03008,-0.327882081836677,38.67661206293826,ES,ES52,ES521,03008,Alcoleja,177,14.54140875,2020,ES_03008,TRUE
ES_03009,-0.477335267525532,38.700369710311875,ES,ES52,ES521,03009,Alcoy / Alcoi,59354,129.88789965,2020,ES_03009,TRUE
ES_03010,-0.5508534943231712,38.77177232594416,ES,ES52,ES521,03010,Alfafara,406,19.77649793,2020,ES_03010,TRUE
ES_03011,-0.08996701553182247,38.57712998147272,ES,ES52,ES521,03011,"Alfàs del Pi, l'",20042,19.24505841,2020,ES_03011,TRUE
ES_03012,-0.7956854489235804,38.08362442584292,ES,ES52,ES521,03012,Algorfa,3125,18.49088126,2020,ES_03012,TRUE
ES_03013,-1.0019865863411213,38.336674103568505,ES,ES52,ES521,03013,Algueña,1326,18.43533839,2020,ES_03013,TRUE
ES_03014,-0.4857890667078882,38.35599536049651,ES,ES52,ES521,03014,Alicante / Alacant,337482,200.86661353,2020,ES_03014,TRUE
ES_03015,-0.7910049248580344,38.11069751508686,ES,ES52,ES521,03015,Almoradí,21208,42.61987841,2020,ES_03015,TRUE
ES_03016,-0.3527166176394563,38.76060905009648,ES,ES52,ES521,03016,Almudaina,109,8.81613191,2020,ES_03016,TRUE
ES_03017,-0.4245251884965759,38.77266757138455,ES,ES52,ES521,03017,"Alqueria d'Asnar, l'",493,0.75962742,2020,ES_03017,TRUE
ES_03018,-0.0517773002523533,38.603494737285644,ES,ES52,ES521,03018,Altea,22558,34.44328191,2020,ES_03018,TRUE
ES_03019,-0.7682724864146581,38.344566287691265,ES,ES52,ES521,03019,Aspe,20804,70.46128924,2020,ES_03019,TRUE
ES_03020,-0.34020478386152764,38.73912226603979,ES,ES52,ES521,03020,Balones,128,11.24176969,2020,ES_03020,TRUE
ES_03021,-0.6573418123057,38.7162545483601,ES,ES52,ES521,03021,Banyeres de Mariola,7090,50.28593756,2020,ES_03021,TRUE
ES_03022,-0.34187625127241494,38.693222905154514,ES,ES52,ES521,03022,Benasau,156,9.0453167,2020,ES_03022,TRUE
ES_03023,-0.7682120580789894,38.701083735698,ES,ES52,ES521,03023,Beneixama,1690,34.91637513,2020,ES_03023,TRUE
ES_03024,-0.8416080995333788,38.07626438289422,ES,ES52,ES521,03024,Benejúzar,5435,9.32488146,2020,ES_03024,TRUE
ES_03025,-0.9648718611516524,38.14065382964211,ES,ES52,ES521,03025,Benferri,1965,12.36880789,2020,ES_03025,TRUE
ES_03026,-0.0035844129270076568,38.82046122891304,ES,ES52,ES521,03026,Beniarbeig,2159,7.40528391,2020,ES_03026,TRUE
ES_03027,-0.21631922734510928,38.68167669145544,ES,ES52,ES521,03027,Beniardá,200,15.72606379,2020,ES_03027,TRUE
ES_03028,-0.3737715900306023,38.81761903200331,ES,ES52,ES521,03028,Beniarrés,1099,20.21298601,2020,ES_03028,TRUE
ES_03029,-0.10274503765332606,38.755321004071625,ES,ES52,ES521,03029,Benigembla,443,18.45498402,2020,ES_03029,TRUE
ES_03030,-0.030208815600694355,38.79030640435819,ES,ES52,ES521,03030,Benidoleig,1078,7.48354498,2020,ES_03030,TRUE
ES_03031,-0.13150025035879478,38.54186386115054,ES,ES52,ES521,03031,Benidorm,70450,38.52734393,2020,ES_03031,TRUE
ES_03032,-0.4011824877106348,38.660344184033015,ES,ES52,ES521,03032,Benifallim,104,13.67189731,2020,ES_03032,TRUE
ES_03033,-0.22708078903789142,38.67172549601131,ES,ES52,ES521,03033,Benifato,136,11.87896841,2020,ES_03033,TRUE
ES_03034,-0.7404252063611767,38.079096614926776,ES,ES52,ES521,03034,Benijófar,3293,4.35682975,2020,ES_03034,TRUE
ES_03035,-0.3888173949324707,38.697375006917426,ES,ES52,ES521,03035,Benilloba,726,9.53484082,2020,ES_03035,TRUE
ES_03036,-0.3745056042758478,38.753666124456814,ES,ES52,ES521,03036,Benillup,100,3.39372909,2020,ES_03036,TRUE
ES_03037,-0.21250203072080442,38.67806207802093,ES,ES52,ES521,03037,Benimantell,497,37.87616702,2020,ES_03037,TRUE
ES_03038,-0.3901105591161692,38.7788939488629,ES,ES52,ES521,03038,Benimarfull,396,5.56797169,2020,ES_03038,TRUE
ES_03039,-0.29358068907200396,38.75301049522017,ES,ES52,ES521,03039,Benimassot,103,9.51818593,2020,ES_03039,TRUE
ES_03040,-0.038582988145167606,38.82428802964381,ES,ES52,ES521,03040,Benimeli,429,3.50606767,2020,ES_03040,TRUE
ES_03041,0.051102636020830594,38.71390340775776,ES,ES52,ES521,03041,Benissa,11288,69.74189476,2020,ES_03041,TRUE
ES_03042,0.14854740506412648,38.73130293452705,ES,ES52,ES521,03042,"Benitachell / Poble Nou de Benitatxell, el",4452,12.68773377,2020,ES_03042,TRUE
ES_03043,-0.7598008223962979,38.62901031925868,ES,ES52,ES521,03043,Biar,3655,98.14489663,2020,ES_03043,TRUE
ES_03044,-0.8974826708802464,38.065123628243754,ES,ES52,ES521,03044,Bigastro,6909,4.09881698,2020,ES_03044,TRUE
ES_03045,-0.10845950969522865,38.674741964085484,ES,ES52,ES521,03045,Bolulla,417,13.58991589,2020,ES_03045,TRUE
ES_03046,-0.4277877566852149,38.47454803554816,ES,ES52,ES521,03046,Busot,3075,33.82468026,2020,ES_03046,TRUE
ES_03047,0.04764819429232957,38.643928487841315,ES,ES52,ES521,03047,Calp,23326,23.50728228,2020,ES_03047,TRUE
ES_03048,-0.12107778445277002,38.65200261203416,ES,ES52,ES521,03048,Callosa d'en Sarrià,7522,34.62707299,2020,ES_03048,TRUE
ES_03049,-0.8768027550672319,38.12388660592966,ES,ES52,ES521,03049,Callosa de Segura,19127,24.86525732,2020,ES_03049,TRUE
ES_03050,-0.3988540218167859,38.428436344708544,ES,ES52,ES521,03050,"Campello, el",28930,55.30723683,2020,ES_03050,TRUE
ES_03051,-0.7802079037193768,38.68922311463954,ES,ES52,ES521,03051,"Campo de Mirra / Camp de Mirra, el",417,21.82191318,2020,ES_03051,TRUE
ES_03052,-0.8125801607369314,38.67642331151379,ES,ES52,ES521,03052,Cañada,1208,19.30126439,2020,ES_03052,TRUE
ES_03053,-0.6719046221098635,38.5929441634574,ES,ES52,ES521,03053,Castalla,10461,114.57306597,2020,ES_03053,TRUE
ES_03054,-0.19709309209914364,38.72655106674348,ES,ES52,ES521,03054,Castell de Castells,437,45.93529001,2020,ES_03054,TRUE
ES_03055,-0.8007808339086501,38.1594389528721,ES,ES52,ES521,03055,Catral,8898,19.99783711,2020,ES_03055,TRUE
ES_03056,-0.44140002485513735,38.73860919282975,ES,ES52,ES521,03056,Cocentaina,11520,52.9707715,2020,ES_03056,TRUE
ES_03057,-0.26826552658654046,38.68563623849008,ES,ES52,ES521,03057,Confrides,261,40.02460863,2020,ES_03057,TRUE
ES_03058,-0.8868830602951338,38.14052671958353,ES,ES52,ES521,03058,Cox,7386,16.75507321,2020,ES_03058,TRUE
ES_03059,-0.810011840311338,38.248640960035985,ES,ES52,ES521,03059,Crevillent,29536,104.54845048,2020,ES_03059,TRUE
ES_03060,-0.31274434369241166,38.723837662039536,ES,ES52,ES521,03060,Quatretondeta,118,16.68997995,2020,ES_03060,TRUE
ES_03061,-0.7662599802398992,38.11137994539126,ES,ES52,ES521,03061,Daya Nueva,1733,7.09038113,2020,ES_03061,TRUE
ES_03062,-0.7311697183670405,38.10590968201635,ES,ES52,ES521,03062,Daya Vieja,731,3.14427461,2020,ES_03062,TRUE
ES_03063,0.10297631495911957,38.83965312850361,ES,ES52,ES521,03063,Dénia,42827,66.19785033,2020,ES_03063,TRUE
ES_03064,-0.7716049017086486,38.13930000892471,ES,ES52,ES521,03064,Dolores,7531,18.67049942,2020,ES_03064,TRUE
ES_03065,-0.7034678742018673,38.26773593626563,ES,ES52,ES521,03065,Elche / Elx,234765,326.58569781,2020,ES_03065,TRUE
ES_03066,-0.7929343486698689,38.47582383843542,ES,ES52,ES521,03066,Elda,52813,45.81993845,2020,ES_03066,TRUE
ES_03067,-0.2683355775864378,38.73753606706969,ES,ES52,ES521,03067,Facheca,107,10.17128602,2020,ES_03067,TRUE
ES_03068,-0.24402307553950384,38.731210373248366,ES,ES52,ES521,03068,Famorca,45,9.71479551,2020,ES_03068,TRUE
ES_03069,-0.17677411877365443,38.53941409901832,ES,ES52,ES521,03069,Finestrat,7103,42.24183221,2020,ES_03069,TRUE
ES_03070,-0.732466703084059,38.092176870810235,ES,ES52,ES521,03070,Formentera del Segura,4268,4.33084141,2020,ES_03070,TRUE
ES_03071,0.08428927280618555,38.77488696386108,ES,ES52,ES521,03071,Gata de Gorgos,6243,20.32406959,2020,ES_03071,TRUE
ES_03072,-0.4072223521965247,38.813852926186016,ES,ES52,ES521,03072,Gaianes,479,9.55806324,2020,ES_03072,TRUE
ES_03073,-0.35781036974526637,38.72030681629032,ES,ES52,ES521,03073,Gorga,241,9.09848669,2020,ES_03073,TRUE
ES_03074,-0.8886580257598581,38.15274265091278,ES,ES52,ES521,03074,Granja de Rocamora,2591,7.15030897,2020,ES_03074,TRUE
ES_03075,-0.19979178861902475,38.67181197535172,ES,ES52,ES521,03075,"Castell de Guadalest, el",224,16.0155777,2020,ES_03075,TRUE
ES_03076,-0.6515877085476262,38.087239890815376,ES,ES52,ES521,03076,Guardamar del Segura,15849,34.19162174,2020,ES_03076,TRUE
ES_03077,-0.854779560881317,38.307637392339416,ES,ES52,ES521,03077,"Fondó de les Neus, el / Hondón de las Nieves",2606,68.85849434,2020,ES_03077,TRUE
ES_03078,-0.9302272457732833,38.27143410898072,ES,ES52,ES521,03078,Hondón de los Frailes,1242,12.54624536,2020,ES_03078,TRUE
ES_03079,-0.57467486565688,38.62234413064202,ES,ES52,ES521,03079,Ibi,23564,62.50931288,2020,ES_03079,TRUE
ES_03080,-0.8655780839840322,38.05958061139594,ES,ES52,ES521,03080,Jacarilla,1998,12.21545758,2020,ES_03080,TRUE
ES_03081,-0.014026082762497382,38.737758382751345,ES,ES52,ES521,03081,Xaló,2868,34.568501500000004,2020,ES_03081,TRUE
ES_03082,0.16548501741436167,38.789809885903026,ES,ES52,ES521,03082,Jávea / Xàbia,28016,68.52918506,2020,ES_03082,TRUE
ES_03083,-0.502348654556401,38.53858797365237,ES,ES52,ES521,03083,Jijona / Xixona,6879,163.69521948,2020,ES_03083,TRUE
ES_03084,-0.3075810283938729,38.8429962792996,ES,ES52,ES521,03084,"Lorcha / Orxa, l'",582,31.78951755,2020,ES_03084,TRUE
ES_03085,0.012460916360485233,38.7375799755411,ES,ES52,ES521,03085,Llíber,830,21.97367319,2020,ES_03085,TRUE
ES_03086,-0.35903079804502297,38.728018931586924,ES,ES52,ES521,03086,Millena,240,9.76561532,2020,ES_03086,TRUE
ES_03088,-0.7290120466865377,38.377795305230634,ES,ES52,ES521,03088,Monforte del Cid,8346,79.557845940000007,2020,ES_03088,TRUE
ES_03089,-0.8416591271805832,38.43714001245428,ES,ES52,ES521,03089,Monóvar / Monòver,12212,152.35070813,2020,ES_03089,TRUE
ES_03090,-0.4495484767963835,38.415618233827885,ES,ES52,ES521,03090,Mutxamel,25645,47.64948202,2020,ES_03090,TRUE
ES_03091,-0.07733236796926507,38.75958450880206,ES,ES52,ES521,03091,Murla,507,5.8203449,2020,ES_03091,TRUE
ES_03092,-0.43724074358801496,38.78302784355346,ES,ES52,ES521,03092,Muro de Alcoy,9315,30.25845,2020,ES_03092,TRUE
ES_03093,-0.7659814431549552,38.38267935998157,ES,ES52,ES521,03093,Novelda,25741,75.69766644,2020,ES_03093,TRUE
ES_03094,-0.1250523213110506,38.60076535307264,ES,ES52,ES521,03094,"Nucia, la",18163,21.38307321,2020,ES_03094,TRUE
ES_03095,0.018638570977054812,38.82519405425739,ES,ES52,ES521,03095,Ondara,7076,10.41697001,2020,ES_03095,TRUE
ES_03096,-0.6738208431085865,38.62949499176264,ES,ES52,ES521,03096,Onil,7600,48.44917794,2020,ES_03096,TRUE
ES_03097,-0.06316335072878272,38.77872899699152,ES,ES52,ES521,03097,Orba,2232,17.73152866,2020,ES_03097,TRUE
ES_03098,-0.2644930123960746,38.56433027116004,ES,ES52,ES521,03098,Orxeta,784,24.05766881,2020,ES_03098,TRUE
ES_03099,-0.9315248230415466,38.0734244650436,ES,ES52,ES521,03099,Orihuela,78505,365.43296133,2020,ES_03099,TRUE
ES_03100,-0.062102330407311626,38.742849709473,ES,ES52,ES521,03100,Parcent,967,11.75998819,2020,ES_03100,TRUE
ES_03101,0.035077739511804984,38.79596073600348,ES,ES52,ES521,03101,Pedreguer,7881,29.5830979,2020,ES_03101,TRUE
ES_03102,-0.11740828620556207,38.842089352557956,ES,ES52,ES521,03102,Pego,10133,52.84948671,2020,ES_03102,TRUE
ES_03103,-0.3635334315916611,38.68181522973467,ES,ES52,ES521,03103,Penàguila,269,49.93320536,2020,ES_03103,TRUE
ES_03104,-0.7788792100805569,38.480494001041876,ES,ES52,ES521,03104,Petrer,34241,104.09938294,2020,ES_03104,TRUE
ES_03105,-1.0438268722996276,38.40194430849877,ES,ES52,ES521,03105,"Pinós, el / Pinoso",8025,126.43531893,2020,ES_03105,TRUE
ES_03106,-0.3442939510963909,38.78422969345338,ES,ES52,ES521,03106,Planes,682,38.87596244,2020,ES_03106,TRUE
ES_03107,-0.1346173000534855,38.62156021163486,ES,ES52,ES521,03107,Polop,5064,22.56423415,2020,ES_03107,TRUE
ES_03109,-0.8474761721200441,38.107269200681564,ES,ES52,ES521,03109,Rafal,4553,1.57556047,2020,ES_03109,TRUE
ES_03110,-0.050189361156602635,38.825489190199306,ES,ES52,ES521,03110,"Ràfol d'Almúnia, el",648,4.87107592,2020,ES_03110,TRUE
ES_03111,-0.9070027686831406,38.1136402105615,ES,ES52,ES521,03111,Redován,7926,9.43360593,2020,ES_03111,TRUE
ES_03112,-0.3129843499680023,38.58660970129405,ES,ES52,ES521,03112,Relleu,1148,76.89830048,2020,ES_03112,TRUE
ES_03113,-0.7165005427927528,38.075608034916385,ES,ES52,ES521,03113,Rojales,16671,27.74016142,2020,ES_03113,TRUE
ES_03114,-0.8996257750587521,38.36624281331045,ES,ES52,ES521,03114,"Romana, la",2492,43.29724602,2020,ES_03114,TRUE
ES_03115,-0.06712324421566777,38.81371548165603,ES,ES52,ES521,03115,Sagra,426,5.62560748,2020,ES_03115,TRUE
ES_03116,-0.9139409074345138,38.5201907386709,ES,ES52,ES521,03116,Salinas,1620,61.76271363,2020,ES_03116,TRUE
ES_03117,-0.031630607377401525,38.81802570031317,ES,ES52,ES521,03117,Sanet y Negrals,690,3.94676474,2020,ES_03117,TRUE
ES_03118,-0.6825493596297856,38.13285013165341,ES,ES52,ES521,03118,San Fulgencio,8071,20.65961371,2020,ES_03118,TRUE
ES_03119,-0.4345965813030661,38.40015323973468,ES,ES52,ES521,03119,Sant Joan d'Alacant,24367,9.6332889,2020,ES_03119,TRUE
ES_03120,-0.7909503266929359,37.97331201120208,ES,ES52,ES521,03120,San Miguel de Salinas,6313,54.90194,2020,ES_03120,TRUE
ES_03121,-0.5545735478123718,38.19818403523822,ES,ES52,ES521,03121,Santa Pola,33303,58.54555928,2020,ES_03121,TRUE
ES_03122,-0.5234507327644131,38.39786408126958,ES,ES52,ES521,03122,San Vicente del Raspeig / Sant Vicent del Raspeig,58978,40.5403927,2020,ES_03122,TRUE
ES_03123,-0.8210959983474293,38.53620675726704,ES,ES52,ES521,03123,Sax,9859,63.49711909,2020,ES_03123,TRUE
ES_03124,-0.27120187826823083,38.609592991794585,ES,ES52,ES521,03124,Sella,577,38.71450227,2020,ES_03124,TRUE
ES_03125,0.04486286183025115,38.72872189669708,ES,ES52,ES521,03125,Senija,583,4.78787718,2020,ES_03125,TRUE
ES_03127,-0.09924372023276905,38.69209512432677,ES,ES52,ES521,03127,Tàrbena,623,31.64371164,2020,ES_03127,TRUE
ES_03128,0.1049450679697919,38.7264759764323,ES,ES52,ES521,03128,Teulada,11278,32.20713018,2020,ES_03128,TRUE
ES_03129,-0.5798326798392897,38.53060009901107,ES,ES52,ES521,03129,Tibi,1662,70.41288646,2020,ES_03129,TRUE
ES_03130,-0.27089854379645834,38.75570896601566,ES,ES52,ES521,03130,Tollos,35,15.98993631,2020,ES_03130,TRUE
ES_03131,-0.07046502337611714,38.804342443099415,ES,ES52,ES521,03131,Tormos,318,5.35736841,2020,ES_03131,TRUE
ES_03132,-0.42103857431076724,38.608157303566195,ES,ES52,ES521,03132,"Torremanzanas / Torre de les Maçanes, la",636,36.51159349,2020,ES_03132,TRUE
ES_03133,-0.6811010472458752,37.983476760927964,ES,ES52,ES521,03133,Torrevieja,84667,71.8008793,2020,ES_03133,TRUE
ES_03134,-0.25516187171664845,38.792436810314044,ES,ES52,ES521,03134,"Vall d'Alcalà, la",160,22.84259013,2020,ES_03134,TRUE
ES_03135,-0.16280805624583936,38.80370966805252,ES,ES52,ES521,03135,"Vall d'Ebo, la",218,32.41608204,2020,ES_03135,TRUE
ES_03136,-0.2318965807408086,38.82198194163633,ES,ES52,ES521,03136,Vall de Gallinera,527,53.61833527,2020,ES_03136,TRUE
ES_03137,-0.11301751844283667,38.776581201183134,ES,ES52,ES521,03137,"Vall de Laguar, la",827,23.08108188,2020,ES_03137,TRUE
ES_03138,0.005363420164061582,38.846421486880466,ES,ES52,ES521,03138,"Verger, el",4709,8.14417426,2020,ES_03138,TRUE
ES_03139,-0.2196555829275997,38.51319025816107,ES,ES52,ES521,03139,"Villajoyosa / Vila Joiosa, la",35199,59.2619071,2020,ES_03139,TRUE
ES_03140,-0.8638111056537343,38.635795642622995,ES,ES52,ES521,03140,Villena,34155,345.32105406,2020,ES_03140,TRUE
ES_03901,0.014517525308634175,38.853442057034336,ES,ES52,ES521,03901,"Poblets, els",2714,3.62264626,2020,ES_03901,TRUE
ES_03902,-0.793268989350576,37.8655564023024,ES,ES52,ES521,03902,Pilar de la Horadada,22347,77.8597823,2020,ES_03902,TRUE
ES_03903,-0.7428682849861423,38.028462115971145,ES,ES52,ES521,03903,"Montesinos, Los",5061,14.97489299,2020,ES_03903,TRUE
ES_03904,-0.8423860198997959,38.172270998260394,ES,ES52,ES521,03904,San Isidro,2103,11.72549058,2020,ES_03904,TRUE
ES_04001,-2.7767740195592236,37.14318746424292,ES,ES61,ES611,04001,Abla,1248,45.22297305,2020,ES_04001,TRUE
ES_04002,-2.7971767548827033,37.13128140554829,ES,ES61,ES611,04002,Abrucena,1183,83.67163985,2020,ES_04002,TRUE
ES_04003,-3.0155252262832124,36.75239518252972,ES,ES61,ES611,04003,Adra,25412,90.0440954,2020,ES_04003,TRUE
ES_04004,-2.178579418756364,37.28690638296184,ES,ES61,ES611,04004,Albánchez,687,34.88564729,2020,ES_04004,TRUE
ES_04005,-2.6210770395921763,37.03597012337642,ES,ES61,ES611,04005,Alboloduy,609,69.77094047,2020,ES_04005,TRUE
ES_04006,-2.1441611192723156,37.38844138193613,ES,ES61,ES611,04006,Albox,12083,168.44513863,2020,ES_04006,TRUE
ES_04007,-2.9608487220434294,36.97075831331079,ES,ES61,ES611,04007,Alcolea,844,67.53161501,2020,ES_04007,TRUE
ES_04008,-2.597047321213871,37.38138761912445,ES,ES61,ES611,04008,Alcóntar,514,93.91720647,2020,ES_04008,TRUE
ES_04009,-2.2589870888814816,37.23036959639093,ES,ES61,ES611,04009,Alcudia de Monteagud,138,15.51196381,2020,ES_04009,TRUE
ES_04010,-2.589821848163841,36.9883937350579,ES,ES61,ES611,04010,Alhabia,677,16.38558323,2020,ES_04010,TRUE
ES_04011,-2.571845472693958,36.9595434947402,ES,ES61,ES611,04011,Alhama de Almería,3691,26.26343791,2020,ES_04011,TRUE
ES_04012,-2.598395247829689,36.96564430494947,ES,ES61,ES611,04012,Alicún,201,5.86543158,2020,ES_04012,TRUE
ES_04013,-2.4523781609170223,36.84271908528168,ES,ES61,ES611,04013,Almería,201322,296.27855801,2020,ES_04013,TRUE
ES_04014,-2.786753966116397,37.004282042130356,ES,ES61,ES611,04014,Almócita,176,30.81511191,2020,ES_04014,TRUE
ES_04015,-2.5921470638665682,37.00068149374955,ES,ES61,ES611,04015,Alsodux,125,20.10712348,2020,ES_04015,TRUE
ES_04016,-1.922632904509598,37.24705223162057,ES,ES61,ES611,04016,Antas,3315,99.78621144,2020,ES_04016,TRUE
ES_04017,-2.080357411860379,37.35072687406042,ES,ES61,ES611,04017,Arboleas,4624,66.14420661,2020,ES_04017,TRUE
ES_04018,-2.4108912102003766,37.34817198525596,ES,ES61,ES611,04018,Armuña de Almanzora,300,7.72337922,2020,ES_04018,TRUE
ES_04019,-2.456904133322423,37.25951954598374,ES,ES61,ES611,04019,Bacares,250,94.48460312,2020,ES_04019,TRUE
ES_04020,-2.993840717442043,37.030793331455406,ES,ES61,ES611,04020,Bayárcal,312,38.03582295,2020,ES_04020,TRUE
ES_04021,-2.43576507432877,37.326618206283385,ES,ES61,ES611,04021,Bayarque,216,26.71853674,2020,ES_04021,TRUE
ES_04022,-1.9809711835616854,37.19272240349014,ES,ES61,ES611,04022,Bédar,984,46.71172623,2020,ES_04022,TRUE
ES_04023,-2.7864844921551515,37.011806530410766,ES,ES61,ES611,04023,Beires,120,38.82665726,2020,ES_04023,TRUE
ES_04024,-2.461343488940484,36.92581173030122,ES,ES61,ES611,04024,Benahadux,4481,16.60676099,2020,ES_04024,TRUE
ES_04026,-2.237424828563171,37.23340232978848,ES,ES61,ES611,04026,Benitagla,58,6.4100117,2020,ES_04026,TRUE
ES_04027,-2.223077649324909,37.19478245863102,ES,ES61,ES611,04027,Benizalón,262,31.97165032,2020,ES_04027,TRUE
ES_04028,-2.624062436885147,36.98968869944136,ES,ES61,ES611,04028,Bentarique,240,11.36399805,2020,ES_04028,TRUE
ES_04029,-2.9475723443911415,36.844286546103945,ES,ES61,ES611,04029,Berja,12563,185.76838838,2020,ES_04029,TRUE
ES_04030,-2.7409636777095057,37.010498281072444,ES,ES61,ES611,04030,Canjáyar,1189,66.91359182,2020,ES_04030,TRUE
ES_04031,-2.186289652360813,37.34950682557106,ES,ES61,ES611,04031,Cantoria,3365,78.98933729,2020,ES_04031,TRUE
ES_04032,-1.8938457044706738,37.002096368356575,ES,ES61,ES611,04032,Carboneras,8105,95.46200381,2020,ES_04032,TRUE
ES_04033,-2.4447237818988987,37.187802153708574,ES,ES61,ES611,04033,Castro de Filabres,120,29.21087063,2020,ES_04033,TRUE
ES_04034,-2.2086559476044862,37.26446903348546,ES,ES61,ES611,04034,Cóbdar,178,31.98416953,2020,ES_04034,TRUE
ES_04035,-1.869097631997014,37.29257301666629,ES,ES61,ES611,04035,Cuevas del Almanzora,14455,264.46370814,2020,ES_04035,TRUE
ES_04036,-2.255860542752982,37.26742977209944,ES,ES61,ES611,04036,Chercos,298,13.55469887,2020,ES_04036,TRUE
ES_04037,-2.2702823118429487,37.59572350222313,ES,ES61,ES611,04037,Chirivel,1489,196.45841786,2020,ES_04037,TRUE
ES_04038,-2.8735567555641004,36.82102490906651,ES,ES61,ES611,04038,Dalías,4066,141.44500105,2020,ES_04038,TRUE
ES_04041,-2.603551049542713,36.87363027705751,ES,ES61,ES611,04041,Enix,514,66.86329786,2020,ES_04041,TRUE
ES_04043,-2.658006993675231,36.86590591654922,ES,ES61,ES611,04043,Felix,636,81.25145886,2020,ES_04043,TRUE
ES_04044,-2.260047552248349,37.35869778416426,ES,ES61,ES611,04044,Fines,2104,23.08271052,2020,ES_04044,TRUE
ES_04045,-2.8389967446464235,37.171325476470884,ES,ES61,ES611,04045,Fiñana,1984,133.97444229,2020,ES_04045,TRUE
ES_04046,-2.862001777754123,36.98013131076696,ES,ES61,ES611,04046,Fondón,994,91.11587695,2020,ES_04046,TRUE
ES_04047,-2.4925523226095776,36.95221582745143,ES,ES61,ES611,04047,Gádor,3034,87.66888005,2020,ES_04047,TRUE
ES_04048,-1.9418476132096685,37.16938284153171,ES,ES61,ES611,04048,"Gallardos, Los",2902,34.8478737,2020,ES_04048,TRUE
ES_04049,-1.822262068470537,37.18371731903308,ES,ES61,ES611,04049,Garrucha,9520,7.6677897,2020,ES_04049,TRUE
ES_04050,-2.5443737713217716,37.121765259870784,ES,ES61,ES611,04050,Gérgal,1080,229.56395234,2020,ES_04050,TRUE
ES_04051,-2.608171715892617,36.96478981781426,ES,ES61,ES611,04051,Huécija,486,19.02521459,2020,ES_04051,TRUE
ES_04052,-2.4425371294142875,36.88186253604398,ES,ES61,ES611,04052,Huércal de Almería,17917,20.91128763,2020,ES_04052,TRUE
ES_04053,-1.9450928269729766,37.392130019072226,ES,ES61,ES611,04053,Huércal-Overa,19432,318.11364075,2020,ES_04053,TRUE
ES_04054,-2.635450940482205,36.98815128093986,ES,ES61,ES611,04054,Íllar,405,19.1699725,2020,ES_04054,TRUE
ES_04055,-2.658763652029172,36.99416576916549,ES,ES61,ES611,04055,Instinción,448,33.51698227,2020,ES_04055,TRUE
ES_04056,-2.327867464741311,37.29484046524787,ES,ES61,ES611,04056,Laroya,198,21.6986162,2020,ES_04056,TRUE
ES_04057,-2.894576578479627,36.992024383831186,ES,ES61,ES611,04057,Láujar de Andarax,1527,92.88229802,2020,ES_04057,TRUE
ES_04058,-2.2138009346658762,37.29183299228271,ES,ES61,ES611,04058,Líjar,394,28.23896126,2020,ES_04058,TRUE
ES_04059,-2.0640897467022405,37.22047120624743,ES,ES61,ES611,04059,Lubrín,1449,138.17926654,2020,ES_04059,TRUE
ES_04060,-2.195298843063803,37.03654211543911,ES,ES61,ES611,04060,Lucainena de las Torres,564,123.22093760999999,2020,ES_04060,TRUE
ES_04061,-2.4292668834196443,37.39622853787914,ES,ES61,ES611,04061,Lúcar,760,100.67467324,2020,ES_04061,TRUE
ES_04062,-2.3009901405400885,37.33450554719507,ES,ES61,ES611,04062,Macael,5480,43.804659,2020,ES_04062,TRUE
ES_04063,-2.164784451322253,37.71137176045494,ES,ES61,ES611,04063,María,1230,225.56901257,2020,ES_04063,TRUE
ES_04064,-1.8387754954571724,37.138644095909804,ES,ES61,ES611,04064,Mojácar,6778,71.58096502,2020,ES_04064,TRUE
ES_04065,-2.645097687670705,37.106069964051954,ES,ES61,ES611,04065,Nacimiento,496,80.78260423,2020,ES_04065,TRUE
ES_04066,-2.147973693420181,36.919164455889494,ES,ES61,ES611,04066,Níjar,31666,599.83225342,2020,ES_04066,TRUE
ES_04067,-2.745904475379794,37.03736254250405,ES,ES61,ES611,04067,Ohanes,558,32.40843217,2020,ES_04067,TRUE
ES_04068,-2.4763628689448076,37.17442893509273,ES,ES61,ES611,04068,Olula de Castro,191,33.56869538,2020,ES_04068,TRUE
ES_04069,-2.296236504153655,37.355616669107626,ES,ES61,ES611,04069,Olula del Río,6256,23.50734751,2020,ES_04069,TRUE
ES_04070,-2.2879303983856123,37.48426232582061,ES,ES61,ES611,04070,Oria,2239,234.72748641,2020,ES_04070,TRUE
ES_04071,-2.7725680166783264,36.997141456263954,ES,ES61,ES611,04071,Padules,414,26.52794355,2020,ES_04071,TRUE
ES_04072,-2.219311039356847,37.40542524396975,ES,ES61,ES611,04072,Partaloa,1035,52.59227705,2020,ES_04072,TRUE
ES_04073,-2.9564538129569433,37.01861307834907,ES,ES61,ES611,04073,Paterna del Río,365,45.47934578,2020,ES_04073,TRUE
ES_04074,-2.4406431073634245,36.914410381764576,ES,ES61,ES611,04074,Pechina,4103,46.02471081,2020,ES_04074,TRUE
ES_04075,-1.7446341857008423,37.404960141573355,ES,ES61,ES611,04075,Pulpí,10358,94.72284794,2020,ES_04075,TRUE
ES_04076,-2.3596961041811526,37.34568801881528,ES,ES61,ES611,04076,Purchena,1664,56.62402236,2020,ES_04076,TRUE
ES_04077,-2.6808446138725572,36.99118344002962,ES,ES61,ES611,04077,Rágol,303,26.9234806,2020,ES_04077,TRUE
ES_04078,-2.4615205435475187,36.94705833666036,ES,ES61,ES611,04078,Rioja,1453,36.42486794,2020,ES_04078,TRUE
ES_04079,-2.6089091667012867,36.772780276581955,ES,ES61,ES611,04079,Roquetas de Mar,98433,59.64799073,2020,ES_04079,TRUE
ES_04080,-2.6067998593381128,37.019452711150656,ES,ES61,ES611,04080,Santa Cruz de Marchena,199,19.91259779,2020,ES_04080,TRUE
ES_04081,-2.529568991602061,36.97390792170371,ES,ES61,ES611,04081,Santa Fe de Mondújar,461,34.88761368,2020,ES_04081,TRUE
ES_04082,-2.344825713277054,37.20071173453541,ES,ES61,ES611,04082,Senés,289,50.227763,2020,ES_04082,TRUE
ES_04083,-2.507905757489628,37.345585106435806,ES,ES61,ES611,04083,Serón,2033,166.24862687,2020,ES_04083,TRUE
ES_04084,-2.400806471307413,37.32192800738713,ES,ES61,ES611,04084,Sierro,379,27.63836343,2020,ES_04084,TRUE
ES_04085,-2.390140060107527,37.388746395522595,ES,ES61,ES611,04085,Somontín,443,16.17658528,2020,ES_04085,TRUE
ES_04086,-2.1229019053437135,37.1023023067614,ES,ES61,ES611,04086,Sorbas,2436,249.15201247,2020,ES_04086,TRUE
ES_04087,-2.3929438211132217,37.34127331703543,ES,ES61,ES611,04087,Suflí,196,10.07987746,2020,ES_04087,TRUE
ES_04088,-2.389174449757811,37.05099627123251,ES,ES61,ES611,04088,Tabernas,3717,280.33071128,2020,ES_04088,TRUE
ES_04089,-2.070784496529905,37.4665640350668,ES,ES61,ES611,04089,Taberno,974,44.06427995,2020,ES_04089,TRUE
ES_04090,-2.2816797278772984,37.22717325956957,ES,ES61,ES611,04090,Tahal,336,94.6538532,2020,ES_04090,TRUE
ES_04091,-2.598415328806431,36.98398226684865,ES,ES61,ES611,04091,Terque,365,15.68468826,2020,ES_04091,TRUE
ES_04092,-2.4387276221782366,37.34445797368257,ES,ES61,ES611,04092,Tíjola,3548,67.35379813,2020,ES_04092,TRUE
ES_04093,-1.8942561104322613,37.149500546293744,ES,ES61,ES611,04093,Turre,3781,107.95544886,2020,ES_04093,TRUE
ES_04094,-2.268957259244663,37.02779581929252,ES,ES61,ES611,04094,Turrillas,248,39.18361562,2020,ES_04094,TRUE
ES_04095,-2.205714739161708,37.18255260754282,ES,ES61,ES611,04095,Uleila del Campo,822,38.67346615,2020,ES_04095,TRUE
ES_04096,-2.3691892905983183,37.39893456027428,ES,ES61,ES611,04096,Urrácal,350,25.47685326,2020,ES_04096,TRUE
ES_04097,-2.4004311517096473,37.19369125346531,ES,ES61,ES611,04097,Velefique,230,66.53654852,2020,ES_04097,TRUE
ES_04098,-2.0939320880614893,37.692676917791914,ES,ES61,ES611,04098,Vélez-Blanco,1874,441.31522086,2020,ES_04098,TRUE
ES_04099,-2.0733704710620944,37.64836945172397,ES,ES61,ES611,04099,Vélez-Rubio,6546,282.11237366,2020,ES_04099,TRUE
ES_04100,-1.86533613575505,37.24447600211537,ES,ES61,ES611,04100,Vera,16996,57.46966254,2020,ES_04100,TRUE
ES_04101,-2.424967233094983,36.887988466709615,ES,ES61,ES611,04101,Viator,5978,20.60646454,2020,ES_04101,TRUE
ES_04102,-2.6297806160451462,36.805017255696136,ES,ES61,ES611,04102,Vícar,26899,64.37819632,2020,ES_04102,TRUE
ES_04103,-2.041445360681362,37.35067932786886,ES,ES61,ES611,04103,Zurgena,2956,71.65692314,2020,ES_04103,TRUE
ES_04901,-2.728015397361991,37.1517088239213,ES,ES61,ES611,04901,"Tres Villas, Las",565,85.349314,2020,ES_04901,TRUE
ES_04902,-2.809880709293626,36.771096671002056,ES,ES61,ES611,04902,"Ejido, El",83758,225.8563477,2020,ES_04902,TRUE
ES_04903,-2.6834770253601334,36.754199102083305,ES,ES61,ES611,04903,"Mojonera, La",9191,23.86991732,2020,ES_04903,TRUE
ES_04904,-2.9076633325897774,36.749276777983866,ES,ES61,ES611,04904,Balanegra,3105,31.61070915,2020,ES_04904,TRUE
ES_05001,-4.6027916942011196,40.94306028307508,ES,ES41,ES411,05001,Adanero,211,31.4219946,2020,ES_05001,TRUE
ES_05002,-4.633166329248999,40.300473577723,ES,ES41,ES411,05002,"Adrada, La",2539,58.68046649,2020,ES_05002,TRUE
ES_05005,-4.879372036959579,40.83725695157198,ES,ES41,ES411,05005,Albornos,177,17.08817902,2020,ES_05005,TRUE
ES_05007,-5.419201797306502,40.385888742764244,ES,ES41,ES411,05007,Aldeanueva de Santa Cruz,117,8.47189067,2020,ES_05007,TRUE
ES_05008,-4.821240065028381,41.047823206028774,ES,ES41,ES411,05008,Aldeaseca,228,24.24579237,2020,ES_05008,TRUE
ES_05010,-5.4123536712848015,40.408296491378884,ES,ES41,ES411,05010,"Aldehuela, La",153,17.11833451,2020,ES_05010,TRUE
ES_05012,-5.064155431396277,40.57039912002864,ES,ES41,ES411,05012,Amavida,127,15.00797567,2020,ES_05012,TRUE
ES_05013,-5.0894424359217165,40.26352441481287,ES,ES41,ES411,05013,"Arenal, El",948,27.10470705,2020,ES_05013,TRUE
ES_05014,-5.086638177050883,40.20897923703835,ES,ES41,ES411,05014,Arenas de San Pedro,6344,194.63560811,2020,ES_05014,TRUE
ES_05015,-5.372524989691212,40.58652654468664,ES,ES41,ES411,05015,Arevalillo,69,14.97639993,2020,ES_05015,TRUE
ES_05016,-4.715376720647976,41.05603326475724,ES,ES41,ES411,05016,Arévalo,7960,45.69718269,2020,ES_05016,TRUE
ES_05017,-4.8409812856066985,40.778879846698395,ES,ES41,ES411,05017,Aveinte,83,12.84807758,2020,ES_05017,TRUE
ES_05018,-5.394395359597456,40.39022605649212,ES,ES41,ES411,05018,Avellaneda,26,10.25885169,2020,ES_05018,TRUE
ES_05019,-4.692701630953434,40.65385224364201,ES,ES41,ES411,05019,Ávila,58369,230.68098597,2020,ES_05019,TRUE
ES_05021,-5.52135528361176,40.36017405733798,ES,ES41,ES411,05021,"Barco de Ávila, El",2330,12.7032463,2020,ES_05021,TRUE
ES_05022,-4.640520897857789,40.478875873467025,ES,ES41,ES411,05022,"Barraco, El",1893,153.85425677,2020,ES_05022,TRUE
ES_05023,-4.9349174550460555,41.06727731872269,ES,ES41,ES411,05023,Barromán,185,20.03004942,2020,ES_05023,TRUE
ES_05024,-5.639715813000473,40.405545649623775,ES,ES41,ES411,05024,Becedas,191,32.17323321,2020,ES_05024,TRUE
ES_05025,-5.3248343270920255,40.53904345972001,ES,ES41,ES411,05025,Becedillas,80,19.87071989,2020,ES_05025,TRUE
ES_05026,-4.965659183451689,41.044250632028444,ES,ES41,ES411,05026,Bercial de Zapardiel,197,17.29378486,2020,ES_05026,TRUE
ES_05027,-4.761809898303793,40.79984425961943,ES,ES41,ES411,05027,"Berlanas, Las",329,16.69670537,2020,ES_05027,TRUE
ES_05029,-4.935737433530516,40.97543060709483,ES,ES41,ES411,05029,Bernuy-Zapardiel,97,19.77489407,2020,ES_05029,TRUE
ES_05030,-4.592995175169893,40.696995629538684,ES,ES41,ES411,05030,Berrocalejo de Aragona,49,9.00976058,2020,ES_05030,TRUE
ES_05033,-5.0903291997629685,40.80360803917208,ES,ES41,ES411,05033,Blascomillán,181,39.59060928,2020,ES_05033,TRUE
ES_05034,-4.985066807755105,41.12384189191234,ES,ES41,ES411,05034,Blasconuño de Matacabras,14,12.97764103,2020,ES_05034,TRUE
ES_05035,-4.626041719022602,40.87931328742745,ES,ES41,ES411,05035,Blascosancho,96,22.94447664,2020,ES_05035,TRUE
ES_05036,-4.728982239235563,40.91515400709525,ES,ES41,ES411,05036,"Bohodón, El",117,22.05366438,2020,ES_05036,TRUE
ES_05037,-5.4374349833356534,40.3182906498134,ES,ES41,ES411,05037,Bohoyo,232,73.86544974,2020,ES_05037,TRUE
ES_05038,-5.258810911230171,40.535399349720294,ES,ES41,ES411,05038,Bonilla de la Sierra,125,55.0341694,2020,ES_05038,TRUE
ES_05039,-4.914220974199513,40.77435924347425,ES,ES41,ES411,05039,Brabos,43,18.33296199,2020,ES_05039,TRUE
ES_05040,-4.8460176234178265,40.73989155425731,ES,ES41,ES411,05040,Bularros,66,30.74505135,2020,ES_05040,TRUE
ES_05041,-4.784749203297745,40.411577763989186,ES,ES41,ES411,05041,Burgohondo,1180,55.3332309,2020,ES_05041,TRUE
ES_05042,-4.842587256759141,40.943720968776894,ES,ES41,ES411,05042,Cabezas de Alambre,161,11.78808273,2020,ES_05042,TRUE
ES_05043,-4.95500197554413,41.000013387748155,ES,ES41,ES411,05043,Cabezas del Pozo,70,17.97282477,2020,ES_05043,TRUE
ES_05044,-5.210902087967237,40.71286593699284,ES,ES41,ES411,05044,Cabezas del Villar,257,110.05946738,2020,ES_05044,TRUE
ES_05045,-4.798602137659521,40.9043208285406,ES,ES41,ES411,05045,Cabizuela,79,19.18359229,2020,ES_05045,TRUE
ES_05046,-4.894771174821611,41.00009194862648,ES,ES41,ES411,05046,Canales,42,6.66981342,2020,ES_05046,TRUE
ES_05047,-5.2451475175452495,40.157004266250695,ES,ES41,ES411,05047,Candeleda,5025,213.93337279,2020,ES_05047,TRUE
ES_05048,-4.955834289962289,40.954023202811044,ES,ES41,ES411,05048,Cantiveros,98,14.38457099,2020,ES_05048,TRUE
ES_05049,-4.747157977145712,40.7384842505825,ES,ES41,ES411,05049,Cardeñosa,435,40.48916913,2020,ES_05049,TRUE
ES_05051,-5.553641569158121,40.34709785874941,ES,ES41,ES411,05051,"Carrera, La",167,14.16921935,2020,ES_05051,TRUE
ES_05052,-5.202441501432516,40.53056919813638,ES,ES41,ES411,05052,Casas del Puerto,85,22.16942956,2020,ES_05052,TRUE
ES_05053,-4.824450685198767,40.66852555759369,ES,ES41,ES411,05053,Casasola,73,18.35334882,2020,ES_05053,TRUE
ES_05054,-4.770391754073736,40.284778604269135,ES,ES41,ES411,05054,Casavieja,1434,39.25778932,2020,ES_05054,TRUE
ES_05055,-4.573410142198119,40.32399782550766,ES,ES41,ES411,05055,Casillas,640,12.00458071,2020,ES_05055,TRUE
ES_05056,-4.913769433920907,41.080682894471224,ES,ES41,ES411,05056,Castellanos de Zapardiel,94,12.70011838,2020,ES_05056,TRUE
ES_05057,-4.465485385541929,40.4587432013634,ES,ES41,ES411,05057,Cebreros,3152,137.94430284,2020,ES_05057,TRUE
ES_05058,-5.0526288003369135,40.45818340065722,ES,ES41,ES411,05058,Cepeda la Mora,74,31.42113116,2020,ES_05058,TRUE
ES_05059,-4.979519351700615,40.70270199667241,ES,ES41,ES411,05059,Cillán,88,14.17893903,2020,ES_05059,TRUE
ES_05060,-5.017474550454056,40.96296606872713,ES,ES41,ES411,05060,Cisla,98,20.31119483,2020,ES_05060,TRUE
ES_05061,-4.760983953625638,40.64441147467157,ES,ES41,ES411,05061,"Colilla, La",335,10.81740629,2020,ES_05061,TRUE
ES_05062,-4.929271299071885,40.88489001103431,ES,ES41,ES411,05062,Collado de Contreras,160,18.44096427,2020,ES_05062,TRUE
ES_05063,-5.352220595057904,40.552997672754,ES,ES41,ES411,05063,Collado del Mirón,31,4.83472913,2020,ES_05063,TRUE
ES_05064,-4.880233391155753,40.938367858471345,ES,ES41,ES411,05064,Constanzana,105,26.85988982,2020,ES_05064,TRUE
ES_05065,-4.971292941430585,40.86843240363931,ES,ES41,ES411,05065,Crespos,493,31.91657364,2020,ES_05065,TRUE
ES_05066,-5.013317438304464,40.29372814975433,ES,ES41,ES411,05066,Cuevas del Valle,475,19.17438438,2020,ES_05066,TRUE
ES_05067,-4.9556031425383535,40.70346750616918,ES,ES41,ES411,05067,Chamartín,74,15.4444814,2020,ES_05067,TRUE
ES_05069,-4.848741673015309,40.96113085977143,ES,ES41,ES411,05069,Donjimeno,77,14.76765594,2020,ES_05069,TRUE
ES_05070,-4.8064023010419925,41.08674048915476,ES,ES41,ES411,05070,Donvidas,30,11.46806811,2020,ES_05070,TRUE
ES_05072,-4.6774728297003305,41.005388618899,ES,ES41,ES411,05072,Espinosa de los Caballeros,112,19.40557756,2020,ES_05072,TRUE
ES_05073,-5.082743526933081,40.9365228571047,ES,ES41,ES411,05073,Flores de Ávila,295,43.02738921,2020,ES_05073,TRUE
ES_05074,-4.961548371334438,40.92750511662067,ES,ES41,ES411,05074,Fontiveros,749,36.39823126,2020,ES_05074,TRUE
ES_05075,-4.623753322781297,40.233891422193956,ES,ES41,ES411,05075,Fresnedilla,107,24.55831668,2020,ES_05075,TRUE
ES_05076,-4.754626447291455,40.617677705027674,ES,ES41,ES411,05076,"Fresno, El",582,13.09069747,2020,ES_05076,TRUE
ES_05077,-4.9134379526045695,40.97883262102742,ES,ES41,ES411,05077,Fuente el Saúz,159,9.81120733,2020,ES_05077,TRUE
ES_05078,-4.898720236327401,41.017727466326455,ES,ES41,ES411,05078,Fuentes de Año,95,20.00935791,2020,ES_05078,TRUE
ES_05079,-4.907905726915747,40.712330425069055,ES,ES41,ES411,05079,Gallegos de Altamiros,66,20.47710704,2020,ES_05079,TRUE
ES_05080,-5.119001851287742,40.70242885969761,ES,ES41,ES411,05080,Gallegos de Sobrinos,40,43.23419752,2020,ES_05080,TRUE
ES_05081,-5.1001688301643355,40.454232672438266,ES,ES41,ES411,05081,Garganta del Villar,39,18.1808534,2020,ES_05081,TRUE
ES_05082,-4.854523262969872,40.279757112697965,ES,ES41,ES411,05082,Gavilanes,563,29.14436829,2020,ES_05082,TRUE
ES_05083,-4.782678622497398,40.593843703685266,ES,ES41,ES411,05083,Gemuño,152,17.18269365,2020,ES_05083,TRUE
ES_05084,-5.605406250273056,40.41075505327078,ES,ES41,ES411,05084,Gilbuena,60,15.12285914,2020,ES_05084,TRUE
ES_05085,-5.591093185316337,40.296572535689826,ES,ES41,ES411,05085,Gil García,38,15.46158921,2020,ES_05085,TRUE
ES_05086,-5.117690547643975,40.87420014612192,ES,ES41,ES411,05086,Gimialcón,75,19.05198554,2020,ES_05086,TRUE
ES_05087,-4.74396384786337,40.826119868439314,ES,ES41,ES411,05087,Gotarrendura,170,10.63675876,2020,ES_05087,TRUE
ES_05088,-4.964794065760493,40.761770577708816,ES,ES41,ES411,05088,Grandes y San Martín,25,11.59077864,2020,ES_05088,TRUE
ES_05089,-5.139064357345625,40.21923906477062,ES,ES41,ES411,05089,Guisando,510,38.30095174,2020,ES_05089,TRUE
ES_05090,-4.636604947002387,40.98385065781549,ES,ES41,ES411,05090,Gutierre-Muñoz,75,22.17773749,2020,ES_05090,TRUE
ES_05092,-4.7279399405973646,40.860133074481375,ES,ES41,ES411,05092,Hernansancho,155,19.37582632,2020,ES_05092,TRUE
ES_05093,-4.505617067951288,40.59475673036617,ES,ES41,ES411,05093,Herradón de Pinares,419,48.36632135,2020,ES_05093,TRUE
ES_05094,-5.040074430550876,40.80351077802516,ES,ES41,ES411,05094,Herreros de Suso,129,21.52763807,2020,ES_05094,TRUE
ES_05095,-4.606994567730386,40.23628194511138,ES,ES41,ES411,05095,Higuera de las Dueñas,260,35.02005746,2020,ES_05095,TRUE
ES_05096,-4.964584995677945,40.53067356012133,ES,ES41,ES411,05096,"Hija de Dios, La",75,12.5132546,2020,ES_05096,TRUE
ES_05097,-5.467760253497604,40.43352612426132,ES,ES41,ES411,05097,"Horcajada, La",486,46.53834829,2020,ES_05097,TRUE
ES_05099,-5.091129335719891,41.06198977922192,ES,ES41,ES411,05099,Horcajo de las Torres,496,47.31809163,2020,ES_05099,TRUE
ES_05100,-5.0996848820637215,40.25282294087529,ES,ES41,ES411,05100,"Hornillo, El",277,23.25053776,2020,ES_05100,TRUE
ES_05101,-4.978830222756184,40.4000194242368,ES,ES41,ES411,05101,Hoyocasero,281,52.2693787,2020,ES_05101,TRUE
ES_05102,-4.426796449005421,40.50167969329211,ES,ES41,ES411,05102,"Hoyo de Pinares, El",2129,80.8463574,2020,ES_05102,TRUE
ES_05103,-5.414648415340528,40.45820731119327,ES,ES41,ES411,05103,Hoyorredondo,61,17.22882448,2020,ES_05103,TRUE
ES_05104,-5.196270610378348,40.35711418703996,ES,ES41,ES411,05104,Hoyos del Collado,33,9.90533565,2020,ES_05104,TRUE
ES_05105,-5.172179356032594,40.35624391343701,ES,ES41,ES411,05105,Hoyos del Espino,368,52.93530328,2020,ES_05105,TRUE
ES_05106,-5.0644252160279635,40.395983131755905,ES,ES41,ES411,05106,Hoyos de Miguel Muñoz,27,11.86650207,2020,ES_05106,TRUE
ES_05107,-5.104820495076132,40.69102747529071,ES,ES41,ES411,05107,Hurtumpascual,48,18.6148672,2020,ES_05107,TRUE
ES_05108,-5.557217826931994,40.41015495658545,ES,ES41,ES411,05108,Junciana,35,14.99780088,2020,ES_05108,TRUE
ES_05109,-4.859413091080607,41.00536594160203,ES,ES41,ES411,05109,Langa,480,24.43593383,2020,ES_05109,TRUE
ES_05110,-4.9325160261305845,40.205255209597965,ES,ES41,ES411,05110,Lanzahíta,811,33.6744947,2020,ES_05110,TRUE
ES_05112,-5.539472925478379,40.392227619162725,ES,ES41,ES411,05112,"Losar del Barco, El",107,19.53701798,2020,ES_05112,TRUE
ES_05113,-5.493094921178048,40.32835026845572,ES,ES41,ES411,05113,"Llanos de Tormes, Los",60,17.4558588,2020,ES_05113,TRUE
ES_05114,-5.000670766496434,41.08924661230813,ES,ES41,ES411,05114,Madrigal de las Altas Torres,1399,106.81555838,2020,ES_05114,TRUE
ES_05115,-4.519992666442888,40.81444375899588,ES,ES41,ES411,05115,Maello,590,65.3350088,2020,ES_05115,TRUE
ES_05116,-5.346800837130782,40.52492531282394,ES,ES41,ES411,05116,Malpartida de Corneja,96,19.04296555,2020,ES_05116,TRUE
ES_05117,-5.0083071236967625,41.01938796863937,ES,ES41,ES411,05117,Mamblas,200,24.04280626,2020,ES_05117,TRUE
ES_05118,-5.144838663442581,40.78781728801057,ES,ES41,ES411,05118,Mancera de Arriba,69,17.59574069,2020,ES_05118,TRUE
ES_05119,-5.057761530307835,40.670164805524294,ES,ES41,ES411,05119,Manjabálago y Ortigosa de Rioalmar,24,17.0268295,2020,ES_05119,TRUE
ES_05120,-4.824260883013734,40.708084550368795,ES,ES41,ES411,05120,Marlín,32,6.39125718,2020,ES_05120,TRUE
ES_05121,-4.780653854038059,40.67661675001749,ES,ES41,ES411,05121,Martiherrero,314,22.79791418,2020,ES_05121,TRUE
ES_05122,-5.346496834575128,40.6273592942837,ES,ES41,ES411,05122,Martínez,113,18.06473517,2020,ES_05122,TRUE
ES_05123,-4.55828600631865,40.70217116242836,ES,ES41,ES411,05123,Mediana de Voltoya,114,18.38258929,2020,ES_05123,TRUE
ES_05124,-5.615288571521156,40.43768345127124,ES,ES41,ES411,05124,Medinilla,91,22.88442569,2020,ES_05124,TRUE
ES_05125,-5.004376571827324,40.49854166645857,ES,ES41,ES411,05125,Mengamuñoz,61,11.76019881,2020,ES_05125,TRUE
ES_05126,-5.304390981701888,40.505163707669276,ES,ES41,ES411,05126,Mesegar de Corneja,57,10.30812288,2020,ES_05126,TRUE
ES_05127,-4.833986460173727,40.29398406930118,ES,ES41,ES411,05127,Mijares,694,46.9890616,2020,ES_05127,TRUE
ES_05128,-4.6657223160037615,40.75030975744741,ES,ES41,ES411,05128,Mingorría,373,30.72019066,2020,ES_05128,TRUE
ES_05129,-5.4077587351551575,40.53546571524899,ES,ES41,ES411,05129,"Mirón, El",118,31.08246073,2020,ES_05129,TRUE
ES_05130,-4.823291865790141,40.552246326287225,ES,ES41,ES411,05130,Mironcillo,106,15.23649545,2020,ES_05130,TRUE
ES_05131,-5.095269874098762,40.73993319262448,ES,ES41,ES411,05131,Mirueña de los Infanzones,94,31.21783213,2020,ES_05131,TRUE
ES_05132,-5.016815708817183,40.25810358378136,ES,ES41,ES411,05132,Mombeltrán,942,49.90484342,2020,ES_05132,TRUE
ES_05133,-4.779675339339541,40.76981988027011,ES,ES41,ES411,05133,Monsalupe,62,17.71311214,2020,ES_05133,TRUE
ES_05134,-4.957373224667322,41.1097185300364,ES,ES41,ES411,05134,Moraleja de Matacabras,49,14.906922,2020,ES_05134,TRUE
ES_05135,-5.011877078317792,40.58776970228034,ES,ES41,ES411,05135,Muñana,371,33.60828578,2020,ES_05135,TRUE
ES_05136,-5.028125625725996,40.70453364869963,ES,ES41,ES411,05136,Muñico,86,13.27694413,2020,ES_05136,TRUE
ES_05138,-4.89713906603561,40.60458910529565,ES,ES41,ES411,05138,Muñogalindo,326,18.79259664,2020,ES_05138,TRUE
ES_05139,-4.942107431198439,40.8133726241569,ES,ES41,ES411,05139,Muñogrande,70,16.17850805,2020,ES_05139,TRUE
ES_05140,-4.879723885041637,40.85555313436913,ES,ES41,ES411,05140,Muñomer del Peco,109,10.08341971,2020,ES_05140,TRUE
ES_05141,-4.818770580971234,40.635459113118536,ES,ES41,ES411,05141,Muñopepe,101,6.03819596,2020,ES_05141,TRUE
ES_05142,-5.033097726538191,40.923881558299314,ES,ES41,ES411,05142,Muñosancho,91,19.73146465,2020,ES_05142,TRUE
ES_05143,-5.0383525612555475,40.54362429722222,ES,ES41,ES411,05143,Muñotello,58,19.94461823,2020,ES_05143,TRUE
ES_05144,-5.4526390937357005,40.56802468309488,ES,ES41,ES411,05144,Narrillos del Álamo,72,29.34106528,2020,ES_05144,TRUE
ES_05145,-4.969524359040451,40.668145617065974,ES,ES41,ES411,05145,Narrillos del Rebollar,43,17.40262979,2020,ES_05145,TRUE
ES_05147,-5.063227307142281,40.85504824598769,ES,ES41,ES411,05147,Narros del Castillo,151,33.59718128,2020,ES_05147,TRUE
ES_05148,-4.990231293209678,40.54508491357153,ES,ES41,ES411,05148,Narros del Puerto,23,10.38188093,2020,ES_05148,TRUE
ES_05149,-4.864689063207139,40.87599653709285,ES,ES41,ES411,05149,Narros de Saldueña,106,9.42229072,2020,ES_05149,TRUE
ES_05151,-5.18014595320643,40.48815239546788,ES,ES41,ES411,05151,Navacepedilla de Corneja,94,29.48952711,2020,ES_05151,TRUE
ES_05152,-4.779515449761086,40.983452273352015,ES,ES41,ES411,05152,Nava de Arévalo,718,58.25993082,2020,ES_05152,TRUE
ES_05153,-5.540257657477348,40.293525762270846,ES,ES41,ES411,05153,Nava del Barco,79,29.39241096,2020,ES_05153,TRUE
ES_05154,-5.079978668003844,40.42167779880569,ES,ES41,ES411,05154,Navadijos,31,19.86083432,2020,ES_05154,TRUE
ES_05155,-5.277208393577705,40.47319097761798,ES,ES41,ES411,05155,Navaescurial,45,35.31751081,2020,ES_05155,TRUE
ES_05156,-4.487426958698006,40.326212454727504,ES,ES41,ES411,05156,Navahondilla,321,22.09702273,2020,ES_05156,TRUE
ES_05157,-4.929456453320391,40.44403545240981,ES,ES41,ES411,05157,Navalacruz,226,50.03607667,2020,ES_05157,TRUE
ES_05158,-4.766713791088711,40.459943614800245,ES,ES41,ES411,05158,Navalmoral,338,43.34486784,2020,ES_05158,TRUE
ES_05159,-5.501871552305191,40.280722426504646,ES,ES41,ES411,05159,Navalonguilla,216,90.73321564,2020,ES_05159,TRUE
ES_05160,-4.9305273941415715,40.39827864126231,ES,ES41,ES411,05160,Navalosa,300,30.01037036,2020,ES_05160,TRUE
ES_05161,-4.412723700035338,40.59364260310412,ES,ES41,ES411,05161,Navalperal de Pinares,757,49.88631779,2020,ES_05161,TRUE
ES_05162,-5.3025338468210705,40.35044894603915,ES,ES41,ES411,05162,Navalperal de Tormes,81,60.93938802,2020,ES_05162,TRUE
ES_05163,-4.706538751340868,40.41326763708855,ES,ES41,ES411,05163,Navaluenga,2018,73.50522422,2020,ES_05163,TRUE
ES_05164,-4.916078069764883,40.42939939059104,ES,ES41,ES411,05164,Navaquesera,16,9.19498782,2020,ES_05164,TRUE
ES_05165,-5.13533274644589,40.36157760363197,ES,ES41,ES411,05165,Navarredonda de Gredos,430,78.79902103,2020,ES_05165,TRUE
ES_05166,-4.823276912750159,40.45135810696275,ES,ES41,ES411,05166,Navarredondilla,177,20.26998614,2020,ES_05166,TRUE
ES_05167,-4.898781698404947,40.36637485279461,ES,ES41,ES411,05167,Navarrevisca,256,40.03196196,2020,ES_05167,TRUE
ES_05168,-4.331833558055394,40.601598626588526,ES,ES41,ES411,05168,"Navas del Marqués, Las",5146,98.32018818,2020,ES_05168,TRUE
ES_05169,-4.874677091747776,40.41598988447212,ES,ES41,ES411,05169,Navatalgordo,231,20.05446302,2020,ES_05169,TRUE
ES_05170,-5.52618012840007,40.3331819392204,ES,ES41,ES411,05170,Navatejares,51,11.05884909,2020,ES_05170,TRUE
ES_05171,-5.653294081332165,40.42238632484849,ES,ES41,ES411,05171,Neila de San Miguel,67,7.90151039,2020,ES_05171,TRUE
ES_05172,-4.844308349413082,40.58960878213635,ES,ES41,ES411,05172,Niharra,202,11.28138119,2020,ES_05172,TRUE
ES_05173,-4.510836163814357,40.71205319503218,ES,ES41,ES411,05173,Ojos-Albos,76,43.13277777,2020,ES_05173,TRUE
ES_05174,-4.672360099065529,40.98826041982837,ES,ES41,ES411,05174,Orbita,69,14.36636436,2020,ES_05174,TRUE
ES_05175,-4.771049950858309,40.838673770234024,ES,ES41,ES411,05175,"Oso, El",158,18.50036953,2020,ES_05175,TRUE
ES_05176,-4.8461118145224455,40.620769954017845,ES,ES41,ES411,05176,Padiernos,273,36.97069879,2020,ES_05176,TRUE
ES_05177,-4.641663255532875,40.92470143230818,ES,ES41,ES411,05177,Pajares de Adaja,138,23.24613182,2020,ES_05177,TRUE
ES_05178,-4.780554639628281,41.11234949962531,ES,ES41,ES411,05178,Palacios de Goda,389,52.9990009,2020,ES_05178,TRUE
ES_05179,-4.839226287511012,40.86951854456976,ES,ES41,ES411,05179,Papatrigo,227,21.0143407,2020,ES_05179,TRUE
ES_05180,-4.991386192835315,40.80173055672279,ES,ES41,ES411,05180,"Parral, El",62,10.87307077,2020,ES_05180,TRUE
ES_05181,-5.280483952098573,40.65608287901249,ES,ES41,ES411,05181,Pascualcobo,43,16.14509179,2020,ES_05181,TRUE
ES_05182,-4.913204373574335,40.24446205128342,ES,ES41,ES411,05182,Pedro Bernardo,787,69.05279626,2020,ES_05182,TRUE
ES_05183,-4.782322753762602,40.934487074784784,ES,ES41,ES411,05183,Pedro-Rodríguez,133,14.07366872,2020,ES_05183,TRUE
ES_05184,-4.231427839486981,40.63021117122264,ES,ES41,ES411,05184,Peguerinos,275,86.04971736,2020,ES_05184,TRUE
ES_05185,-4.743186076599636,40.77576173140426,ES,ES41,ES411,05185,Peñalba de Ávila,105,23.50363257,2020,ES_05185,TRUE
ES_05186,-5.32756919507645,40.46502322331579,ES,ES41,ES411,05186,Piedrahíta,1802,28.68012463,2020,ES_05186,TRUE
ES_05187,-4.697394716764194,40.316447951018475,ES,ES41,ES411,05187,Piedralaves,2070,55.24613829,2020,ES_05187,TRUE
ES_05188,-5.077131766637025,40.56839233847372,ES,ES41,ES411,05188,Poveda,39,6.52772677,2020,ES_05188,TRUE
ES_05189,-5.162952283129341,40.169610082181485,ES,ES41,ES411,05189,Poyales del Hoyo,458,3.36215479,2020,ES_05189,TRUE
ES_05190,-4.666484599730677,40.80424856965207,ES,ES41,ES411,05190,Pozanco,53,11.06339746,2020,ES_05190,TRUE
ES_05191,-5.075157273223458,40.55023614838656,ES,ES41,ES411,05191,Pradosegar,109,11.29385879,2020,ES_05191,TRUE
ES_05192,-5.628423387662868,40.29015319945359,ES,ES41,ES411,05192,Puerto Castilla,107,43.28336442,2020,ES_05192,TRUE
ES_05193,-5.071549431389609,41.02479141971841,ES,ES41,ES411,05193,Rasueros,174,40.65713315,2020,ES_05193,TRUE
ES_05194,-4.8053244149466465,40.83055598991132,ES,ES41,ES411,05194,Riocabado,137,19.76562687,2020,ES_05194,TRUE
ES_05195,-4.774329039835639,40.55144975154451,ES,ES41,ES411,05195,Riofrío,203,65.52398618,2020,ES_05195,TRUE
ES_05196,-4.99178993647233,40.90261942486291,ES,ES41,ES411,05196,Rivilla de Barajas,67,24.37357726,2020,ES_05196,TRUE
ES_05197,-4.812660619991539,40.60890814468967,ES,ES41,ES411,05197,Salobral,112,7.54680985,2020,ES_05197,TRUE
ES_05198,-5.094380076352825,40.87772816892443,ES,ES41,ES411,05198,Salvadiós,69,20.38911968,2020,ES_05198,TRUE
ES_05199,-5.665654796314291,40.41101703550594,ES,ES41,ES411,05199,San Bartolomé de Béjar,39,16.5009366,2020,ES_05199,TRUE
ES_05200,-5.383347908397698,40.484172144398485,ES,ES41,ES411,05200,San Bartolomé de Corneja,44,7.35681619,2020,ES_05200,TRUE
ES_05201,-4.540553477345599,40.539801738824615,ES,ES41,ES411,05201,San Bartolomé de Pinares,534,74.70451246,2020,ES_05201,TRUE
ES_05204,-4.584363669112754,40.89079417491622,ES,ES41,ES411,05204,Sanchidrián,714,26.61018528,2020,ES_05204,TRUE
ES_05205,-4.912745530981722,40.66741573014286,ES,ES41,ES411,05205,Sanchorreja,83,35.33044175,2020,ES_05205,TRUE
ES_05206,-4.628745917741456,40.746662691055505,ES,ES41,ES411,05206,San Esteban de los Patos,23,10.34673978,2020,ES_05206,TRUE
ES_05207,-4.983806104979651,40.27155425139994,ES,ES41,ES411,05207,San Esteban del Valle,718,39.40971311,2020,ES_05207,TRUE
ES_05208,-4.904185290992495,41.090289965045784,ES,ES41,ES411,05208,San Esteban de Zapardiel,40,12.98917337,2020,ES_05208,TRUE
ES_05209,-5.115663183037961,40.76715141755709,ES,ES41,ES411,05209,San García de Ingelmos,75,38.06857686,2020,ES_05209,TRUE
ES_05210,-4.839067737811437,40.8302151357178,ES,ES41,ES411,05210,San Juan de la Encinilla,80,17.37826893,2020,ES_05210,TRUE
ES_05211,-4.682901772559908,40.48086380257076,ES,ES41,ES411,05211,San Juan de la Nava,459,60.768408,2020,ES_05211,TRUE
ES_05212,-4.8472983757097134,40.46523170482949,ES,ES41,ES411,05212,San Juan del Molinillo,196,35.81024934,2020,ES_05212,TRUE
ES_05213,-5.052265257747697,40.65469847698894,ES,ES41,ES411,05213,San Juan del Olmo,90,30.49799008,2020,ES_05213,TRUE
ES_05214,-5.4940799009834915,40.37038413761313,ES,ES41,ES411,05214,San Lorenzo de Tormes,27,14.48827567,2020,ES_05214,TRUE
ES_05215,-5.153552604376017,40.42806775141516,ES,ES41,ES411,05215,San Martín de la Vega del Alberche,166,50.47527227,2020,ES_05215,TRUE
ES_05216,-5.055228165207319,40.37026572309836,ES,ES41,ES411,05216,San Martín del Pimpollar,186,45.64687096,2020,ES_05216,TRUE
ES_05217,-5.288686247858294,40.489537023943065,ES,ES41,ES411,05217,San Miguel de Corneja,53,6.8201809,2020,ES_05217,TRUE
ES_05218,-5.285612826425493,40.67358862437372,ES,ES41,ES411,05218,San Miguel de Serrezuela,115,34.76836718,2020,ES_05218,TRUE
ES_05219,-4.750801938073879,40.88622838461604,ES,ES41,ES411,05219,San Pascual,39,18.65427485,2020,ES_05219,TRUE
ES_05220,-4.870826393270856,40.80177688744058,ES,ES41,ES411,05220,San Pedro del Arroyo,422,18.5413607,2020,ES_05220,TRUE
ES_05221,-5.002796938507263,40.24949410895203,ES,ES41,ES411,05221,Santa Cruz del Valle,332,29.6248773,2020,ES_05221,TRUE
ES_05222,-4.580949854348345,40.54293018153005,ES,ES41,ES411,05222,Santa Cruz de Pinares,148,41.39226163,2020,ES_05222,TRUE
ES_05224,-4.919163588443113,40.60185663215717,ES,ES41,ES411,05224,Santa María del Arroyo,105,11.15812323,2020,ES_05224,TRUE
ES_05225,-5.401469902931536,40.508492665226974,ES,ES41,ES411,05225,Santa María del Berrocal,388,28.39292818,2020,ES_05225,TRUE
ES_05226,-5.454547030882011,40.39043192711088,ES,ES41,ES411,05226,Santa María de los Caballeros,63,22.39721775,2020,ES_05226,TRUE
ES_05227,-4.5488173458109555,40.30232710719136,ES,ES41,ES411,05227,Santa María del Tiétar,447,11.98513077,2020,ES_05227,TRUE
ES_05228,-5.350308970867479,40.42975170491869,ES,ES41,ES411,05228,Santiago del Collado,170,42.70212659,2020,ES_05228,TRUE
ES_05229,-4.632251173210558,40.8097717467255,ES,ES41,ES411,05229,Santo Domingo de las Posadas,69,13.35074794,2020,ES_05229,TRUE
ES_05230,-4.908613442196644,40.7866622685691,ES,ES41,ES411,05230,Santo Tomé de Zabarcos,67,8.41519189,2020,ES_05230,TRUE
ES_05231,-4.802083482502883,40.96818551391311,ES,ES41,ES411,05231,San Vicente de Arévalo,170,16.12291174,2020,ES_05231,TRUE
ES_05232,-4.793670044965765,40.63016077078591,ES,ES41,ES411,05232,"Serrada, La",118,7.2444887,2020,ES_05232,TRUE
ES_05233,-4.91578086428116,40.336297401806355,ES,ES41,ES411,05233,Serranillos,243,18.28460155,2020,ES_05233,TRUE
ES_05234,-4.931186165759826,40.80154969863544,ES,ES41,ES411,05234,Sigeres,45,13.70930483,2020,ES_05234,TRUE
ES_05235,-4.828176506565221,41.07438054712624,ES,ES41,ES411,05235,Sinlabajos,143,20.08433397,2020,ES_05235,TRUE
ES_05236,-5.609714808981299,40.32968389554548,ES,ES41,ES411,05236,Solana de Ávila,110,68.37990098,2020,ES_05236,TRUE
ES_05237,-5.011400768603873,40.7349817529442,ES,ES41,ES411,05237,Solana de Rioalmar,151,37.14341777,2020,ES_05237,TRUE
ES_05238,-4.911953280394969,40.54935301719677,ES,ES41,ES411,05238,Solosancho,820,51.98210888,2020,ES_05238,TRUE
ES_05239,-4.869836518059786,40.53730490142738,ES,ES41,ES411,05239,Sotalbo,232,90.43653343,2020,ES_05239,TRUE
ES_05240,-4.58327161663311,40.29490480086466,ES,ES41,ES411,05240,Sotillo de la Adrada,4653,43.25534998,2020,ES_05240,TRUE
ES_05241,-4.503110016022381,40.4144636284173,ES,ES41,ES411,05241,"Tiemblo, El",4180,75.55097486,2020,ES_05241,TRUE
ES_05242,-4.726645259943418,40.93370437633496,ES,ES41,ES411,05242,Tiñosillos,775,27.24725744,2020,ES_05242,TRUE
ES_05243,-4.588894129415583,40.74521714693291,ES,ES41,ES411,05243,Tolbaños,78,51.99031456,2020,ES_05243,TRUE
ES_05244,-5.5071455379072045,40.309335935013976,ES,ES41,ES411,05244,Tormellas,37,9.23564302,2020,ES_05244,TRUE
ES_05245,-4.61289890492535,40.62812502224637,ES,ES41,ES411,05245,Tornadizos de Ávila,418,95.46575044,2020,ES_05245,TRUE
ES_05246,-5.257359527141936,40.55852811590136,ES,ES41,ES411,05246,Tórtoles,46,20.77087197,2020,ES_05246,TRUE
ES_05247,-4.9732253329708795,40.57978483976082,ES,ES41,ES411,05247,"Torre, La",230,58.33573107,2020,ES_05247,TRUE
ES_05249,-5.581982222463079,40.31310724739161,ES,ES41,ES411,05249,Umbrías,96,11.68087658,2020,ES_05249,TRUE
ES_05251,-5.12482831836749,40.60691544742335,ES,ES41,ES411,05251,Vadillo de la Sierra,54,46.15325763,2020,ES_05251,TRUE
ES_05252,-5.015674991556187,40.665094798440244,ES,ES41,ES411,05252,Valdecasa,59,21.8048678,2020,ES_05252,TRUE
ES_05253,-4.6370683454816115,40.83709062763336,ES,ES41,ES411,05253,Vega de Santa María,77,18.18557145,2020,ES_05253,TRUE
ES_05254,-4.626257949124209,40.83871792406914,ES,ES41,ES411,05254,Velayos,214,20.4363111,2020,ES_05254,TRUE
ES_05256,-4.871836080539065,40.755909633627226,ES,ES41,ES411,05256,Villaflor,111,18.49322604,2020,ES_05256,TRUE
ES_05257,-5.230677350815382,40.49861438458663,ES,ES41,ES411,05257,Villafranca de la Sierra,129,39.33561367,2020,ES_05257,TRUE
ES_05258,-4.728830611349252,40.88407798685335,ES,ES41,ES411,05258,Villanueva de Gómez,115,21.09674271,2020,ES_05258,TRUE
ES_05259,-4.856276773056609,41.04252642930801,ES,ES41,ES411,05259,Villanueva del Aceral,109,17.56621617,2020,ES_05259,TRUE
ES_05260,-5.178434915385817,40.580054154172146,ES,ES41,ES411,05260,Villanueva del Campillo,101,46.00771293,2020,ES_05260,TRUE
ES_05261,-5.43329121707971,40.475903920123486,ES,ES41,ES411,05261,Villar de Corneja,35,6.86013265,2020,ES_05261,TRUE
ES_05262,-4.999674667645936,40.28669621532903,ES,ES41,ES411,05262,Villarejo del Valle,328,41.57691573,2020,ES_05262,TRUE
ES_05263,-5.111941230138294,40.553824420946164,ES,ES41,ES411,05263,Villatoro,157,56.02137149,2020,ES_05263,TRUE
ES_05264,-4.918501665630172,40.84964265776471,ES,ES41,ES411,05264,Viñegra de Moraña,53,10.25181116,2020,ES_05264,TRUE
ES_05265,-5.0051749614554675,40.80887135129159,ES,ES41,ES411,05265,Vita,83,16.60960826,2020,ES_05265,TRUE
ES_05266,-5.341324979644483,40.6064220778454,ES,ES41,ES411,05266,Zapardiel de la Cañada,91,40.31823047,2020,ES_05266,TRUE
ES_05267,-5.336480031641318,40.34475685115285,ES,ES41,ES411,05267,Zapardiel de la Ribera,107,43.86086588,2020,ES_05267,TRUE
ES_05901,-5.249131106688239,40.36518957522706,ES,ES41,ES411,05901,San Juan de Gredos,247,95.85410123,2020,ES_05901,TRUE
ES_05902,-4.482077089822811,40.74814059736392,ES,ES41,ES411,05902,Santa María del Cubillo,303,65.81409148,2020,ES_05902,TRUE
ES_05903,-5.324284119811949,40.6675151140809,ES,ES41,ES411,05903,Diego del Carpio,126,33.80790757,2020,ES_05903,TRUE
ES_05904,-5.386946433381444,40.346450150474574,ES,ES41,ES411,05904,Santiago del Tormes,114,68.4619094,2020,ES_05904,TRUE
ES_05905,-4.818395868191214,40.37873314890681,ES,ES41,ES411,05905,Villanueva de Ávila,217,21.20836935,2020,ES_05905,TRUE
ES_06001,-5.624051056285692,39.084685708256494,ES,ES43,ES431,06001,Acedera,826,82.48181269,2020,ES_06001,TRUE
ES_06002,-6.4898235049149084,38.645086828084004,ES,ES43,ES431,06002,Aceuchal,5478,63.07216395,2020,ES_06002,TRUE
ES_06003,-5.864031957968586,38.26193106047047,ES,ES43,ES431,06003,Ahillones,863,21.5143011,2020,ES_06003,TRUE
ES_06004,-6.245747821590691,38.78794724773556,ES,ES43,ES431,06004,Alange,1856,160.1789564,2020,ES_06004,TRUE
ES_06005,-6.8259370132549675,38.71474635605511,ES,ES43,ES431,06005,"Albuera, La",2035,26.36667898,2020,ES_06005,TRUE
ES_06006,-7.001178159337538,39.21906705742422,ES,ES43,ES431,06006,Alburquerque,5293,723.25313291,2020,ES_06006,TRUE
ES_06007,-7.068346971706825,38.514806741197454,ES,ES43,ES431,06007,Alconchel,1659,295.01573521,2020,ES_06007,TRUE
ES_06008,-6.474627436663065,38.39683366843685,ES,ES43,ES431,06008,Alconera,743,32.75634041,2020,ES_06008,TRUE
ES_06009,-6.333051385935251,39.04295868034341,ES,ES43,ES431,06009,Aljucén,250,19.06448584,2020,ES_06009,TRUE
ES_06010,-6.823479440873588,38.613742767434786,ES,ES43,ES431,06010,Almendral,1239,67.49795121,2020,ES_06010,TRUE
ES_06011,-6.406769016800107,38.68018525627661,ES,ES43,ES431,06011,Almendralejo,33855,164.26718048,2020,ES_06011,TRUE
ES_06012,-6.451187900422779,38.85411919153523,ES,ES43,ES431,06012,Arroyo de San Serván,4080,50.09528272,2020,ES_06012,TRUE
ES_06013,-6.472870754793518,38.33715109202992,ES,ES43,ES431,06013,Atalaya,294,22.70049514,2020,ES_06013,TRUE
ES_06014,-5.675967318396497,38.25885310158783,ES,ES43,ES431,06014,Azuaga,7747,497.93534384,2020,ES_06014,TRUE
ES_06015,-6.973508362415139,38.874295567435695,ES,ES43,ES431,06015,Badajoz,150984,1440.28186234,2020,ES_06015,TRUE
ES_06016,-6.847283335693423,38.51738953781541,ES,ES43,ES431,06016,Barcarrota,3483,136.12061036,2020,ES_06016,TRUE
ES_06017,-4.914121290334066,38.957572266604195,ES,ES43,ES431,06017,Baterno,266,62.08649689,2020,ES_06017,TRUE
ES_06018,-5.486363069757335,38.69705859586631,ES,ES43,ES431,06018,Benquerencia de la Serena,812,102.81540901,2020,ES_06018,TRUE
ES_06019,-5.83012356067811,38.280595692862526,ES,ES43,ES431,06019,Berlanga,2331,127.75582088,2020,ES_06019,TRUE
ES_06020,-6.206735699524968,38.29757541823981,ES,ES43,ES431,06020,Bienvenida,2081,92.14975821,2020,ES_06020,TRUE
ES_06021,-6.557061494911997,38.14638244840879,ES,ES43,ES431,06021,Bodonal de la Sierra,1036,68.34674276,2020,ES_06021,TRUE
ES_06022,-6.588336138100228,38.37884414683703,ES,ES43,ES431,06022,Burguillos del Cerro,3066,187.55378135,2020,ES_06022,TRUE
ES_06023,-5.221471563559046,38.71988565949434,ES,ES43,ES431,06023,Cabeza del Buey,4808,475.09962618,2020,ES_06023,TRUE
ES_06024,-6.422039084515177,38.08500861881802,ES,ES43,ES431,06024,Cabeza la Vaca,1298,64.01698517,2020,ES_06024,TRUE
ES_06025,-6.38765512564812,38.88571689486677,ES,ES43,ES431,06025,Calamonte,6170,7.86437797,2020,ES_06025,TRUE
ES_06026,-6.334995065037621,38.10900236001512,ES,ES43,ES431,06026,Calera de León,930,68.39688265,2020,ES_06026,TRUE
ES_06027,-6.3125788352088765,38.29935356678878,ES,ES43,ES431,06027,Calzadilla de los Barros,736,52.23726828,2020,ES_06027,TRUE
ES_06028,-5.618971718692532,38.86433559697589,ES,ES43,ES431,06028,Campanario,4854,257.36018068,2020,ES_06028,TRUE
ES_06029,-5.834393478215208,38.49858432448922,ES,ES43,ES431,06029,Campillo de Llerena,1343,234.09088151,2020,ES_06029,TRUE
ES_06030,-5.08266103339273,38.82276478729217,ES,ES43,ES431,06030,Capilla,172,146.99913986,2020,ES_06030,TRUE
ES_06031,-6.3369129660162855,39.1517531945485,ES,ES43,ES431,06031,Carmonita,524,39.19719495,2020,ES_06031,TRUE
ES_06032,-6.3392068543175215,39.02069436855157,ES,ES43,ES431,06032,"Carrascalejo, El",85,12.77636212,2020,ES_06032,TRUE
ES_06033,-5.333955619207631,39.10442205576327,ES,ES43,ES431,06033,Casas de Don Pedro,1447,144.55045157,2020,ES_06033,TRUE
ES_06034,-5.973395218472773,38.199237839532024,ES,ES43,ES431,06034,Casas de Reina,199,49.79807141,2020,ES_06034,TRUE
ES_06035,-5.092775271742271,39.282976442496604,ES,ES43,ES431,06035,Castilblanco,915,132.25626285,2020,ES_06035,TRUE
ES_06036,-5.546405223529248,38.722813842290286,ES,ES43,ES431,06036,Castuera,5784,432.05813863,2020,ES_06036,TRUE
ES_06037,-7.169028388929649,39.20723733038006,ES,ES43,ES431,06037,"Codosera, La",2061,69.64678512,2020,ES_06037,TRUE
ES_06038,-6.438031431326486,39.149698487090276,ES,ES43,ES431,06038,Cordobilla de Lácara,897,36.91617164,2020,ES_06038,TRUE
ES_06039,-5.668793982109065,38.91963651609817,ES,ES43,ES431,06039,"Coronada, La",2165,81.14676109,2020,ES_06039,TRUE
ES_06040,-6.668886835336641,38.72471953341478,ES,ES43,ES431,06040,Corte de Peleas,1191,42.29680278,2020,ES_06040,TRUE
ES_06041,-6.095419630290482,38.84100963835887,ES,ES43,ES431,06041,Cristina,551,15.81925069,2020,ES_06041,TRUE
ES_06042,-7.278888399575264,38.51340389102578,ES,ES43,ES431,06042,Cheles,1173,47.93498017,2020,ES_06042,TRUE
ES_06043,-6.272522547459022,38.84789550656083,ES,ES43,ES431,06043,Don Álvaro,775,32.07447127,2020,ES_06043,TRUE
ES_06044,-5.86300418094829,38.957282454068284,ES,ES43,ES431,06044,Don Benito,37284,561.78794324,2020,ES_06044,TRUE
ES_06045,-6.709092726301254,38.71691383992639,ES,ES43,ES431,06045,Entrín Bajo,552,9.74514496,2020,ES_06045,TRUE
ES_06046,-6.436939420277494,38.94169362613321,ES,ES43,ES431,06046,Esparragalejo,1460,16.71620772,2020,ES_06046,TRUE
ES_06047,-5.602841365725827,38.64816034617562,ES,ES43,ES431,06047,Esparragosa de la Serena,998,21.68815327,2020,ES_06047,TRUE
ES_06048,-5.271523202217906,38.97654242064293,ES,ES43,ES431,06048,Esparragosa de Lares,906,208.59886213,2020,ES_06048,TRUE
ES_06049,-6.56333033088335,38.51196656873037,ES,ES43,ES431,06049,Feria,1115,73.6991991,2020,ES_06049,TRUE
ES_06050,-6.652468753290378,38.167806338464345,ES,ES43,ES431,06050,Fregenal de la Sierra,4836,236.69153919,2020,ES_06050,TRUE
ES_06051,-4.932879398616537,39.131100599200416,ES,ES43,ES431,06051,Fuenlabrada de los Montes,1811,191.89669173,2020,ES_06051,TRUE
ES_06052,-6.30878679104207,38.2467580923623,ES,ES43,ES431,06052,Fuente de Cantos,4687,251.73141227,2020,ES_06052,TRUE
ES_06053,-5.892687948510856,38.150217009031635,ES,ES43,ES431,06053,Fuente del Arco,681,115.34480932,2020,ES_06053,TRUE
ES_06054,-6.449419149677992,38.52637484839274,ES,ES43,ES431,06054,Fuente del Maestre,6714,179.70866001,2020,ES_06054,TRUE
ES_06055,-6.538275496189514,38.06546237182501,ES,ES43,ES431,06055,Fuentes de León,2248,109.88366733,2020,ES_06055,TRUE
ES_06056,-4.995367494514564,39.0478226854495,ES,ES43,ES431,06056,Garbayuela,509,84.14239978,2020,ES_06056,TRUE
ES_06057,-5.049103737704457,38.88260313318458,ES,ES43,ES431,06057,Garlitos,565,129.30626904,2020,ES_06057,TRUE
ES_06058,-6.479303320630247,38.92256779756932,ES,ES43,ES431,06058,"Garrovilla, La",2357,33.46810645,2020,ES_06058,TRUE
ES_06059,-5.595938515978593,38.30656943745103,ES,ES43,ES431,06059,Granja de Torrehermosa,1977,151.71102393,2020,ES_06059,TRUE
ES_06060,-6.0990128158511405,38.859916202500784,ES,ES43,ES431,06060,Guareña,6888,238.80137498,2020,ES_06060,TRUE
ES_06061,-5.796906778469494,38.91357185401832,ES,ES43,ES431,06061,"Haba, La",1219,86.60490848,2020,ES_06061,TRUE
ES_06062,-4.9109161297633674,39.30910840676406,ES,ES43,ES431,06062,Helechosa de los Montes,626,309.68167596,2020,ES_06062,TRUE
ES_06063,-5.05034917405222,39.16796787082144,ES,ES43,ES431,06063,Herrera del Duque,3489,277.29243572,2020,ES_06063,TRUE
ES_06064,-5.742532368309722,38.642932172361526,ES,ES43,ES431,06064,Higuera de la Serena,936,58.38961216,2020,ES_06064,TRUE
ES_06065,-6.003150693703674,38.377887182248095,ES,ES43,ES431,06065,Higuera de Llerena,337,113.37933212,2020,ES_06065,TRUE
ES_06066,-6.9800459465281754,38.44463630741402,ES,ES43,ES431,06066,Higuera de Vargas,1925,67.60027462,2020,ES_06066,TRUE
ES_06067,-6.69145118399773,38.139473558189664,ES,ES43,ES431,06067,Higuera la Real,2219,125.64698112,2020,ES_06067,TRUE
ES_06068,-6.182786409872751,38.485571845260935,ES,ES43,ES431,06068,Hinojosa del Valle,475,46.12651903,2020,ES_06068,TRUE
ES_06069,-6.07004085070199,38.55244959579337,ES,ES43,ES431,06069,Hornachos,3537,295.92886189,2020,ES_06069,TRUE
ES_06070,-6.775141317780357,38.32006105913656,ES,ES43,ES431,06070,Jerez de los Caballeros,9196,739.71543126,2020,ES_06070,TRUE
ES_06071,-6.5204245629172695,38.454983132522756,ES,ES43,ES431,06071,"Lapa, La",279,8.10148286,2020,ES_06071,TRUE
ES_06072,-6.6272753531135455,38.850960275851676,ES,ES43,ES431,06072,Lobón,2756,57.65248638,2020,ES_06072,TRUE
ES_06073,-6.0562474319472885,38.445482841278256,ES,ES43,ES431,06073,Llera,829,71.49877803,2020,ES_06073,TRUE
ES_06074,-6.0174046982756595,38.237364772299436,ES,ES43,ES431,06074,Llerena,5743,162.72781842,2020,ES_06074,TRUE
ES_06075,-5.730444819859143,38.894248189849264,ES,ES43,ES431,06075,Magacela,523,75.7400862,2020,ES_06075,TRUE
ES_06076,-5.839359889962872,38.36801434127145,ES,ES43,ES431,06076,Maguilla,957,97.8428397,2020,ES_06076,TRUE
ES_06077,-5.689191324692393,38.12667024741648,ES,ES43,ES431,06077,Malcocinado,356,26.24278098,2020,ES_06077,TRUE
ES_06078,-5.6446489261756,38.67700391219968,ES,ES43,ES431,06078,Malpartida de la Serena,543,26.34118527,2020,ES_06078,TRUE
ES_06079,-6.018382290955996,38.81724012560748,ES,ES43,ES431,06079,Manchita,764,38.2189277,2020,ES_06079,TRUE
ES_06080,-5.961315877155658,38.96452569900742,ES,ES43,ES431,06080,Medellín,2275,64.94437485,2020,ES_06080,TRUE
ES_06081,-6.416190431546387,38.34400109638027,ES,ES43,ES431,06081,Medina de las Torres,1176,87.37465465,2020,ES_06081,TRUE
ES_06082,-5.929390467978434,38.933663677196435,ES,ES43,ES431,06082,Mengabril,498,43.82894773,2020,ES_06082,TRUE
ES_06083,-6.344676209381109,38.91808006671858,ES,ES43,ES431,06083,Mérida,59548,865.33034194,2020,ES_06083,TRUE
ES_06084,-6.2873121951473525,39.001950777878434,ES,ES43,ES431,06084,Mirandilla,1262,41.61077671,2020,ES_06084,TRUE
ES_06085,-6.271900465416256,38.08857869102307,ES,ES43,ES431,06085,Monesterio,4216,322.412378,2020,ES_06085,TRUE
ES_06086,-6.197363122541751,38.14406847736731,ES,ES43,ES431,06086,Montemolín,1361,202.6152937,2020,ES_06086,TRUE
ES_06087,-5.4479813922262545,38.589533025271166,ES,ES43,ES431,06087,Monterrubio de la Serena,2326,315.11516456,2020,ES_06087,TRUE
ES_06088,-6.616399256138672,38.90819261030475,ES,ES43,ES431,06088,Montijo,15504,119.70092757,2020,ES_06088,TRUE
ES_06089,-6.653955975653469,38.54619598616056,ES,ES43,ES431,06089,"Morera, La",714,43.42437981,2020,ES_06089,TRUE
ES_06090,-6.503941582707433,39.06596026881544,ES,ES43,ES431,06090,"Nava de Santiago, La",926,45.0097874,2020,ES_06090,TRUE
ES_06091,-5.471412206542211,39.092106033386116,ES,ES43,ES431,06091,Navalvillar de Pela,4403,251.11804221,2020,ES_06091,TRUE
ES_06092,-6.741093821312236,38.592931706131836,ES,ES43,ES431,06092,Nogales,658,80.66098331,2020,ES_06092,TRUE
ES_06093,-6.9176757472444965,38.27570417340176,ES,ES43,ES431,06093,Oliva de la Frontera,5086,149.26215997,2020,ES_06093,TRUE
ES_06094,-6.122803276399742,38.79045113673641,ES,ES43,ES431,06094,Oliva de Mérida,1725,254.49587428,2020,ES_06094,TRUE
ES_06095,-7.099728101416105,38.68373755484792,ES,ES43,ES431,06095,Olivenza,11912,430.09871454,2020,ES_06095,TRUE
ES_06096,-5.496774111130253,39.03123906077459,ES,ES43,ES431,06096,Orellana de la Sierra,244,16.70514637,2020,ES_06096,TRUE
ES_06097,-5.536229894053013,39.00723840743929,ES,ES43,ES431,06097,Orellana la Vieja,2641,37.02220148,2020,ES_06097,TRUE
ES_06098,-6.136895420893416,38.6953927358814,ES,ES43,ES431,06098,Palomas,671,40.47665123,2020,ES_06098,TRUE
ES_06099,-6.622841376241044,38.52003829307585,ES,ES43,ES431,06099,"Parra, La",1327,78.20223982,2020,ES_06099,TRUE
ES_06100,-5.116540156782875,38.81762453467139,ES,ES43,ES431,06100,Peñalsordo,896,47.32745106,2020,ES_06100,TRUE
ES_06101,-5.561191424067068,38.47182124352063,ES,ES43,ES431,06101,Peraleda del Zaucejo,507,163.71357578,2020,ES_06101,TRUE
ES_06102,-5.258253049871541,38.987851541014926,ES,ES43,ES431,06102,Puebla de Alcocer,1212,296.28394108,2020,ES_06102,TRUE
ES_06103,-6.625273633959846,38.89320647430636,ES,ES43,ES431,06103,Puebla de la Calzada,5834,14.256002,2020,ES_06103,TRUE
ES_06104,-6.0983761958514755,38.665680835582386,ES,ES43,ES431,06104,Puebla de la Reina,724,131.71432806,2020,ES_06104,TRUE
ES_06105,-6.079997669040513,38.08714943102681,ES,ES43,ES431,06105,Puebla del Maestre,670,79.1903327,2020,ES_06105,TRUE
ES_06106,-6.192088165401073,38.56726163446995,ES,ES43,ES431,06106,Puebla del Prior,480,35.8822622,2020,ES_06106,TRUE
ES_06107,-6.6260413214849025,39.173878084782444,ES,ES43,ES431,06107,Puebla de Obando,1839,23.62657527,2020,ES_06107,TRUE
ES_06108,-6.401111282059072,38.39282770165384,ES,ES43,ES431,06108,Puebla de Sancho Pérez,2676,56.71103581,2020,ES_06108,TRUE
ES_06109,-5.671208808343356,38.73977731420072,ES,ES43,ES431,06109,Quintana de la Serena,4574,141.54063456,2020,ES_06109,TRUE
ES_06110,-5.946736876130647,38.184882368757066,ES,ES43,ES431,06110,Reina,150,72.47203239,2020,ES_06110,TRUE
ES_06111,-5.806181025976678,39.05512035525813,ES,ES43,ES431,06111,Rena,610,10.76871852,2020,ES_06111,TRUE
ES_06112,-5.843438083956052,38.579215426953716,ES,ES43,ES431,06112,Retamal de Llerena,436,96.12809767,2020,ES_06112,TRUE
ES_06113,-6.2343057998139555,38.55079831453096,ES,ES43,ES431,06113,Ribera del Fresno,3256,185.61710574,2020,ES_06113,TRUE
ES_06114,-5.125435699925194,38.907886551620294,ES,ES43,ES431,06114,Risco,132,39.50672858,2020,ES_06114,TRUE
ES_06115,-6.690661192054507,39.10730418625774,ES,ES43,ES431,06115,"Roca de la Sierra, La",1455,109.66528466,2020,ES_06115,TRUE
ES_06116,-6.785181404739191,38.50986769063831,ES,ES43,ES431,06116,Salvaleón,1721,71.83579748,2020,ES_06116,TRUE
ES_06117,-6.686605533823179,38.4904085107213,ES,ES43,ES431,06117,Salvatierra de los Barros,1607,74.93958668,2020,ES_06117,TRUE
ES_06118,-5.143032007473167,38.923476250549975,ES,ES43,ES431,06118,Sancti-Spíritus,165,33.56332422,2020,ES_06118,TRUE
ES_06119,-6.188698864805903,38.94833469151258,ES,ES43,ES431,06119,San Pedro de Mérida,838,22.73232943,2020,ES_06119,TRUE
ES_06120,-6.008184520777767,39.01241921937981,ES,ES43,ES431,06120,Santa Amalia,3975,73.1246404,2020,ES_06120,TRUE
ES_06121,-6.624107133793512,38.61305667090696,ES,ES43,ES431,06121,Santa Marta,4124,119.72934824,2020,ES_06121,TRUE
ES_06122,-6.3818641663683104,38.44974754789309,ES,ES43,ES431,06122,"Santos de Maimona, Los",8075,108.61481582,2020,ES_06122,TRUE
ES_06123,-7.136991978303278,39.36018477003465,ES,ES43,ES431,06123,San Vicente de Alcántara,5377,275.29866056,2020,ES_06123,TRUE
ES_06124,-6.530381829890908,38.12134738095231,ES,ES43,ES431,06124,Segura de León,1851,104.36416115,2020,ES_06124,TRUE
ES_06125,-5.047552221050575,38.975380927797985,ES,ES43,ES431,06125,Siruela,1861,202.46513299,2020,ES_06125,TRUE
ES_06126,-6.537124587607015,38.727998535557916,ES,ES43,ES431,06126,Solana de los Barros,2601,65.0706239,2020,ES_06126,TRUE
ES_06127,-5.237342898997164,39.037805416515745,ES,ES43,ES431,06127,Talarrubias,3406,337.86497892,2020,ES_06127,TRUE
ES_06128,-6.771115087441157,38.8768303943437,ES,ES43,ES431,06128,Talavera la Real,5314,61.51210695,2020,ES_06128,TRUE
ES_06129,-7.011617808446388,38.524990785946905,ES,ES43,ES431,06129,Táliga,678,31.30815051,2020,ES_06129,TRUE
ES_06130,-4.945393475375745,38.991315130348255,ES,ES43,ES431,06130,Tamurejo,212,29.71687458,2020,ES_06130,TRUE
ES_06131,-6.799363227549182,38.61802872802509,ES,ES43,ES431,06131,Torre de Miguel Sesmero,1246,58.02075998,2020,ES_06131,TRUE
ES_06132,-6.537710357551029,38.904958300070824,ES,ES43,ES431,06132,Torremayor,949,21.00835757,2020,ES_06132,TRUE
ES_06133,-6.376036024915963,38.79266094245183,ES,ES43,ES431,06133,Torremejía,2257,23.44321425,2020,ES_06133,TRUE
ES_06134,-5.9952423128021595,38.192082898977525,ES,ES43,ES431,06134,Trasierra,625,58.13452904,2020,ES_06134,TRUE
ES_06135,-6.25455248336145,38.95223264954485,ES,ES43,ES431,06135,Trujillanos,1376,20.27100361,2020,ES_06135,TRUE
ES_06136,-6.164037864417341,38.35791785820265,ES,ES43,ES431,06136,Usagre,1751,240.68683989,2020,ES_06136,TRUE
ES_06137,-5.192651555061642,39.24579760312193,ES,ES43,ES431,06137,Valdecaballeros,1065,90.1284696,2020,ES_06137,TRUE
ES_06138,-6.0664663010476465,38.915925576174615,ES,ES43,ES431,06138,Valdetorres,1179,39.66814318,2020,ES_06138,TRUE
ES_06139,-6.00090470319052,38.4058926986488,ES,ES43,ES431,06139,Valencia de las Torres,540,210.2387955,2020,ES_06139,TRUE
ES_06140,-7.1214149234508195,38.24485776199863,ES,ES43,ES431,06140,Valencia del Mombuey,725,74.95293656,2020,ES_06140,TRUE
ES_06141,-6.475792375626058,38.26591001622699,ES,ES43,ES431,06141,Valencia del Ventoso,1960,99.19848273,2020,ES_06141,TRUE
ES_06142,-6.539642072477375,38.32499518820584,ES,ES43,ES431,06142,Valverde de Burguillos,273,19.40346982,2020,ES_06142,TRUE
ES_06143,-6.9787105011692505,38.66919190519944,ES,ES43,ES431,06143,Valverde de Leganés,4167,72.9711682,2020,ES_06143,TRUE
ES_06144,-5.825804111538021,38.21437608952177,ES,ES43,ES431,06144,Valverde de Llerena,570,41.2224519,2020,ES_06144,TRUE
ES_06145,-6.217986313706668,38.91241393408442,ES,ES43,ES431,06145,Valverde de Mérida,1047,51.65015546,2020,ES_06145,TRUE
ES_06146,-5.800594663876001,38.700021083198884,ES,ES43,ES431,06146,Valle de la Serena,1172,125.34481152,2020,ES_06146,TRUE
ES_06147,-6.798805661910084,38.3783642014191,ES,ES43,ES431,06147,Valle de Matamoros,363,4.90029448,2020,ES_06147,TRUE
ES_06148,-6.783886572565202,38.36319734029062,ES,ES43,ES431,06148,Valle de Santa Ana,1143,3.74557648,2020,ES_06148,TRUE
ES_06149,-6.338958337831242,38.56021927561552,ES,ES43,ES431,06149,Villafranca de los Barros,12673,104.40247561,2020,ES_06149,TRUE
ES_06150,-6.0772653454757934,38.2918103483634,ES,ES43,ES431,06150,Villagarcía de la Torre,906,67.49399342,2020,ES_06150,TRUE
ES_06151,-6.193795647329688,38.861683656246534,ES,ES43,ES431,06151,Villagonzalo,1234,40.81919682,2020,ES_06151,TRUE
ES_06152,-6.5077666816780715,38.613858474413284,ES,ES43,ES431,06152,Villalba de los Barros,1475,90.81971019,2020,ES_06152,TRUE
ES_06153,-5.795741158115786,38.97568424985475,ES,ES43,ES431,06153,Villanueva de la Serena,25752,152.74956436,2020,ES_06153,TRUE
ES_06154,-7.165869787282348,38.3769766836169,ES,ES43,ES431,06154,Villanueva del Fresno,3364,360.27170664,2020,ES_06154,TRUE
ES_06155,-6.850980998736593,39.13404589594529,ES,ES43,ES431,06155,Villar del Rey,2106,98.85588091,2020,ES_06155,TRUE
ES_06156,-5.76748374130726,39.09970810127509,ES,ES43,ES431,06156,Villar de Rena,1353,82.37272095,2020,ES_06156,TRUE
ES_06157,-4.795750945413018,39.21661233946844,ES,ES43,ES431,06157,Villarta de los Montes,423,123.36439394,2020,ES_06157,TRUE
ES_06158,-6.413919776430972,38.42431127677269,ES,ES43,ES431,06158,Zafra,16810,62.58668431,2020,ES_06158,TRUE
ES_06159,-6.950647536076422,38.332600644134125,ES,ES43,ES431,06159,Zahínos,2774,46.03471788,2020,ES_06159,TRUE
ES_06160,-5.661497035485162,38.65031236795783,ES,ES43,ES431,06160,Zalamea de la Serena,3545,245.67509109,2020,ES_06160,TRUE
ES_06161,-5.168119701551986,38.80458044911304,ES,ES43,ES431,06161,Zarza-Capilla,310,92.00078592,2020,ES_06161,TRUE
ES_06162,-6.218472622620567,38.81994580148101,ES,ES43,ES431,06162,"Zarza, La",3402,63.17341184,2020,ES_06162,TRUE
ES_06901,-6.700200559922103,38.89096164054088,ES,ES43,ES431,06901,Valdelacalzada,2721,31.77536547,2020,ES_06901,TRUE
ES_06902,-6.755538535132099,38.923106035122984,ES,ES43,ES431,06902,Pueblonuevo del Guadiana,2008,28.57031435,2020,ES_06902,TRUE
ES_06903,-6.6930911814245375,38.929903423825415,ES,ES43,ES431,06903,Guadiana del Caudillo,2492,30.05268856,2020,ES_06903,TRUE
ES_07001,2.792043059773598,39.70672703763631,ES,ES53,ES532,07001,Alaró,5617,45.69194073,2020,ES_07001,TRUE
ES_07002,4.137792456278138,39.93175218221415,ES,ES53,ES533,07002,Alaior,9467,109.98204364,2020,ES_07002,TRUE
ES_07003,3.1231153519221744,39.844414870660934,ES,ES53,ES532,07003,Alcúdia,20819,59.9561381,2020,ES_07003,TRUE
ES_07004,2.8928060357713394,39.561056485683736,ES,ES53,ES532,07004,Algaida,5793,89.77917206,2020,ES_07004,TRUE
ES_07005,2.4111713447969967,39.566386033934926,ES,ES53,ES532,07005,Andratx,11433,81.41137554,2020,ES_07005,TRUE
ES_07006,3.3514746326093383,39.6922268810627,ES,ES53,ES532,07006,Artà,7984,139.77312727,2020,ES_07006,TRUE
ES_07007,2.515060209764982,39.68580494270441,ES,ES53,ES532,07007,Banyalbufar,523,18.07644266,2020,ES_07007,TRUE
ES_07008,2.8416797667393006,39.68948255925012,ES,ES53,ES532,07008,Binissalem,8756,29.78995295,2020,ES_07008,TRUE
ES_07009,2.984903203219142,39.757161929834794,ES,ES53,ES532,07009,Búger,1087,8.28896788,2020,ES_07009,TRUE
ES_07010,2.6837838848876974,39.677123944368454,ES,ES53,ES532,07010,Bunyola,6895,84.73916382,2020,ES_07010,TRUE
ES_07011,2.513224608399856,39.51901375494896,ES,ES53,ES532,07011,Calvià,51710,145.01812687,2020,ES_07011,TRUE
ES_07012,2.9655546618812827,39.774671742038066,ES,ES53,ES532,07012,Campanet,2648,34.64729701,2020,ES_07012,TRUE
ES_07013,3.019177859695709,39.431464272991434,ES,ES53,ES532,07013,Campos,11283,149.72160189,2020,ES_07013,TRUE
ES_07014,3.4528333970620606,39.70825041360004,ES,ES53,ES532,07014,Capdepera,12158,54.92735854,2020,ES_07014,TRUE
ES_07015,3.840844622163082,40.001162182981176,ES,ES53,ES533,07015,Ciutadella de Menorca,30588,186.32384901,2020,ES_07015,TRUE
ES_07016,2.809278765085814,39.6710381121687,ES,ES53,ES532,07016,Consell,4125,13.68863836,2020,ES_07016,TRUE
ES_07017,2.949467212486648,39.65465624879759,ES,ES53,ES532,07017,Costitx,1329,15.35891264,2020,ES_07017,TRUE
ES_07018,2.6474734063041874,39.75016589342606,ES,ES53,ES532,07018,Deià,630,15.20409332,2020,ES_07018,TRUE
ES_07019,2.8827895996565656,39.84829807880282,ES,ES53,ES532,07019,Escorca,208,139.38094286,2020,ES_07019,TRUE
ES_07020,2.5766362109507193,39.666569414691246,ES,ES53,ES532,07020,Esporles,5113,35.29164603,2020,ES_07020,TRUE
ES_07021,2.483224664347919,39.656100052423476,ES,ES53,ES532,07021,Estellencs,327,13.4483528,2020,ES_07021,TRUE
ES_07022,3.1648977920898873,39.45972684774786,ES,ES53,ES532,07022,Felanitx,18202,169.8033964,2020,ES_07022,TRUE
ES_07023,4.013043631266907,39.980813214131416,ES,ES53,ES533,07023,Ferreries,4908,66.1233262,2020,ES_07023,TRUE
ES_07024,1.4473078019429069,38.705317318378974,ES,ES53,ES531,07024,Formentera,11904,83.17221727,2020,ES_07024,TRUE
ES_07025,2.737358061616011,39.78337575338317,ES,ES53,ES532,07025,Fornalutx,679,19.4914828,2020,ES_07025,TRUE
ES_07026,1.4248814346524226,38.91082626063078,ES,ES53,ES531,07026,Eivissa,51128,11.11783767,2020,ES_07026,TRUE
ES_07027,2.908270187509187,39.72081560525169,ES,ES53,ES532,07027,Inca,33679,58.32076829,2020,ES_07027,TRUE
ES_07028,2.976136798078602,39.620081657931145,ES,ES53,ES532,07028,Lloret de Vistalegre,1437,17.43718325,2020,ES_07028,TRUE
ES_07029,2.8690073851723596,39.72078637503775,ES,ES53,ES532,07029,Lloseta,6122,12.11388213,2020,ES_07029,TRUE
ES_07030,3.003911406048326,39.70104669657241,ES,ES53,ES532,07030,Llubí,2298,34.93349283,2020,ES_07030,TRUE
ES_07031,2.8009428344109666,39.47652951486791,ES,ES53,ES532,07031,Llucmajor,37752,327.34893433,2020,ES_07031,TRUE
ES_07032,4.261980308204465,39.886308476338876,ES,ES53,ES533,07032,Maó-Mahón,29592,116.99465288,2020,ES_07032,TRUE
ES_07033,3.235481409926141,39.56285991254425,ES,ES53,ES532,07033,Manacor,44527,260.38383024,2020,ES_07033,TRUE
ES_07034,2.869613115508083,39.74877154578089,ES,ES53,ES532,07034,Mancor de la Vall,1528,19.89240428,2020,ES_07034,TRUE
ES_07035,3.0764046071214795,39.664565565013994,ES,ES53,ES532,07035,Maria de la Salut,2245,30.51781966,2020,ES_07035,TRUE
ES_07036,2.7069948805332253,39.6067471939735,ES,ES53,ES532,07036,Marratxí,37724,54.25082506,2020,ES_07036,TRUE
ES_07037,4.0965744474206165,39.98956572935663,ES,ES53,ES533,07037,"Mercadal, Es",5316,138.27848508,2020,ES_07037,TRUE
ES_07038,2.9823318856414858,39.56620576121754,ES,ES53,ES532,07038,Montuïri,2987,41.12778712,2020,ES_07038,TRUE
ES_07039,3.057129574193196,39.73547619179856,ES,ES53,ES532,07039,Muro,7394,58.60274407,2020,ES_07039,TRUE
ES_07040,2.654570763130847,39.577830451788,ES,ES53,ES532,07040,Palma de Mallorca,422587,208.49379205,2020,ES_07040,TRUE
ES_07041,3.1167610296525394,39.612186570740384,ES,ES53,ES532,07041,Petra,2942,70.01532897,2020,ES_07041,TRUE
ES_07042,3.0323785373391483,39.88428239329199,ES,ES53,ES532,07042,Pollença,16658,151.67370451,2020,ES_07042,TRUE
ES_07043,3.022746103555199,39.51463158643177,ES,ES53,ES532,07043,Porreres,5576,86.93328395,2020,ES_07043,TRUE
ES_07044,3.0233774890915663,39.76945778488915,ES,ES53,ES532,07044,"Pobla, Sa",13764,48.59327861,2020,ES_07044,TRUE
ES_07045,2.527218764885362,39.62228458103925,ES,ES53,ES532,07045,Puigpunyent,2044,42.29509578,2020,ES_07045,TRUE
ES_07046,1.30431902811418,38.982931254387275,ES,ES53,ES531,07046,Sant Antoni de Portmany,27033,126.76853859,2020,ES_07046,TRUE
ES_07047,2.896498293231395,39.64788721347149,ES,ES53,ES532,07047,Sencelles,3370,52.86914754,2020,ES_07047,TRUE
ES_07048,1.3382294868356466,38.927850295817066,ES,ES53,ES531,07048,Sant Josep de sa Talaia,27732,159.26244433,2020,ES_07048,TRUE
ES_07049,3.039466310981503,39.59598692886486,ES,ES53,ES532,07049,Sant Joan,2145,38.54639437,2020,ES_07049,TRUE
ES_07050,1.4530532475799383,39.044011842883016,ES,ES53,ES531,07050,Sant Joan de Labritja,6576,121.56058744,2020,ES_07050,TRUE
ES_07051,3.342635643287578,39.59227207248015,ES,ES53,ES532,07051,Sant Llorenç des Cardassar,8742,82.10054691,2020,ES_07051,TRUE
ES_07052,4.257672654522152,39.84854468736058,ES,ES53,ES533,07052,Sant Lluís,6735,34.71401244,2020,ES_07052,TRUE
ES_07053,2.8371712357278738,39.62038342124774,ES,ES53,ES532,07053,Santa Eugènia,1641,20.22618297,2020,ES_07053,TRUE
ES_07054,1.5263599827475136,38.98385431774312,ES,ES53,ES531,07054,Santa Eulària des Riu,39358,153.5616689,2020,ES_07054,TRUE
ES_07055,3.1295138366901747,39.73175014054861,ES,ES53,ES532,07055,Santa Margalida,12797,86.51339266,2020,ES_07055,TRUE
ES_07056,2.7749368257708205,39.65074342531817,ES,ES53,ES532,07056,Santa María del Camí,7486,37.61136061,2020,ES_07056,TRUE
ES_07057,3.184816989217959,39.36665284031964,ES,ES53,ES532,07057,Santanyí,12373,124.90479332,2020,ES_07057,TRUE
ES_07058,2.903817051511935,39.75629626441093,ES,ES53,ES532,07058,Selva,4080,48.76875661,2020,ES_07058,TRUE
ES_07059,3.0186339847770705,39.32812151068056,ES,ES53,ES532,07059,"Salines, Ses",5096,39.00034508,2020,ES_07059,TRUE
ES_07060,3.009124925762376,39.64102163366539,ES,ES53,ES532,07060,Sineu,4030,47.75162719,2020,ES_07060,TRUE
ES_07061,2.714550906484446,39.767021634721175,ES,ES53,ES532,07061,Sóller,13634,42.81139472,2020,ES_07061,TRUE
ES_07062,3.3723917594831594,39.61421006344557,ES,ES53,ES532,07062,Son Servera,11817,42.57511554,2020,ES_07062,TRUE
ES_07063,2.6232942288782812,39.71174414268252,ES,ES53,ES532,07063,Valldemossa,2009,42.93901733,2020,ES_07063,TRUE
ES_07064,4.290384850556372,39.87861693139158,ES,ES53,ES533,07064,"Castell, Es",7572,11.59412891,2020,ES_07064,TRUE
ES_07065,3.086870910258093,39.56865954835242,ES,ES53,ES532,07065,Vilafranca de Bonany,3466,23.92731605,2020,ES_07065,TRUE
ES_07901,3.1131134899755293,39.648255253558006,ES,ES53,ES532,07901,Ariany,902,23.1423394,2020,ES_07901,TRUE
ES_07902,4.051306864198361,39.946103606375644,ES,ES53,ES533,07902,"Migjorn Gran, Es",1463,31.40679649,2020,ES_07902,TRUE
ES_08001,1.8993941234571639,41.51790637163386,ES,ES51,ES511,08001,Abrera,12538,20.11766271,2020,ES_08001,TRUE
ES_08002,1.6278741464891235,41.73966847614465,ES,ES51,ES511,08002,Aguilar de Segarra,282,43.2737209,2020,ES_08002,TRUE
ES_08003,2.297927901452548,41.491571692520424,ES,ES51,ES511,08003,Alella,9904,9.67407838,2020,ES_08003,TRUE
